     2.11           OBSERVATION DATA    M                   RINEX VERSION / TYPE
LEICA GEO OFFICE 8.4                    30-9-20 20:19       PGM / RUN BY / DATE
                                                            OBSERVER / AGENCY
UBRK                                                        MARKER NAME
UBRK                                                        MARKER NUMBER
468588              LEICA GX1220GG      5.60                REC # / TYPE / VERS
                    LEIAX1202GG                             ANT # / TYPE
 -1207301.4500  3817442.8050  4949515.1170                  APPROX POSITION XYZ
        1.4190        0.0000        0.0000                  ANTENNA: DELTA H/E/N
L1PhaOff:   0.0644  L2PhaOff:   0.0640                      COMMENT
     1     1                                                WAVELENGTH FACT L1/2
     6    C1    L1    D1    P2    L2    D2                  # / TYPES OF OBSERV
  2020     9    30     7    12   15.0000000     GPS         TIME OF FIRST OBS
  2020     9    30     8    46   20.0000000     GPS         TIME OF LAST OBS
    18                                                      LEAP SECONDS
    22                                                      # OF SATELLITES
          C1    L1    D1    P2    L2    D2                  COMMENT
   G 1     0     0     0     0     0     0                  PRN / # OF OBS
   G 2     0     0     0     0     0     0                  PRN / # OF OBS
   G 3     0     0     0     0     0     0                  PRN / # OF OBS
   G 4     0     0     0     0     0     0                  PRN / # OF OBS
   G 5     0     0     0     0     0     0                  PRN / # OF OBS
   G 6     0     0     0     0     0     0                  PRN / # OF OBS
   G 7     0     0     0     0     0     0                  PRN / # OF OBS
   G 8   640   640   640   639   639   639                  PRN / # OF OBS
   G 9     0     0     0     0     0     0                  PRN / # OF OBS
   G10  1130  1130  1130  1130  1130  1130                  PRN / # OF OBS
   G11   170   170   170   169   169   169                  PRN / # OF OBS
   G12    75    75    75    75    75    75                  PRN / # OF OBS
   G13   462   462   462   462   462   462                  PRN / # OF OBS
   G14     0     0     0     0     0     0                  PRN / # OF OBS
   G15  1130  1130  1130  1130  1130  1130                  PRN / # OF OBS
   G16     0     0     0     0     0     0                  PRN / # OF OBS
   G17     0     0     0     0     0     0                  PRN / # OF OBS
   G18  1117  1117  1117  1117  1117  1117                  PRN / # OF OBS
   G19     0     0     0     0     0     0                  PRN / # OF OBS
   G20  1130  1130  1130  1130  1130  1130                  PRN / # OF OBS
   G21  1072  1072  1072  1071  1071  1071                  PRN / # OF OBS
   G22     0     0     0     0     0     0                  PRN / # OF OBS
   G23     0     0     0     0     0     0                  PRN / # OF OBS
   G24  1130  1130  1130  1130  1130  1130                  PRN / # OF OBS
   G25     0     0     0     0     0     0                  PRN / # OF OBS
   G26     0     0     0     0     0     0                  PRN / # OF OBS
   G27   567   567   567   567   567   567                  PRN / # OF OBS
   G28     0     0     0     0     0     0                  PRN / # OF OBS
   G29     0     0     0     0     0     0                  PRN / # OF OBS
   G30     0     0     0     0     0     0                  PRN / # OF OBS
   G31     0     0     0     0     0     0                  PRN / # OF OBS
   G32   819   819   819   819   819   819                  PRN / # OF OBS
   R 1     0     0     0     0     0     0                  PRN / # OF OBS
   R 2     0     0     0     0     0     0                  PRN / # OF OBS
   R 3   150   150   150   150   150   150                  PRN / # OF OBS
   R 4  1130  1130  1130  1130  1130  1130                  PRN / # OF OBS
   R 5  1130  1130  1130  1130  1130  1130                  PRN / # OF OBS
   R 6   703   703   703     0     0     0                  PRN / # OF OBS
   R 7     0     0     0     0     0     0                  PRN / # OF OBS
   R 8     0     0     0     0     0     0                  PRN / # OF OBS
   R 9     0     0     0     0     0     0                  PRN / # OF OBS
   R10     0     0     0     0     0     0                  PRN / # OF OBS
   R11     0     0     0     0     0     0                  PRN / # OF OBS
   R12     0     0     0     0     0     0                  PRN / # OF OBS
   R13   513   513   513   500   500   500                  PRN / # OF OBS
   R14  1130  1130  1130  1130  1130  1130                  PRN / # OF OBS
   R15   935   935   935   934   934   934                  PRN / # OF OBS
   R16     0     0     0     0     0     0                  PRN / # OF OBS
   R17     0     0     0     0     0     0                  PRN / # OF OBS
   R18     0     0     0     0     0     0                  PRN / # OF OBS
   R19     0     0     0     0     0     0                  PRN / # OF OBS
   R20  1023  1023  1023  1023  1023  1023                  PRN / # OF OBS
   R21  1130  1130  1130  1130  1130  1130                  PRN / # OF OBS
   R22   363   363   363    90    90    90                  PRN / # OF OBS
   R23     0     0     0     0     0     0                  PRN / # OF OBS
   R24     0     0     0     0     0     0                  PRN / # OF OBS
                                                            END OF HEADER
 20 09 30 07 12 15.0000000  0 15G15G18G20G 8G27G24G10G13R 4R 3R13R14
                                R21R 5R20
  20781442.550   109207218.69049     -2070.379    20781442.259    85096534.07048
     -1613.285  
  21023664.775   110480097.44649     -2086.457    21023664.712    86088385.37147
     -1625.816  
  20218209.930   106247418.04249      1195.566    20218208.850    82790195.38748
       931.604  
  24744381.419   130032605.41016       881.011           0.000           0.0000 
         0.000  
  23989185.713   126064021.03657      -964.628    23989188.339    98231716.97655
      -751.648  
  21377507.347   112339590.58748      2346.866    21377509.717    87537357.76548
      1828.722  
  22599086.158   118759021.88248      2812.628    22599088.058    92539515.76847
      2191.656  
  23132601.637   121562641.83148     -3322.055    23132601.390    94724138.83445
     -2588.616  
  19710998.823   105551505.71709     -1382.620    19711001.833    82095628.57708
     -1075.370  
  23126051.920   123795569.30406     -3443.375    23126056.750    96285459.63406
     -2678.062  
  21786108.916   116336610.92504      -884.128    21786112.992    90484043.11505
      -687.659  
  21739936.391   115886108.59308      2939.688    21739942.602    90133676.56807
      2286.422  
  22599196.802   120932873.46807      3210.272    22599201.120    94058921.92007
      2496.878  
  20252805.617   108262874.81508      2016.715    20252809.860    84204489.05908
      1568.555  
  20425226.714   109222867.73505      -996.355    20425232.795    84951146.60508
      -774.945  
 20 09 30 07 12 20.0000000  0 15G15G18G20G 8G27G24G10G13R 4R 3R13R14
                                R21R 5R20
  20783413.601   109217576.63349     -2072.770    20783413.317    85104605.19448
     -1615.147  
  21025651.457   110490537.50249     -2089.468    21025651.390    86096520.45447
     -1628.160  
  20217073.562   106241446.41949      1193.148    20217072.504    82785542.17548
       929.723  
  24743545.338   130028210.83746       877.656    24743547.462   101320697.26154
       683.886  
  23990105.092   126068852.18647      -967.917    23990107.530    98235481.47345
      -754.227  
  21375275.684   112327863.15048      2343.913    21375278.049    87528219.51847
      1826.425  
  22596410.509   118744961.31048      2811.597    22596412.421    92528559.48147
      2190.851  
  23135762.920   121579254.58048     -3323.167    23135762.743    94737083.82645
     -2589.484  
  19712290.868   105558424.56009     -1384.855    19712293.861    82101009.89008
     -1077.112  
  23129268.196   123812786.31307     -3443.757    23129273.040    96298850.64106
     -2678.480  
  21786938.565   116341041.76605      -888.969    21786942.679    90487489.32905
      -691.422  
  21737180.562   115871418.47208      2936.429    21737186.764    90122250.91407
      2283.887  
  22596198.651   120916829.84907      3206.992    22596202.996    94046443.55907
      2494.327  
  20250920.414   108252797.38709      2014.398    20250924.653    84196651.05708
      1566.749  
  20426159.827   109227857.72605     -1001.116    20426165.956    84955027.70808
      -778.468  
 20 09 30 07 12 25.0000000  0 15G15G18G20G 8G27G24G10G13R 4R 3R13R14
                                R21R 5R20
  20785386.587   109227944.71149     -2073.809    20785386.296    85112684.21348
     -1615.956  
  21027640.713   110500991.14549     -2091.409    21027640.646    86104666.15647
     -1629.675  
  20215939.301   106235485.80949      1191.809    20215938.245    82780897.54548
       928.684  
  24742711.523   130023831.04846       875.401    24742714.480   101317284.46545
       682.133  
  23991027.285   126073698.37347      -969.882    23991029.560    98239257.71945
      -755.758  
  21373046.613   112316149.30548      2342.222    21373048.949    87519091.85247
      1825.104  
  22593735.673   118730904.92548      2811.695    22593737.566    92517606.45947
      2190.925  
  23138924.974   121595871.44248     -3323.030    23138924.926    94750032.03245
     -2589.374  
  19713584.798   105565353.37009     -1385.977    19713587.753    82106398.96708
     -1077.983  
  23132484.725   123830004.71106     -3442.813    23132489.594    96312242.71806
     -2677.746  
  21787772.450   116345494.57104      -892.530    21787776.511    90490952.63205
      -694.190  
  21734427.518   115856743.29008      2934.401    21734433.728    90110836.87707
      2282.309  
  22593203.305   120900801.11607      3204.855    22593207.645    94033976.77007
      2492.664  
  20249036.943   108242729.05808      2013.655    20249041.145    84188820.14808
      1566.176  
  20427097.322   109232870.68505     -1004.547    20427103.417    84958926.66308
      -781.112  
 20 09 30 07 12 30.0000000  0 15G15G18G20G 8G27G24G10G13R 4R 3R13R14
                                R21R 5R20
  20787360.893   109238319.85249     -2076.468    20787360.612    85120768.73948
     -1618.031  
  21029631.975   110511455.29749     -2094.679    21029631.923    86112820.03948
     -1632.222  
  20214806.560   106229533.21549      1188.938    20214805.506    82776259.16648
       926.444  
  24741880.340   130019463.02946       871.624    24741882.342   101313880.81044
       679.187  
  23991951.741   126078556.51647      -973.355    23991953.916    98243043.27345
      -758.461  
  21370819.583   112304446.11848      2338.789    21370821.908    87509972.49147
      1822.433  
  22591061.046   118716849.72448      2810.297    22591062.919    92506654.35447
      2189.835  
  23142087.271   121612489.39648     -3324.566    23142087.253    94762981.07345
     -2590.573  
  19714879.969   105572288.98309     -1388.645    19714882.929    82111793.33108
     -1080.062  
  23135700.820   123847221.37206     -3444.128    23135705.830    96325633.43906
     -2678.769  
  21788609.932   116349966.33504      -897.203    21788613.957    90494430.66205
      -697.824  
  21731676.724   115842080.04208      2930.569    21731682.953    90099432.15207
      2279.331  
  22590210.177   120884784.16107      3201.344    22590214.434    94021519.13807
      2489.934  
  20247154.552   108232666.69308      2011.077    20247158.756    84180993.86408
      1564.171  
  20428038.468   109237903.32005     -1009.488    20428044.566    84962840.92808
      -785.155  
 20 09 30 07 12 35.0000000  0 15G15G18G20G 8G27G24G10G13R 4R 3R13R14
                                R21R 5R20
  20789338.464   109248712.05849     -2080.059    20789338.175    85128866.56148
     -1620.828  
  21031627.134   110521939.95549     -2098.629    21031627.101    86120989.89747
     -1635.300  
  20213677.225   106223598.58149      1185.487    20213676.174    82771634.77248
       923.758  
  24741053.163   130015116.80946       867.374    24741056.355   101310494.12845
       675.866  
  23992880.456   126083436.63348      -977.980    23992882.669    98246845.95345
      -762.069  
  21368596.439   112292763.44948      2334.729    21368598.763    87500869.11447
      1819.270  
  22588388.560   118702805.68648      2807.785    22588390.412    92495710.94647
      2187.878  
  23145251.675   121629118.38948     -3326.738    23145251.603    94775938.71745
     -2592.265  
  19716178.322   105579241.60409     -1392.020    19716181.297    82117200.92308
     -1082.695  
  23138918.551   123864446.51506     -3445.628    23138923.622    96339030.76506
     -2679.937  
  21789452.884   116354467.02504      -902.688    21789456.842    90497931.19005
      -702.094  
  21728930.053   115827438.80608      2926.172    21728936.285    90088044.51707
      2275.910  
  22587221.141   120868789.32007      3197.242    22587225.395    94009078.71207
      2486.742  
  20245275.183   108222620.44908      2008.030    20245279.383    84173180.11508
      1561.796  
  20428985.207   109242965.96105     -1015.210    20428991.328    84966778.54008
      -789.612  
 20 09 30 07 12 40.0000000  0 15G15G18G20G 8G27G24G10G13R 4R 3R13R14
                                R21R 5R20
  20791318.180   109259115.57049     -2081.702    20791317.897    85136973.18848
     -1622.109  
  21033625.104   110532439.36049     -2100.824    21033625.048    86129171.24947
     -1637.012  
  20212550.245   106217676.23049      1183.344    20212549.188    82767019.95248
       922.082  
  24740229.095   130010786.58546       864.777    24740232.958   101307119.95644
       673.851  
  23993812.194   126088332.94948      -980.445    23993814.283    98250661.28745
      -763.983  
  21366376.129   112281095.73948      2332.358    21366378.466    87491777.37147
      1817.418  
  22585717.100   118688767.06848      2807.272    22585718.956    92484771.77847
      2187.484  
  23148417.085   121645752.66648     -3327.069    23148416.985    94788900.48644
     -2592.526  
  19717478.779   105586205.42809     -1393.784    19717481.749    82122617.23108
     -1084.059  
  23142136.768   123881674.32206     -3445.316    23142141.879    96352430.15506
     -2679.694  
  21790299.879   116358990.77505      -906.843    21790304.019    90501449.66805
      -705.323  
  21726186.402   115812813.81908      2923.647    21726192.661    90076669.53207
      2273.949  
  22584235.150   120852810.70907      3194.293    22584239.407    93996650.92407
      2484.449  
  20243397.722   108212584.47108      2006.397    20243401.931    84165374.35808
      1560.530  
  20429936.348   109248052.70205     -1019.531    20429942.596    84970734.89108
      -792.969  
 20 09 30 07 12 45.0000000  0 15G15G18G20G 8G27G24G10G13R 4R 3R13R14
                                R21R 5R20
  20793299.739   109269528.69949     -2083.574    20793299.472    85145087.31648
     -1623.565  
  21035625.557   110542951.84549     -2103.698    21035625.531    86137362.79747
     -1639.246  
  20211425.268   106211764.43349      1181.308    20211424.211    82762413.36048
       920.495  
  24739407.808   130006470.59447       861.832    24739412.300   101303756.84145
       671.558  
  23994746.753   126093243.74747      -983.565    23994748.757    98254487.86745
      -766.418  
  21364158.362   112269441.22848      2329.538    21364160.682    87482695.94547
      1815.227  
  22583046.348   118674732.20349      2806.558    22583048.209    92473835.51647
      2186.926  
  23151583.184   121662390.53348     -3327.679    23151583.088    94801865.05644
     -2592.996  
  19718780.949   105593178.58809     -1395.515    19718783.929    82128040.79508
     -1085.405  
  23145355.138   123898902.88407     -3445.511    23145360.295    96365830.13806
     -2679.848  
  21791150.885   116363536.03604      -911.495    21791155.170    90504984.86905
      -708.940  
  21723445.530   115798203.39908      2920.718    21723451.761    90065305.87407
      2271.672  
  22581251.904   120836846.63407      3191.395    22581256.136    93984234.41207
      2482.269  
  20241521.878   108202557.07408      2004.761    20241526.086    84157575.27608
      1559.258  
  20430891.917   109253161.80705     -1023.800    20430898.032    84974708.63808
      -796.292  
 20 09 30 07 12 50.0000000  0 15G15G18G20G 8G27G24G10G13R 4R 3R13R14
                                R21R 5R20
  20795283.499   109279953.46149     -2086.253    20795283.245    85153210.50348
     -1625.656  
  21037628.876   110553479.42149     -2106.973    21037628.868    86145566.09747
     -1641.800  
  20210302.693   106205865.26549      1178.456    20210301.629    82757816.60648
       918.276  
  24738589.654   130002170.88546       858.241    24738593.739   101300406.43844
       668.761  
  23995684.412   126098171.08648      -987.227    23995686.344    98258327.34445
      -769.270  
  21361943.480   112257801.88349      2326.460    21361945.785    87473626.34447
      1812.828  
  22580376.702   118660703.11848      2805.145    22580378.562    92462903.76147
      2185.823  
  23154750.356   121679034.01248     -3329.175    23154750.146    94814834.00345
     -2594.164  
  19720085.300   105600163.35709     -1398.234    19720088.286    82133473.39508
     -1087.520  
  23148574.144   123916134.47306     -3446.961    23148579.311    96379232.46706
     -2680.973  
  21792006.419   116368104.66804      -915.960    21792010.691    90508538.25205
      -712.413  
  21720707.715   115783609.55207      2916.870    21720714.009    90053955.10707
      2268.675  
  22578271.726   120820899.12907      3187.680    22578275.950    93971830.80407
      2479.301  
  20239648.012   108192540.31308      2002.102    20239652.230    84149784.47108
      1557.179  
  20431851.938   109258295.47405     -1029.250    20431858.042    84978701.47208
      -800.530  
 20 09 30 07 12 55.0000000  0 15G15G18G20G 8G27G24G10G13R 4R 3R13R14
                                R21R 5R20
  20797269.286   109290388.90349     -2087.625    20797269.052    85161342.01848
     -1626.723  
  21039634.892   110564021.10249     -2109.461    21039634.861    86153780.39547
     -1643.737  
  20209182.334   106199977.76749      1176.655    20209181.285    82753228.95548
       916.874  
  24737774.461   129997886.67747       855.289    24737778.055   101297068.10044
       666.460  
  23996625.033   126103113.98847      -989.516    23996626.835    98262178.97045
      -771.051  
  21359731.329   112246176.91948      2324.097    21359733.589    87464567.92847
      1810.984  
  22577707.978   118646678.88048      2804.684    22577709.839    92451975.78547
      2185.464  
  23157918.408   121695682.14348     -3329.632    23157918.270    94827806.56944
     -2594.523  
  19721391.624   105607158.63409     -1399.702    19721394.613    82138914.16908
     -1088.656  
  23151793.519   123933367.94307     -3446.335    23151798.684    96392636.28206
     -2680.488  
  21792866.091   116372695.83004      -919.874    21792870.453    90512109.15605
      -715.460  
  21717972.879   115769031.37207      2914.629    21717979.173    90042616.52907
      2266.934  
  22575294.431   120804967.24207      3184.945    22575298.676    93959439.34907
      2477.180  
  20237775.968   108182533.22708      2000.867    20237780.183    84142001.18408
      1556.229  
  20432816.413   109263452.42105     -1033.535    20432822.434    84982712.43908
      -803.863  
 20 09 30 07 13  0.0000000  0 15G15G18G20G 8G27G24G10G13R 4R 3R13R14
                                R21R 5R20
  20799256.621   109300832.41949     -2089.973    20799256.401    85169479.81948
     -1628.551  
  21041643.108   110574574.32049     -2111.968    21041643.081    86162003.66047
     -1645.694  
  20208063.700   106194099.37049      1174.491    20208062.653    82748648.37448
       915.183  
  24736961.784   129993615.27747       853.058    24736965.557   101293739.68145
       664.715  
  23997568.107   126108069.90547      -992.789    23997569.971    98266040.70445
      -773.605  
  21357521.405   112234563.69348      2321.226    21357523.677    87455518.67547
      1808.745  
  22575039.680   118632656.90848      2803.895    22575041.535    92441049.58847
      2184.851  
  23161086.859   121712332.34348     -3330.612    23161086.742    94840780.74345
     -2595.285  
  19722699.409   105614161.70009     -1401.789    19722702.378    82144360.99808
     -1090.284  
  23155012.679   123950600.89006     -3447.141    23155017.942    96406039.68006
     -2681.112  
  21793729.409   116377306.77805      -924.574    21793733.943    90515695.44705
      -719.117  
  21715240.442   115754466.25508      2911.270    21715246.791    90031288.12107
      2264.320  
  22572319.608   120789048.39208      3182.007    22572323.824    93947058.03207
      2474.894  
  20235905.237   108172533.18908      1999.058    20235909.470    84134223.37708
      1554.819  
  20433784.627   109268630.27405     -1037.343    20433790.719    84986739.66308
      -806.824  
 20 09 30 07 13  5.0000000  0 15G15G18G20G 8G27G24G10G13R 4R 3R13R14
                                R21R 5R20
  20801246.121   109311287.31149     -2092.496    20801245.900    85177626.48448
     -1630.519  
  21043654.127   110585142.32749     -2115.340    21043654.125    86170238.48547
     -1648.316  
  20206947.433   106188233.31549      1171.640    20206946.381    82744077.42748
       912.964  
  24736151.977   129989360.12046       849.214    24736156.363   101290424.00946
       661.727  
  23998514.293   126113041.99247      -996.398    23998516.092    98269915.06545
      -776.417  
  21355314.329   112222965.39748      2317.879    21355316.605    87446481.02447
      1806.136  
  22572372.421   118618640.46148      2802.374    22572374.317    92430127.68347
      2183.668  
  23164256.316   121728987.82348     -3331.702    23164256.177    94853759.05145
     -2596.137  
  19724009.301   105621176.05109     -1404.324    19724012.273    82149816.59908
     -1092.257  
  23158232.429   123967836.31106     -3447.602    23158237.647    96419445.00106
     -2681.473  
  21794597.209   116381940.93604      -929.504    21794601.741    90519299.79105
      -722.949  
  21712511.103   115739917.46808      2907.813    21712517.459    90019972.39407
      2261.629  
  22569347.846   120773145.95907      3178.753    22569352.033    93934689.45807
      2472.359  
  20234036.470   108162543.58808      1996.312    20234040.709    84126453.69108
      1552.683  
  20434757.456   109273832.26905     -1042.930    20434763.509    84990785.65008
      -811.297  
 20 09 30 07 13 10.0000000  0 14G15G18G20G 8G24G10G13R 4R 3R13R14R21
                                R 5R20
  20803238.059   109321754.95249     -2095.319    20803237.816    85185783.08048
     -1632.722  
  21045668.230   110595726.50749     -2119.038    21045668.246    86178485.87948
     -1651.202  
  20205833.792   106182381.02949      1168.750    20205832.737    82739517.20748
       910.715  
  24735345.460   129985122.31646       845.359    24735349.878   101287121.83844
       658.723  
  21353110.412   112211383.70248      2314.159    21353112.682    87437456.32948
      1803.237  
  22569706.528   118604631.10048      2800.621    22569708.399    92419211.31946
      2182.300  
  23167427.073   121745650.07848     -3333.703    23167426.912    94866742.61745
     -2597.690  
  19725321.532   105628203.01409     -1407.035    19725324.530    82155282.00908
     -1094.363  
  23161452.961   123985075.81906     -3449.042    23161458.121    96432853.49106
     -2682.644  
  21795469.475   116386599.69205      -934.495    21795474.157    90522923.28105
      -726.831  
  21709785.150   115725386.69607      2903.520    21709791.529    90008670.70607
      2258.296  
  22566379.429   120757261.32406      3174.535    22566383.640    93922334.74805
      2469.081  
  20232169.916   108152565.91208      1993.785    20232174.188    84118693.28707
      1550.722  
  20435735.018   109279059.76403     -1048.477    20435741.085    84994851.51406
      -815.477  
 20 09 30 07 13 15.0000000  0 15G15G18G20G 8G27G24G10G13R 4R 3R13R14
                                R21R 5R20
  20805232.607   109332236.40849     -2096.629    20805232.357    85193950.45248
     -1633.742  
  21047685.625   110606328.05248     -2121.077    21047685.648    86186746.83647
     -1652.788  
  20204722.983   106176543.65849      1166.839    20204721.920    82734968.60048
       909.227  
  24734542.713   129980903.28646       842.902    24734546.901   101283834.28446
       656.809  
  24000416.960   126123041.25957     -1002.683    24000418.576    98277700.88755
      -781.309  
  21350909.803   112199819.36648      2312.030    21350912.041    87428445.16547
      1801.581  
  22567042.123   118590629.55949      2800.289    22567043.968    92408301.01447
      2182.038  
  23170599.318   121762320.12048     -3333.793    23170599.075    94879732.25245
     -2597.762  
  19726636.348   105635243.79809     -1408.711    19726639.356    82160758.18108
     -1095.664  
  23164674.449   124002320.60407     -3448.440    23164679.576    96446266.10105
     -2682.120  
  21796346.681   116391284.23804      -938.319    21796351.406    90526566.81305
      -729.804  
  21707062.766   115710874.86207      2901.266    21707069.141    89997383.70207
      2256.535  
  22563414.625   120741395.68807      3172.184    22563418.803    93909994.83207
      2467.254  
  20230305.764   108142601.01509      1992.616    20230310.060    84110942.79708
      1549.808  
  20436717.626   109284314.05305     -1052.632    20436723.662    84998938.14308
      -818.722  
 20 09 30 07 13 20.0000000  0 15G15G18G20G 8G27G24G10G13R 4R 3R13R14
                                R21R 5R20
  20807228.499   109342724.86149     -2098.851    20807228.229    85202123.27848
     -1635.473  
  21049704.996   110616939.91749     -2123.788    21049705.024    86195015.81247
     -1654.906  
  20203613.686   106170714.29549      1164.668    20203612.632    82730426.25148
       907.534  
  24733742.221   129976695.92246       839.562    24733745.804   101280555.79945
       654.211  
  24001372.324   126128061.63847     -1005.757    24001373.951    98281612.92846
      -783.702  
  21348711.213   112188265.63148      2309.155    21348713.437    87419442.24948
      1799.340  
  22564377.975   118576629.33448      2799.601    22564379.824    92397391.75747
      2181.507  
  23173771.711   121778991.12648     -3334.917    23173771.462    94892722.64545
     -2598.640  
  19727952.391   105642291.27009     -1410.613    19727955.429    82166239.55008
     -1097.147  
  23167895.567   124019563.68607     -3448.766    23167900.711    96459677.37706
     -2682.379  
  21797227.419   116395987.51404      -942.555    21797232.191    90530224.90705
      -733.102  
  21704342.632   115696375.07508      2898.323    21704349.008    89986106.11307
      2254.253  
  22560451.961   120725542.12208      3168.582    22560456.185    93897664.28007
      2464.452  
  20228442.759   108132642.18509      1990.690    20228447.065    84103197.05308
      1548.316  
  20437703.867   109289587.99105     -1057.113    20437709.914    85003040.09208
      -822.202  
 20 09 30 07 13 25.0000000  0 15G15G18G20G 8G27G24G10G13R 4R 3R13R14
                                R21R 5R20
  20809226.297   109353223.32749     -2100.589    20809226.002    85210303.88748
     -1636.827  
  21051726.964   110627565.34048     -2126.300    21051726.992    86203295.37147
     -1656.858  
  20202506.512   106164896.05549      1162.496    20202505.459    82725892.56248
       905.840  
  24732944.364   129972503.31246       837.081    24732947.546   101277288.81845
       652.245  
  24002330.478   126133096.86647     -1008.645    24002332.107    98285536.44845
      -785.960  
  21346515.234   112176725.68648      2306.698    21346517.480    87410450.10747
      1797.429  
  22561714.641   118562633.42048      2798.871    22561716.491    92386485.85546
      2180.938  
  23176944.885   121795666.14248     -3335.230    23176944.602    94905716.15645
     -2598.891  
  19729270.291   105649348.62909     -1412.276    19729273.352    82171728.59108
     -1098.441  
  23171116.947   124036808.01906     -3448.934    23171122.081    96473089.62906
     -2682.508  
  21798112.401   116400712.55305      -946.823    21798117.025    90533899.93905
      -736.421  
  21701625.333   115681890.43608      2895.558    21701631.717    89974840.27307
      2252.097  
  22557492.147   120709703.62207      3166.280    22557496.373    93885345.43707
      2462.687  
  20226581.443   108122692.42008      1989.112    20226585.757    84095458.35207
      1547.090  
  20438694.441   109294884.72304     -1061.542    20438700.428    85007159.79707
      -825.644  
 20 09 30 07 13 30.0000000  0 15G15G18G20G 8G27G24G10G13R 4R 3R13R14
                                R21R 5R20
  20811225.441   109363728.83449     -2101.636    20811225.137    85218490.01248
     -1637.640  
  21053750.892   110638201.11949     -2128.211    21053750.916    86211582.97147
     -1658.354  
  20201400.882   106159085.90049      1161.508    20201399.829    82721365.16248
       905.065  
  24732148.735   129968322.47547       834.973    24732152.152   101274031.03044
       650.629  
  24003290.939   126138144.12448     -1010.366    24003292.496    98289469.39146
      -787.305  
  21344321.313   112165196.48848      2304.874    21344323.551    87401466.30347
      1796.008  
  22559051.535   118548638.73548      2798.891    22559053.378    92375580.91347
      2180.952  
  23180118.230   121812342.08748     -3334.983    23180117.892    94918710.40345
     -2598.688  
  19730589.473   105656412.88409     -1413.460    19730592.549    82177223.02808
     -1099.359  
  23174338.084   124054050.64106     -3447.957    23174343.132    96486500.55306
     -2681.750  
  21799000.804   116405456.45205      -950.367    21799005.421    90537589.64405
      -739.176  
  21698910.288   115667417.90907      2893.391    21698916.702    89963583.87307
      2250.413  
  22554534.610   120693877.30907      3164.207    22554538.857    93873036.11907
      2461.054  
  20224721.254   108112748.63908      1988.230    20224725.583    84087724.30407
      1546.398  
  20439688.665   109300201.19004     -1065.629    20439694.611    85011294.79107
      -828.831  
 20 09 30 07 13 35.0000000  0 15G15G18G20G 8G27G24G10G13R 4R 3R13R14
                                R21R 5R20
  20813226.384   109374243.83249     -2104.633    20813226.078    85226683.49748
     -1639.976  
  21055777.304   110648849.95849     -2131.729    21055777.336    86219880.76047
     -1661.094  
  20200297.282   106153286.41249      1158.292    20200296.231    82716846.08248
       902.566  
  24731355.867   129964156.14346       830.878    24731359.476   101270784.55845
       647.438  
  24004254.129   126143205.75247     -1014.102    24004255.714    98293413.48446
      -790.219  
  21342129.912   112153680.59849      2301.332    21342132.151    87392492.88947
      1793.246  
  22556389.161   118534647.89548      2797.129    22556391.018    92364678.96347
      2179.609  
  23183292.257   121829021.58948     -3336.929    23183291.855    94931707.44045
     -2600.202  
  19731910.394   105663486.41809     -1416.272    19731913.463    82182724.65408
     -1101.551  
  23177559.353   124071294.00107     -3449.359    23177564.335    96499912.08106
     -2682.835  
  21799893.158   116410221.78604      -955.281    21799897.804    90541296.00005
      -743.000  
  21696198.009   115652960.12408      2889.523    21696204.440    89952338.91507
      2247.401  
  22551579.817   120678065.61407      3160.023    22551584.055    93860738.12906
      2457.797  
  20222862.658   108102813.47508      1985.602    20222867.013    84079996.95408
      1544.352  
  20440687.105   109305539.92305     -1070.465    20440692.991    85015447.15208
      -832.586  
 20 09 30 07 13 40.0000000  0 15G15G18G20G 8G27G24G10G13R 4R 3R13R14
                                R21R 5R20
  20815230.389   109384774.82549     -2107.315    20815230.054    85234889.47748
     -1642.066  
  21057807.406   110659518.24848     -2135.257    21057807.462    86228193.72547
     -1663.836  
  20199196.963   106147504.03749      1154.969    20199195.892    82712340.34348
       899.976  
  24730566.915   129960010.66947       827.969    24730570.959   101267554.33845
       645.171  
  24005221.261   126148288.25047     -1018.101    24005222.913    98297373.87745
      -793.327  
  21339942.310   112142184.57948      2297.491    21339944.522    87383534.94347
      1790.249  
  22553728.731   118520667.33648      2795.413    22553730.630    92353785.02847
      2178.246  
  23186468.179   121845711.07748     -3338.913    23186467.757    94944712.19645
     -2601.754  
  19733234.350   105670576.01909     -1419.054    19733237.407    82188238.80308
     -1103.711  
  23180782.044   124088544.94806     -3450.741    23180786.973    96513329.42906
     -2683.917  
  21800790.703   116415015.03304      -961.429    21800795.415    90545024.07105
      -747.780  
  21693489.718   115638523.65908      2885.581    21693496.180    89941110.57807
      2244.339  
  22548628.994   120662275.31807      3156.574    22548633.215    93848456.81807
      2455.113  
  20221006.955   108092893.55208      1982.788    20221011.310    84072281.46308
      1542.167  
  20441690.826   109310907.49005     -1076.691    20441696.745    85019621.92407
      -837.430  
 20 09 30 07 13 45.0000000  0 15G15G18G20G 8G27G24G10G13R 4R 3R13R14
                                R21R 5R20
  20817236.377   109395316.23749     -2109.175    20817236.034    85243103.56848
     -1643.516  
  21059840.146   110670200.36848     -2137.413    21059840.214    86236517.43847
     -1665.519  
  20198098.817   106141733.24449      1153.156    20198097.731    82707843.62248
       898.563  
  24729781.029   129955880.47147       824.968    24729785.049   101264335.98244
       642.828  
  24006191.378   126153386.15747     -1020.628    24006192.999    98301346.27846
      -795.301  
  21337757.381   112130702.73048      2295.073    21337759.577    87374588.05348
      1788.366  
  22551069.219   118506691.53848      2795.121    22551071.124    92342894.79647
      2178.011  
  23189644.918   121862404.89448     -3338.973    23189644.564    94957720.37745
     -2601.801  
  19734560.205   105677675.81609     -1420.738    19734563.228    82193760.85908
     -1105.022  
  23184005.018   124105797.46707     -3450.531    23184009.905    96526748.06005
     -2683.749  
  21801692.438   116419830.56105      -965.101    21801697.215    90548769.50605
      -750.632  
  21690784.350   115624102.83608      2882.812    21690790.854    89929894.38107
      2242.184  
  22545681.060   120646500.64407      3153.672    22545685.330    93836187.61607
      2452.855  
  20219153.000   108082983.13208      1981.270    20219157.372    84064573.37308
      1540.987  
  20442698.993   109316298.36205     -1080.503    20442704.862    85023814.81008
      -840.394  
 20 09 30 07 13 50.0000000  0 15G15G18G20G 8G27G24G10G13R 4R 3R13R14
                                R21R 5R20
  20819244.278   109405867.79549     -2111.808    20819243.928    85251325.55748
     -1645.570  
  21061875.473   110680896.08549     -2140.952    21061875.556    86244851.73347
     -1668.277  
  20197002.817   106135973.72349      1150.269    20197001.734    82703355.66748
       896.308  
  24728997.967   129951765.29446       820.914    24729001.645   101261129.32544
       639.663  
  24007164.312   126158499.05347     -1024.573    24007165.941    98305330.34745
      -798.374  
  21335575.101   112119234.80248      2291.776    21335577.297    87365652.01547
      1785.800  
  22548410.551   118492720.20449      2793.414    22548412.473    92332008.03047
      2176.683  
  23192822.432   121879102.81048     -3340.543    23192822.014    94970731.75444
     -2603.020  
  19735887.907   105684785.63009     -1423.495    19735890.921    82199290.71708
     -1107.164  
  23187228.316   124123051.56207     -3451.171    23187233.112    96540167.93206
     -2684.245  
  21802598.361   116424668.17305      -970.714    21802603.182    90552532.09305
      -754.999  
  21688081.926   115609697.46007      2878.848    21688088.446    89918690.21407
      2239.105  
  22542736.072   120630741.35407      3150.063    22542740.350    93823930.37907
      2450.043  
  20217300.802   108073082.01109      1978.762    20217305.159    84056872.48608
      1539.047  
  20443711.386   109321712.17605     -1085.477    20443717.283    85028025.56708
      -844.257  
 20 09 30 07 13 55.0000000  0 15G15G18G20G 8G27G24G10G13R 4R 3R13R14
                                R21R 5R20
  20821254.400   109416430.99749     -2113.425    20821254.046    85259556.62048
     -1646.827  
  21063913.679   110691606.89649     -2143.164    21063913.764    86253197.82248
     -1669.999  
  20195909.263   106130226.99549      1148.387    20195908.168    82698877.69748
       894.844  
  24728217.938   129947666.55546       818.574    24728221.439   101257935.50845
       637.847  
  24008140.428   126163628.51347     -1027.418    24008142.077    98309327.33345
      -800.585  
  21333395.780   112107782.39548      2289.241    21333397.986    87356728.06847
      1783.823  
  22545753.022   118478754.82948      2792.914    22545754.961    92321125.93446
      2176.297  
  23196001.011   121895806.32548     -3340.878    23196000.554    94983747.46844
     -2603.285  
  19737217.769   105691907.07809     -1424.969    19737220.791    82204829.61308
     -1108.313  
  23190452.095   124140308.67207     -3451.227    23190456.901    96553590.10106
     -2684.293  
  21803508.623   116429529.16904      -973.992    21803513.489    90556312.86405
      -757.555  
  21685382.691   115595309.05008      2876.484    21685389.200    89907499.22007
      2237.261  
  22539794.286   120614999.10807      3147.227    22539798.539    93811686.42507
      2447.843  
  20215450.600   108063191.65208      1977.304    20215454.947    84049179.98207
      1537.897  
  20444728.330   109327150.39105     -1089.730    20444734.274    85032255.30108
      -847.565  
 20 09 30 07 14  0.0000000  0 15G15G18G20G 8G27G24G10G13R 4R 3R13R14
                                R21R 5R20
  20823266.268   109427003.37349     -2115.409    20823265.919    85267794.84148
     -1648.370  
  21065954.282   110702330.36749     -2145.745    21065954.351    86261553.77947
     -1672.016  
  20194817.678   106124490.65049      1146.230    20194816.582    82694407.83248
       893.168  
  24727440.656   129943581.88047       815.628    24727443.989   101254752.67144
       635.554  
  24009119.192   126168772.05047     -1030.226    24009120.821    98313335.28545
      -802.772  
  21331218.936   112096343.03448      2286.687    21331221.141    87347814.28348
      1781.831  
  22543096.168   118464793.02748      2792.105    22543098.089    92310246.61047
      2175.667  
  23199180.197   121912512.96248     -3341.749    23199179.699    94996765.62945
     -2603.964  
  19738549.327   105699037.57009     -1426.886    19738552.347    82210375.55508
     -1109.800  
  23193676.019   124157566.27907     -3451.526    23193680.754    96567012.69106
     -2684.523  
  21804422.957   116434411.16204      -978.522    21804427.722    90560109.97005
      -761.077  
  21682686.182   115580935.20108      2873.440    21682692.704    89896319.56707
      2234.898  
  22536855.132   120599271.19408      3144.605    22536859.391    93799453.61807
      2445.809  
  20213602.003   108053309.74708      1975.660    20213606.350    84041494.06808
      1536.616  
  20445749.315   109332610.55305     -1094.007    20445755.356    85036502.07908
      -850.898  
 20 09 30 07 14  5.0000000  0 15G15G18G20G 8G27G24G10G13R 4R 3R13R14
                                R21R 5R20
  20825280.036   109437585.79449     -2117.512    20825279.686    85276040.88348
     -1650.011  
  21067997.449   110713067.31549     -2148.925    21067997.537    86269920.22148
     -1674.492  
  20193728.245   106118765.54649      1143.723    20193727.131    82689946.71348
       891.210  
  24726666.245   129939512.16646       812.065    24726669.718   101251581.44245
       632.773  
  24010100.774   126173930.54447     -1033.043    24010102.533    98317354.88646
      -804.973  
  21329044.761   112084917.66648      2283.573    21329046.989    87338911.39847
      1779.406  
  22540440.140   118450835.63348      2790.862    22540442.094    92299370.72547
      2174.698  
  23202360.129   121929223.58948     -3342.581    23202359.648    95009786.89545
     -2604.608  
  19739882.717   105706177.97109     -1429.261    19739885.782    82215929.20508
     -1111.648  
  23196900.229   124174825.13407     -3452.113    23196904.858    96580436.23306
     -2684.979  
  21805341.263   116439315.11304      -982.844    21805346.081    90563924.14905
      -764.438  
  21679992.576   115566576.76508      2869.940    21679999.122    89885151.89907
      2232.176  
  22533918.844   120583558.71007      3140.793    22533923.168    93787232.80107
      2442.839  
  20211755.081   108043436.88809      1973.512    20211759.436    84033815.18108
      1534.952  
  20446774.579   109338093.53905     -1099.105    20446780.694    85040766.62208
      -854.781  
 20 09 30 07 14 10.0000000  0 15G15G18G20G 8G27G24G10G13R 4R 3R13R14
                                R21R 5R20
  20827295.983   109448179.66649     -2119.628    20827295.638    85284295.83848
     -1651.664  
  21070043.463   110723819.16249     -2151.598    21070043.530    86278298.28347
     -1676.574  
  20192641.199   106113053.08249      1141.425    20192640.070    82685495.44448
       889.421  
  24725894.955   129935458.76447       809.441    24725898.498   101248422.95445
       630.707  
  24011085.523   126179105.40648     -1036.550    24011087.328    98321387.23745
      -807.706  
  21326873.506   112073507.64848      2280.672    21326875.727    87330020.47847
      1777.148  
  22537785.239   118436884.06648      2790.101    22537787.207    92288499.37447
      2174.008  
  23205541.092   121945939.66448     -3343.449    23205540.571    95022812.40044
     -2605.289  
  19741218.272   105713329.77409     -1431.203    19741221.330    82221491.71408
     -1113.159  
  23200124.922   124192086.94908     -3452.438    23200129.532    96593862.08706
     -2685.233  
  21806264.009   116444242.37104      -987.401    21806268.797    90567756.45405
      -767.983  
  21677302.181   115552235.19308      2866.823    21677308.694    89873997.34307
      2229.750  
  22530985.756   120567863.13107      3137.651    22530990.082    93775025.13107
      2440.394  
  20209910.162   108033574.77008      1971.730    20209914.523    84026144.64708
      1533.565  
  20447804.395   109343600.74205     -1103.910    20447810.561    85045049.99908
      -858.601  
 20 09 30 07 14 15.0000000  0 15G15G18G20G 8G27G24G10G13R 4R 3R13R14
                                R21R 5R20
  20829314.030   109458784.54349     -2122.180    20829313.680    85292559.38248
     -1653.652  
  21072092.216   110734585.49149     -2154.890    21072092.301    86286687.62647
     -1679.141  
  20191556.484   106107352.86649      1138.722    20191555.362    82681053.71448
       887.313  
  24725126.631   129931421.16046       805.894    24725130.100   101245276.77545
       627.969  
  24012073.294   126184296.17747     -1039.987    24012075.069    98325432.00045
      -810.378  
  21324705.094   112062112.53448      2277.128    21324707.317    87321141.16748
      1774.387  
  22535131.357   118422937.94648      2788.410    22535133.335    92277632.27447
      2172.789  
  23208722.993   121962660.72548     -3344.874    23208722.509    95035841.80844
     -2606.395  
  19742555.859   105720492.46109     -1433.828    19742558.912    82227062.69508
     -1115.202  
  23203350.077   124209351.08306     -3453.137    23203354.637    96607289.73606
     -2685.776  
  21807191.031   116449192.52304      -992.684    21807195.833    90571606.58005
      -772.086  
  21674614.849   115537910.04908      2863.253    21674621.343    89862855.57007
      2226.973  
  22528055.697   120552183.92308      3134.152    22528060.043    93762830.20507
      2437.676  
  20208067.148   108023722.83609      1969.206    20208071.515    84018482.03108
      1531.604  
  20448838.700   109349131.94905     -1109.031    20448844.931    85049352.04308
      -862.569  
 20 09 30 07 14 20.0000000  0 15G15G18G20G 8G27G24G10G13R 4R 3R13R14
                                R21R 5R20
  20831333.856   109469398.83349     -2123.773    20831333.497    85300830.25748
     -1654.886  
  21074143.420   110745364.67149     -2157.156    21074143.523    86295086.97548
     -1680.906  
  20190473.788   106101663.28949      1136.934    20190472.673    82676620.28248
       885.921  
  24724360.990   129927397.94146       803.093    24724364.461   101242141.82944
       625.792  
  24013063.783   126189501.29447     -1042.344    24013065.584    98329487.92745
      -812.218  
  21322539.229   112050730.80349      2275.027    21322541.433    87312272.29847
      1772.749  
  22532478.218   118408995.63848      2788.136    22532480.217    92266768.13647
      2172.569  
  23211905.543   121979385.13848     -3345.034    23211904.986    95048873.80345
     -2606.523  
  19743895.185   105727664.52009     -1435.293    19743898.227    82232640.95808
     -1116.343  
  23206575.371   124226615.98807     -3453.066    23206579.872    96620717.98906
     -2685.723  
  21808122.015   116454164.05005      -996.651    21808126.840    90575473.32305
      -775.179  
  21671930.266   115523599.74108      2860.765    21671936.767    89851725.33607
      2225.039  
  22525128.370   120536519.54807      3131.405    22525132.779    93750646.79607
      2435.534  
  20206225.729   108013879.49309      1967.883    20206230.116    84010826.10408
      1530.574  
  20449877.174   109354685.19505     -1112.668    20449883.408    85053671.23508
      -865.414  
 20 09 30 07 14 25.0000000  0 15G15G18G20G 8G27G24G10G13R 4R 3R13R14
                                R21R 5R20
  20833355.679   109480023.55549     -2126.055    20833355.292    85309109.26548
     -1656.663  
  21076197.274   110756157.71949     -2160.172    21076197.401    86303497.13647
     -1683.254  
  20189393.317   106095985.37649      1134.319    20189392.195    82672195.93648
       883.887  
  24723598.299   129923390.15946       799.754    24723601.636   101239018.87745
       623.184  
  24014057.202   126194721.71548     -1045.683    24014058.984    98333555.76745
      -814.824  
  21320376.085   112039363.53248      2272.003    21320378.312    87303414.68048
      1770.391  
  22529825.987   118395058.19448      2786.945    22529828.020    92255907.80247
      2171.644  
  23215088.906   121996113.95248     -3346.229    23215088.420    95061909.24345
     -2607.457  
  19745236.426   105734846.80709     -1437.593    19745239.454    82238227.18608
     -1118.129  
  23209800.963   124243882.68107     -3453.609    23209805.437    96634147.64706
     -2686.141  
  21809057.058   116459157.78604     -1000.999    21809062.022    90579357.34005
      -778.554  
  21669248.714   115509305.40108      2857.237    21669255.193    89840607.51807
      2222.297  
  22522204.011   120520871.08407      3128.008    22522208.501    93738475.78706
      2432.894  
  20204386.109   108004045.73008      1965.711    20204390.507    84003177.62008
      1528.882  
  20450920.060   109360261.72905     -1117.640    20450926.246    85058008.53208
      -869.156  
 20 09 30 07 14 30.0000000  0 15G15G18G20G 8G27G24G10G13R 4R 3R13R14
                                R21R 5R20
  20835379.560   109490659.09149     -2128.145    20835379.158    85317396.68748
     -1658.296  
  21078253.849   110766965.03149     -2162.917    21078253.974    86311918.42847
     -1685.394  
  20188315.145   106090319.54549      1131.909    20188314.024    82667781.00848
       882.007  
  24722838.644   129919398.11546       796.647    24722841.799   101235908.19245
       620.765  
  24015053.613   126199957.92247     -1048.844    24015055.323    98337635.95345
      -817.280  
  21318215.730   112028010.91448      2268.996    21318217.986    87294568.50547
      1768.051  
  22527174.785   118381126.03148      2785.862    22527176.819    92245051.57747
      2170.800  
  23218273.154   122012847.56947     -3347.019    23218272.628    95074948.41844
     -2608.070  
  19746579.680   105742039.87309     -1439.694    19746582.701    82243821.79308
     -1119.719  
  23213027.068   124261151.58206     -3453.554    23213031.448    96647579.00406
     -2686.098  
  21809996.326   116464174.14005     -1005.402    21810001.426    90583258.92905
      -781.984  
  21666570.161   115495027.36308      2853.926    21666576.689    89829502.39807
      2219.718  
  22519282.673   120505238.88407      3124.715    22519287.226    93726317.42807
      2430.332  
  20202548.428   107994222.11708      1963.695    20202552.788    83995537.02808
      1527.316  
  20451967.308   109365861.96005     -1122.621    20451973.515    85062364.25808
      -873.152  
 20 09 30 07 14 35.0000000  0 15G15G18G20G 8G27G24G10G13R 4R 3R13R14
                                R21R 5R20
  20837405.344   109501304.68649     -2130.141    20837404.925    85325691.95848
     -1659.851  
  21080313.003   110777785.86349     -2165.547    21080313.084    86320350.23447
     -1687.440  
  20187239.120   106084665.02849      1129.671    20187238.013    82663374.89148
       880.262  
  24722081.855   129915421.13147       793.905    24722085.088   101232809.21145
       618.624  
  24016052.892   126205209.07847     -1051.878    24016054.578    98341727.73445
      -819.652  
  21316058.078   112016672.40848      2266.199    21316060.325    87285733.30747
      1765.870  
  22524524.436   118367198.38748      2784.910    22524526.492    92234198.87147
      2170.059  
  23221458.188   122029585.19248     -3347.992    23221457.692    95087990.72245
     -2608.823  
  19747924.792   105749242.94809     -1441.699    19747927.824    82249424.18308
     -1121.313  
  23216253.336   124278421.86308     -3454.406    23216257.688    96661011.44006
     -2686.765  
  21810939.876   116469212.49004     -1009.895    21810944.927    90587177.65405
      -785.477  
  21663894.577   115480764.96508      2850.715    21663901.113    89818409.41507
      2217.223  
  22516364.340   120489622.26607      3121.847    22516368.838    93714171.15307
      2428.102  
  20200712.426   107984407.69608      1961.773    20200716.800    83987903.59808
      1525.823  
  20453018.786   109371484.99805     -1127.191    20453025.045    85066737.73308
      -876.707  
 20 09 30 07 14 40.0000000  0 15G15G18G20G 8G27G24G10G13R 4R 3R13R14
                                R21R 5R20
  20839433.204   109511961.16449     -2132.269    20839432.775    85333995.69948
     -1661.511  
  21082374.875   110788621.04149     -2168.684    21082374.972    86328793.22747
     -1689.886  
  20186165.408   106079022.69549      1127.207    20186164.319    82658978.26248
       878.339  
  24721328.113   129911460.03246       791.031    24721331.353   101229722.63344
       616.382  
  24017055.141   126210476.05547     -1055.046    24017056.865    98345831.86945
      -822.116  
  21313903.274   112005348.89748      2263.081    21313905.523    87276909.78447
      1763.437  
  22521875.106   118353276.09548      2783.859    22521877.184    92223350.33447
      2169.237  
  23224644.138   122046327.65847     -3348.980    23224643.660    95101036.79145
     -2609.598  
  19749271.905   105756456.74009     -1444.081    19749274.941    82255034.90808
     -1123.179  
  23219480.089   124295694.39207     -3454.425    23219484.313    96674445.63406
     -2686.781  
  21811887.722   116474273.65105     -1014.289    21811892.722    90591114.12305
      -788.891  
  21661222.062   115466518.98808      2847.473    21661228.600    89807329.19407
      2214.694  
  22513449.066   120474022.13707      3118.484    22513453.543    93702037.71607
      2425.484  
  20198878.312   107974603.49208      1959.741    20198882.707    83980278.11208
      1524.242  
  20454074.781   109377131.62505     -1132.117    20454080.993    85071129.55808
      -880.534  
 20 09 30 07 14 45.0000000  0 15G15G18G20G 8G27G24G10G13R 4R 3R13R14
                                R21R 5R20
  20841463.087   109522628.30149     -2134.229    20841462.649    85342307.75548
     -1663.039  
  21084439.418   110799470.32249     -2170.968    21084439.498    86337247.20647
     -1691.667  
  20185093.984   106073392.38349      1125.238    20185092.899    82654591.00748
       876.808  
  24720577.361   129907514.64846       788.089    24720580.628   101226648.35244
       614.097  
  24018060.377   126215758.57247     -1057.734    24018062.100    98349948.10845
      -824.211  
  21311751.251   111994040.00548      2260.574    21311753.488    87268097.65347
      1761.484  
  22519226.757   118339358.95948      2783.336    22519228.856    92212505.81047
      2168.827  
  23227830.982   122063074.70148     -3349.667    23227830.509    95114086.43644
     -2610.137  
  19750620.992   105763681.16109     -1445.484    19750624.057    82260653.89708
     -1124.269  
  23222707.178   124312968.93708     -3454.948    23222711.328    96687881.36106
     -2687.191  
  21812839.589   116479357.29004     -1018.421    21812844.739    90595068.06105
      -792.108  
  21658552.553   115452289.22108      2844.710    21658559.152    89796261.61807
      2212.554  
  22510536.804   120458438.19107      3115.312    22510541.332    93689916.89507
      2423.022  
  20197046.076   107964809.23608      1958.269    20197050.490    83972660.36308
      1523.097  
  20455135.206   109382801.81805     -1135.703    20455141.348    85075539.70608
      -883.327  
 20 09 30 07 14 50.0000000  0 15G15G18G20G 8G27G24G10G13R 4R 3R13R14
                                R21R 5R20
  20843494.809   109533305.03949     -2136.094    20843494.358    85350627.29448
     -1664.488  
  21086506.465   110810332.69549     -2173.660    21086506.546    86345711.39247
     -1693.765  
  20184024.642   106067773.01949      1122.930    20184023.547    82650212.28348
       875.008  
  24719829.418   129903583.90146       784.784    24719832.661   101223585.39745
       611.511  
  24019068.367   126221055.66047     -1060.616    24019070.064    98354075.71045
      -826.457  
  21309601.831   111982744.82048      2257.852    21309604.102    87259296.21447
      1759.359  
  22516579.190   118325445.99148      2782.316    22516581.295    92201664.55247
      2168.038  
  23231018.462   122079825.33347     -3350.335    23231018.106    95127138.86345
     -2610.659  
  19751971.883   105770915.15509     -1447.652    19751974.969    82266280.33508
     -1125.957  
  23225934.466   124330244.58207     -3454.852    23225938.552    96701317.98506
     -2687.104  
  21813795.676   116484462.46204     -1022.965    21813800.803    90599038.74905
      -795.645  
  21655885.919   115438074.74908      2841.695    21655892.570    89785205.92207
      2210.207  
  22507627.397   120442869.46007      3112.401    22507631.925    93677807.87607
      2420.758  
  20195215.518   107955023.82309      1956.250    20195219.919    83965049.48608
      1521.526  
  20456199.751   109388494.32705     -1140.362    20456205.883    85079967.21408
      -886.953  
 20 09 30 07 14 55.0000000  0 15G15G18G20G 8G27G24G10G13R 4R 3R13R14
                                R21R 5R20
  20845528.297   109543991.06349     -2138.137    20845527.818    85358954.06648
     -1666.086  
  21088575.923   110821207.80049     -2176.269    21088576.008    86354185.49547
     -1695.797  
  20182957.322   106062164.24549      1120.684    20182956.225    82645841.81148
       873.261  
  24719084.135   129899667.34747       781.796    24719087.303   101220533.56144
       609.191  
  24020079.064   126226366.96847     -1063.891    24020080.788    98358214.39045
      -829.003  
  21307454.953   111971462.99048      2254.972    21307457.220    87250505.18547
      1757.120  
  22513932.367   118311536.81448      2781.504    22513934.489    92190826.23047
      2167.405  
  23234206.574   122096579.19347     -3351.160    23234206.273    95140193.81145
     -2611.297  
  19753324.485   105778158.33809     -1449.651    19753327.575    82271913.92108
     -1127.511  
  23229161.860   124347520.82707     -3455.214    23229165.875    96714755.05906
     -2687.395  
  21814755.704   116489588.89404     -1027.077    21814760.802    90603025.96605
      -798.843  
  21653222.105   115423875.15308      2838.511    21653228.777    89774161.79207
      2207.730  
  22504720.821   120427315.66007      3109.219    22504725.327    93665710.47907
      2418.276  
  20193386.555   107945246.93408      1954.539    20193390.942    83957445.23808
      1520.190  
  20457268.401   109394209.09905     -1145.539    20457274.558    85084412.03108
      -890.979  
 20 09 30 07 15  0.0000000  0 15G15G18G20G 8G27G24G10G13R 4R 3R13R14
                                R21R 5R20
  20847564.281   109554690.26349     -2140.808    20847563.799    85367291.10148
     -1668.168  
  21090648.562   110832099.56149     -2179.710    21090648.655    86362672.57547
     -1698.480  
  20181892.784   106056570.05849      1117.785    20181891.686    82641482.70248
       870.996  
  24718342.308   129895768.92846       778.730    24718345.334   101217495.82345
       606.801  
  24021093.222   126231696.34347     -1067.414    24021095.010    98362367.15045
      -831.754  
  21305311.377   111960198.45348      2251.565    21305313.658    87241727.62647
      1754.469  
  22511287.012   118297635.37748      2779.930    22511289.118    92179993.94447
      2166.176  
  23237396.064   122113340.23047     -3352.668    23237395.834    95153254.34445
     -2612.472  
  19754679.561   105785414.64809     -1452.429    19754682.654    82277557.71508
     -1129.672  
  23232390.143   124364801.73207     -3456.434    23232394.085    96728195.75706
     -2688.340  
  21815720.448   116494740.44904     -1032.090    21815725.516    90607032.73205
      -802.742  
  21650561.868   115409694.55908      2834.327    21650568.529    89763132.45407
      2204.477  
  22501817.772   120411780.64207      3105.406    22501822.262    93653627.69607
      2415.312  
  20191559.946   107935482.66609      1951.956    20191564.327    83949850.81208
      1518.188  
  20458341.943   109399949.71605     -1150.167    20458348.082    85088876.95308
      -894.577  
 20 09 30 07 15  5.0000000  0 15G15G18G20G 8G27G24G10G13R 4R 3R13R14
                                R21R 5R20
  20849602.093   109565398.93949     -2142.499    20849601.600    85375635.52548
     -1669.484  
  21092723.647   110843004.17749     -2181.948    21092723.727    86371169.68047
     -1700.219  
  20180830.268   106050986.62349      1115.671    20180829.195    82637131.97648
       869.352  
  24717603.251   129891885.06446       775.262    24717606.281   101214469.43045
       604.098  
  24022110.088   126237040.07247     -1069.933    24022111.873    98366531.09645
      -833.718  
  21303170.343   111948947.37348      2249.050    21303172.613    87232960.56047
      1752.508  
  22508642.395   118283737.91748      2779.241    22508644.529    92169164.76147
      2165.644  
  23240586.183   122130104.57747     -3352.979    23240586.080    95166317.46245
     -2612.714  
  19756036.386   105792680.35509     -1453.914    19756039.473    82283208.82008
     -1130.824  
  23235618.567   124382083.46007     -3456.394    23235622.436    96741637.10906
     -2688.309  
  21816689.081   116499913.23605     -1036.547    21816694.244    90611056.01605
      -806.203  
  21647904.473   115395529.05508      2831.979    21647911.109    89752114.83907
      2202.652  
  22498917.497   120396260.74507      3102.519    22498921.993    93641556.67307
      2413.070  
  20189734.966   107925727.10009      1950.277    20189739.325    83942263.15308
      1516.882  
  20459419.688   109405712.77805     -1154.262    20459425.803    85093359.33408
      -897.762  
 20 09 30 07 15 10.0000000  0 15G15G18G20G 8G27G24G10G13R 4R 3R13R14
                                R21R 5R20
  20851641.795   109576117.61749     -2145.008    20851641.297    85383987.74048
     -1671.433  
  21094801.295   110853922.25649     -2185.340    21094801.390    86379677.26647
     -1702.867  
  20179769.933   106045414.55949      1112.983    20179768.866    82632790.10748
       867.262  
  24716867.013   129888016.20046       771.789    24716870.255   101211454.74645
       601.398  
  24023129.819   126242398.73447     -1073.258    24023131.532    98370706.67845
      -836.309  
  21301032.037   111937710.56048      2245.715    21301034.326    87224204.60147
      1749.905  
  22505998.666   118269844.99748      2777.922    22506000.787    92158339.11147
      2164.612  
  23243777.056   122146872.88648     -3354.219    23243777.029    95179383.67645
     -2613.680  
  19757395.057   105799955.94209     -1456.515    19757398.146    82288867.61108
     -1132.843  
  23238847.224   124399366.49307     -3457.253    23238851.018    96755079.45206
     -2688.980  
  21817661.994   116505107.78904     -1041.737    21817667.015    90615096.21805
      -810.245  
  21645249.963   115381379.08508      2828.070    21645256.620    89741109.31607
      2199.608  
  22496020.195   120380756.47607      3098.805    22496024.589    93629497.79607
      2410.180  
  20187911.717   107915980.82009      1947.984    20187916.061    83934682.71908
      1515.098  
  20460501.551   109411498.57905     -1159.722    20460507.776    85097859.39508
      -902.011  
 20 09 30 07 15 15.0000000  0 15G15G18G20G 8G27G24G10G13R 4R 3R13R14
                                R21R 5R20
  20853683.502   109586846.85949     -2146.651    20853683.019    85392348.18948
     -1672.718  
  21096881.610   110864854.35649     -2187.608    21096881.705    86388195.78047
     -1704.633  
  20178711.874   106039854.51649      1110.988    20178710.825    82628457.60948
       865.707  
  24716133.768   129884162.94346       769.297    24716137.161   101208452.22544
       599.453  
  24024152.472   126247772.87247     -1076.116    24024154.179    98374894.30945
      -838.535  
  21298896.505   111926488.35848      2242.996    21298898.821    87215460.03647
      1747.789  
  22503355.924   118255957.26048      2777.147    22503358.032    92147517.50147
      2164.011  
  23246968.822   122163645.75748     -3354.952    23246968.794    95192453.42145
     -2614.258  
  19758755.704   105807242.11609     -1458.141    19758758.795    82294534.63608
     -1134.112  
  23242076.340   124416651.48707     -3457.073    23242080.014    96768523.33306
     -2688.839  
  21818638.945   116510324.86904     -1046.226    21818644.000    90619153.94805
      -813.733  
  21642598.543   115367245.58708      2825.340    21642605.212    89730116.59807
      2197.488  
  22493125.904   120365268.57307      3096.112    22493130.299    93617451.65907
      2408.086  
  20186090.322   107906244.35609      1946.464    20186094.655    83927109.91608
      1513.917  
  20461587.972   109417307.69005     -1164.098    20461594.102    85102377.59608
      -905.409  
 20 09 30 07 15 20.0000000  0 15G15G18G20G 8G27G24G10G13R 4R 3R13R14
                                R21R 5R20
  20855727.229   109597586.68949     -2148.956    20855726.740    85400716.88348
     -1674.515  
  21098964.609   110875800.55749     -2190.516    21098964.706    86396725.28847
     -1706.898  
  20177656.119   106034306.51549      1108.520    20177655.069    82624134.49448
       863.777  
  24715403.548   129880325.48146       766.144    24715406.907   101205461.98644
       596.992  
  24025178.099   126253162.58347     -1079.394    24025179.801    98379094.09046
      -841.086  
  21296763.818   111915281.10248      2240.125    21296766.144    87206727.11047
      1745.546  
  22500714.152   118242074.74748      2776.238    22500716.278    92136699.96247
      2163.301  
  23250161.455   122180423.22448     -3355.906    23250161.460    95205526.79345
     -2614.991  
  19760118.331   105814538.89109     -1460.339    19760121.423    82300209.90508
     -1135.820  
  23245305.745   124433938.55807     -3457.534    23245309.378    96781968.83506
     -2689.199  
  21819620.293   116515564.52505     -1050.023    21819625.213    90623229.24105
      -816.684  
  21639950.203   115353128.47908      2821.671    21639956.865    89719136.63207
      2194.633  
  22490234.686   120349797.02107      3092.604    22490239.063    93605418.23107
      2405.354  
  20184270.792   107896517.95809      1944.297    20184275.124    83919544.94308
      1512.229  
  20462678.670   109423140.26905     -1168.581    20462684.832    85106914.04908
      -908.898  
 20 09 30 07 15 25.0000000  0 15G15G18G20G 8G27G24G10G13R 4R 3R13R14
                                R21R 5R20
  20857772.909   109608336.83749     -2151.089    20857772.424    85409093.61848
     -1676.180  
  21101050.230   110886760.54149     -2193.569    21101050.330    86405265.53747
     -1709.276  
  20176602.602   106028770.27549      1106.008    20176601.558    82619820.54348
       861.824  
  24714676.259   129876503.52246       762.417    24714679.576   101202483.81545
       594.090  
  24026206.625   126258567.55447     -1082.655    24026208.347    98383305.75145
      -843.632  
  21294633.891   111904088.35648      2236.960    21294636.213    87198005.49547
      1743.085  
  22498073.360   118228197.19848      2774.956    22498075.463    92125886.29747
      2162.304  
  23253354.921   122197204.99848     -3356.894    23253354.904    95218603.47345
     -2615.766  
  19761482.882   105821845.84309     -1462.382    19761485.944    82305893.08308
     -1137.413  
  23248535.479   124451227.41807     -3458.159    23248539.102    96795415.74806
     -2689.679  
  21820605.683   116520826.48304     -1054.644    21820610.570    90627321.87305
      -820.280  
  21637304.899   115339027.55107      2818.563    21637311.551    89708169.23807
      2192.210  
  22487346.514   120334341.57607      3089.565    22487350.851    93593397.33107
      2402.995  
  20182453.108   107886801.23909      1942.358    20182457.419    83911987.49708
      1510.723  
  20463773.843   109428996.14805     -1173.492    20463779.908    85111468.61108
      -912.719  
 20 09 30 07 15 30.0000000  0 15G15G18G20G 8G27G24G10G13R 4R 3R13R14
                                R21R 5R20
  20859820.340   109619096.22349     -2152.909    20859819.868    85417477.56148
     -1677.598  
  21103138.278   110897733.27249     -2196.007    21103138.363    86413815.71747
     -1711.179  
  20175551.125   106023244.79049      1103.901    20175550.085    82615514.96748
       860.180  
  24713951.697   129872695.92446       759.714    24713954.850   101199516.86944
       591.984  
  24027237.866   126263986.75847     -1085.604    24027239.554    98387528.49745
      -845.930  
  21292506.534   111892909.14648      2234.362    21292508.875    87189294.42947
      1741.062  
  22495433.300   118214323.59148      2774.168    22495435.403    92115075.69347
      2161.684  
  23256549.002   122213989.97648     -3357.406    23256548.977    95231682.66744
     -2616.163  
  19762849.177   105829162.16209     -1464.366    19762852.216    82311583.56008
     -1138.957  
  23251765.314   124468516.97607     -3458.237    23251768.943    96808863.14606
     -2689.749  
  21821594.997   116526109.39804     -1058.405    21821599.889    90631430.80105
      -823.206  
  21634662.390   115324941.61608      2815.515    21634669.052    89697213.51907
      2189.843  
  22484461.153   120318901.27208      3086.488    22484465.449    93581388.21607
      2400.601  
  20180637.033   107877093.24809      1940.590    20180641.346    83904436.83808
      1509.348  
  20464873.172   109434874.07005     -1177.917    20464879.102    85116040.32908
      -916.163  
 20 09 30 07 15 35.0000000  0 15G15G18G20G 8G27G24G10G13R 4R 3R13R14
                                R21R 5R20
  20861869.839   109629866.44649     -2155.351    20861869.373    85425869.94048
     -1679.500  
  21105229.045   110908720.29749     -2199.011    21105229.113    86422377.01847
     -1713.520  
  20174501.999   106017731.59949      1101.214    20174500.959    82611218.97348
       858.090  
  24713230.098   129868904.08246       756.722    24713233.166   101196562.19344
       589.652  
  24028272.086   126269421.68847     -1088.694    24028273.782    98391763.52146
      -848.336  
  21290382.045   111881744.94048      2231.069    21290384.383    87180595.05547
      1738.496  
  22492794.269   118200455.45148      2772.902    22492796.379    92104269.36147
      2160.573  
  23259744.017   122230779.77148     -3358.652    23259744.018    95244765.63945
     -2617.137  
  19764217.457   105836489.20909     -1466.792    19764220.506    82317282.37808
     -1140.840  
  23254995.593   124485808.72807     -3458.801    23254999.207    96822312.27206
     -2690.183  
  21822588.521   116531415.13804     -1063.429    21822593.500    90635557.49505
      -827.112  
  21632023.053   115310872.52307      2812.043    21632029.713    89686270.89907
      2187.145  
  22481578.894   120303477.59707      3082.933    22481583.160    93569392.02907
      2397.835  
  20178822.828   107867395.34309      1938.288    20178827.175    83896894.02408
      1507.559  
  20465976.803   109440775.52605     -1182.636    20465982.690    85120630.35508
      -920.035  
 20 09 30 07 15 40.0000000  0 15G15G18G20G 8G27G24G10G13R 4R 3R13R14
                                R21R 5R20
  20863921.444   109640647.63949     -2157.047    20863920.987    85434270.86448
     -1680.819  
  21107322.561   110919721.77049     -2201.499    21107322.624    86430949.59647
     -1715.457  
  20173455.249   106012230.88749      1099.148    20173454.193    82606932.70448
       856.476  
  24712511.612   129865128.47646       753.785    24712514.619   101193620.14745
       587.359  
  24029309.328   126274872.61947     -1091.558    24029311.088    98396010.98745
      -850.569  
  21288260.442   111870595.93748      2228.480    21288262.784    87171907.52247
      1736.476  
  22490156.315   118186593.00448      2772.047    22490158.456    92093467.44647
      2160.031  
  23262939.992   122247574.57348     -3359.285    23262940.003    95257852.47745
     -2617.628  
  19765587.810   105843827.26209     -1468.394    19765590.842    82322989.74808
     -1142.089  
  23258226.378   124503102.99706     -3458.879    23258229.918    96835763.38406
     -2690.238  
  21823586.347   116536743.78304     -1068.499    21823591.384    90639701.99305
      -831.054  
  21629386.877   115296820.31707      2808.913    21629393.564    89675341.41107
      2184.710  
  22478699.781   120288070.82007      3080.003    22478704.053    93557408.99007
      2395.558  
  20177010.601   107857707.88609      1936.625    20177014.937    83889359.34008
      1506.265  
  20467084.997   109446700.97305     -1187.059    20467090.779    85125239.03508
      -923.273  
 20 09 30 07 15 45.0000000  0 15G15G18G20G 8G27G24G10G13R 4R 3R13R14
                                R21R 5R20
  20865975.093   109651439.66649     -2159.354    20865974.650    85442680.23748
     -1682.616  
  21109418.817   110930737.57149     -2204.503    21109418.845    86439533.33147
     -1717.800  
  20172410.861   106006742.56049      1096.511    20172409.808    82602656.08948
       854.422  
  24711796.195   129861368.96446       750.535    24711799.389   101190690.67845
       584.832  
  24030349.602   126280339.29547     -1094.671    24030351.304    98400270.74945
      -852.991  
  21286141.750   111859462.13348      2225.465    21286144.085    87163231.83447
      1734.129  
  22487519.425   118172736.08448      2771.026    22487521.576    92082669.86347
      2159.242  
  23266136.879   122264374.11048     -3360.246    23266136.763    95270943.01745
     -2618.379  
  19766960.165   105851176.16309     -1470.741    19766963.213    82328705.55908
     -1143.913  
  23261457.518   124520399.44907     -3459.026    23261461.046    96849216.17306
     -2690.358  
  21824588.473   116542095.20704     -1073.280    21824593.524    90643864.20405
      -834.776  
  21626753.813   115282784.88407      2805.468    21626760.554    89664424.97007
      2182.030  
  22475823.755   120272680.78007      3076.409    22475828.072    93545438.96307
      2392.761  
  20175200.302   107848030.77308      1934.637    20175204.655    83881832.69508
      1504.719  
  20468197.545   109452650.14105     -1192.387    20468203.301    85129866.16008
      -927.413  
 20 09 30 07 15 50.0000000  0 15G15G18G20G 8G27G24G10G13R 4R 3R13R14
                                R21R 5R20
  20868030.442   109662240.66549     -2161.378    20868030.018    85451096.59748
     -1684.195  
  21111517.460   110941765.82849     -2207.190    21111517.466    86448126.77247
     -1719.894  
  20171368.456   106001264.68649      1094.227    20171367.411    82598387.61548
       852.641  
  24711083.460   129857623.52046       747.343    24711086.808   101187772.15645
       582.347  
  24031392.511   126285819.90847     -1097.816    24031394.249    98404541.34045
      -855.444  
  21284025.562   111848341.58448      2222.473    21284027.915    87154566.47248
      1731.793  
  22484883.249   118158882.85448      2769.922    22484885.402    92071875.13947
      2158.378  
  23269334.333   122281176.59348     -3361.145    23269334.148    95284035.87145
     -2619.078  
  19768334.201   105858534.00209     -1472.695    19768337.237    82334428.32108
     -1145.430  
  23264688.771   124537696.50507     -3459.733    23264692.268    96862669.41706
     -2690.909  
  21825594.464   116547467.54704     -1076.769    21825599.594    90648042.70305
      -837.487  
  21624123.583   115268764.34307      2802.401    21624130.337    89653520.10707
      2179.644  
  22472950.591   120257305.65107      3073.156    22472954.880    93533480.54407
      2390.233  
  20173391.561   107838361.95409      1932.574    20173395.918    83874312.50508
      1503.113  
  20469314.071   109458621.08105     -1196.882    20469319.890    85134510.22308
      -930.913  
 20 09 30 07 15 55.0000000  0 15G15G18G20G 8G27G24G10G13R 4R 3R13R14
                                R21R 5R20
  20870087.986   109673053.13249     -2163.847    20870087.570    85459521.89448
     -1686.116  
  21113618.888   110952808.93749     -2210.210    21113618.925    86456731.80147
     -1722.242  
  20170328.505   105995799.73949      1091.542    20170327.459    82594129.21948
       850.550  
  24710373.914   129853894.64146       743.917    24710377.276   101184866.52245
       579.672  
  24032438.557   126291316.88647     -1101.265    24032440.242    98408824.69445
      -858.133  
  21281912.391   111837236.76848      2219.301    21281914.733    87145913.37847
      1729.323  
  22482248.218   118145035.76948      2768.707    22482250.420    92061085.20147
      2157.430  
  23272532.775   122297984.45648     -3362.272    23272532.606    95297132.89745
     -2619.953  
  19769710.327   105865903.21909     -1475.054    19769713.394    82340159.93408
     -1147.270  
  23267920.566   124554996.24707     -3460.586    23267924.012    96876124.76706
     -2691.569  
  21826604.919   116552863.35204     -1082.516    21826610.031    90652239.43605
      -841.961  
  21621496.622   115254761.19308      2798.703    21621503.369    89642628.77907
      2176.769  
  22470080.615   120241947.92007      3069.659    22470084.904    93521535.63207
      2387.512  
  20171584.870   107828704.06009      1930.289    20171589.226    83866800.81608
      1501.336  
  20470435.128   109464616.22305     -1201.918    20470441.026    85139173.11008
      -934.828  
 20 09 30 07 16  0.0000000  0 15G15G18G20G 8G27G24G10G13R 4R 3R13R14
                                R21R 5R20
  20872147.374   109683875.32149     -2165.523    20872146.980    85467954.77348
     -1687.422  
  21115722.848   110963865.29049     -2212.707    21115722.886    86465347.13947
     -1724.191  
  20169290.715   105990346.11249      1089.508    20169289.676    82589879.63848
       848.969  
  24709667.156   129850180.63246       741.374    24709670.489   101181972.47046
       577.690  
  24033487.374   126296828.55147     -1104.093    24033489.124    98413119.50645
      -860.331  
  21279801.907   111826146.12848      2216.749    21279804.256    87137271.32747
      1727.331  
  22479614.052   118131193.16548      2768.023    22479616.276    92050298.76047
      2156.902  
  23275731.951   122314796.02348     -3362.648    23275731.762    95310232.81045
     -2620.249  
  19771088.312   105873282.29409     -1476.894    19771091.384    82345899.21808
     -1148.694  
  23271152.464   124572297.22207     -3460.563    23271155.970    96889581.07406
     -2691.550  
  21827619.455   116558280.73004     -1085.563    21827624.495    90656452.95605
      -844.328  
  21618872.634   115240773.83107      2795.585    21618879.361    89631749.72307
      2174.344  
  22467213.594   120226605.94207      3066.655    22467217.883    93509602.99007
      2385.175  
  20169779.869   107819055.32609      1928.843    20169784.231    83859296.24708
      1500.210  
  20471560.440   109470634.02405     -1205.617    20471566.390    85143853.61208
      -937.707  
 20 09 30 07 16  5.0000000  0 15G15G18G20G 8G27G24G10G13R 4R 3R13R14
                                R21R 5R20
  20874208.515   109694706.75149     -2167.190    20874208.133    85476394.85048
     -1688.719  
  21117829.218   110974934.34149     -2215.132    21117829.247    86473972.36747
     -1726.081  
  20168254.983   105984903.27249      1087.542    20168253.937    82585638.46348
       847.433  
  24708963.162   129846481.14946       738.230    24708966.386   101179089.78945
       575.246  
  24034538.893   126302354.38447     -1106.413    24034540.781    98417425.33245
      -862.144  
  21277694.014   111815069.14048      2213.926    21277696.347    87128639.91647
      1725.137  
  22476980.646   118117354.55348      2767.331    22476982.869    92039515.43247
      2156.363  
  23278931.741   122331610.78448     -3363.366    23278931.519    95323335.21745
     -2620.808  
  19772468.032   105880670.54209     -1478.479    19772471.078    82351645.62508
     -1149.933  
  23274384.552   124589598.87406     -3460.395    23274388.087    96903037.91306
     -2691.418  
  21828637.934   116563719.25804     -1089.738    21828642.963    90660682.91705
      -847.578  
  21616251.492   115226801.69707      2792.918    21616258.225    89620882.50907
      2172.265  
  22464349.395   120211279.09907      3064.026    22464353.683    93497682.12307
      2383.133  
  20167976.521   107809415.30309      1927.152    20167980.873    83851798.45208
      1498.890  
  20472689.961   109476673.73505     -1209.952    20472695.854    85148551.16408
      -941.078  
 20 09 30 07 16 10.0000000  0 15G15G18G20G 8G27G24G10G13R 4R 3R13R14
                                R21R 5R20
  20876271.658   109705548.66849     -2169.469    20876271.287    85484843.08748
     -1690.500  
  21119938.252   110986017.29649     -2217.969    21119938.284    86482608.42647
     -1728.293  
  20167221.545   105979472.48849      1084.964    20167220.486    82581406.68548
       845.422  
  24708262.191   129842797.39846       735.637    24708265.023   101176219.32345
       573.218  
  24035593.323   126307895.61047     -1109.675    24035595.189    98421743.17545
      -864.687  
  21275588.929   111804006.93748      2210.948    21275591.287    87120020.01847
      1722.816  
  22474348.239   118103521.16148      2766.022    22474350.456    92028736.17247
      2155.343  
  23282132.364   122348429.95348     -3364.441    23282132.108    95336441.06545
     -2621.648  
  19773849.671   105888069.21709     -1480.819    19773852.730    82357400.15608
     -1151.754  
  23277616.944   124606902.43607     -3460.820    23277620.565    96916496.22806
     -2691.797  
  21829660.596   116569180.30704     -1094.175    21829665.679    90664930.39705
      -851.030  
  21613633.439   115212846.09607      2789.297    21613640.167    89610028.15607
      2169.453  
  22461488.283   120195968.74007      3060.218    22461492.576    93485774.06107
      2380.168  
  20166175.009   107799785.21809      1925.073    20166179.367    83844308.38708
      1497.277  
  20473823.712   109482736.85005     -1214.819    20473829.688    85153266.92408
      -944.862  
 20 09 30 07 16 15.0000000  0 15G15G18G20G 8G27G24G10G13R 4R 3R13R14
                                R21R 5R20
  20878336.948   109716401.84549     -2171.379    20878336.584    85493300.10548
     -1691.987  
  21122050.084   110997115.01949     -2220.640    21122050.094    86491255.99947
     -1730.375  
  20166190.558   105974054.58749      1082.628    20166189.502    82577184.94448
       843.605  
  24707564.304   129839130.10146       732.336    24707567.221   101173361.69145
       570.647  
  24036650.858   126313453.11747     -1112.770    24036652.758    98426073.71345
      -867.093  
  21273486.829   111792960.32848      2207.965    21273489.195    87111412.27047
      1720.492  
  22471716.970   118089693.84348      2765.112    22471719.229    92017961.64147
      2154.633  
  23285333.980   122365254.33948     -3365.089    23285333.674    95349550.97145
     -2622.147  
  19775233.442   105895479.21609     -1482.823    19775236.510    82363163.49008
     -1153.308  
  23280849.966   124624208.74206     -3461.117    23280853.549    96929956.68206
     -2691.984  
  21830687.722   116574664.60404     -1099.039    21830692.698    90669195.96605
      -854.809  
  21611018.692   115198907.89808      2786.152    21611025.406    89599187.34007
      2167.007  
  22458630.426   120180675.80407      3057.176    22458634.757    93473879.56407
      2377.805  
  20164375.505   107790165.93509      1923.089    20164379.875    83836826.72708
      1495.738  
  20474962.151   109488824.03305     -1219.434    20474968.028    85158001.39408
      -948.453  
 20 09 30 07 16 20.0000000  0 15G15G18G20G 8G27G24G10G13R 4R 3R13R14
                                R21R 5R20
  20880404.050   109727264.56849     -2173.374    20880403.700    85501764.56848
     -1693.542  
  21124164.395   111008225.76349     -2223.539    21124164.389    86499913.71648
     -1732.632  
  20165161.685   105968647.82349      1080.272    20165160.623    82572971.88948
       841.773  
  24706869.247   129835477.46346       728.886    24706872.317   101170515.48544
       567.965  
  24037711.172   126319025.10347     -1115.792    24037713.037    98430415.50345
      -869.452  
  21271387.382   111781927.69048      2205.171    21271389.749    87102815.42347
      1718.315  
  22469086.540   118075870.87248      2764.242    22469088.807    92007190.50347
      2153.952  
  23288536.261   122382082.21948     -3365.940    23288535.939    95362663.58945
     -2622.816  
  19776618.994   105902898.75509     -1484.894    19776622.064    82368934.24008
     -1154.922  
  23284083.149   124641516.28506     -3461.690    23284086.796    96943418.10306
     -2692.426  
  21831718.854   116580170.26104     -1103.047    21831723.708    90673478.14505
      -857.930  
  21608406.838   115184985.30807      2782.805    21608413.556    89588358.66107
      2164.402  
  22455775.477   120165398.52007      3054.016    22455779.812    93461997.24307
      2375.343  
  20162577.716   107780555.72009      1921.144    20162582.076    83829352.11108
      1494.219  
  20476104.743   109494933.64005     -1223.815    20476110.563    85162753.31108
      -952.121  
 20 09 30 07 16 25.0000000  0 15G15G18G20G 8G27G24G10G13R 4R 3R13R14
                                R21R 5R20
  20882473.532   109738139.74149     -2175.883    20882473.183    85510238.72548
     -1695.492  
  21126281.738   111019352.38349     -2226.492    21126281.713    86508583.80147
     -1734.934  
  20164135.476   105963255.09149      1077.398    20164134.418    82568769.75248
       839.526  
  24706177.512   129831842.58946       725.702    24706180.712   101167683.10445
       565.484  
  24038774.784   126324614.42147     -1119.085    24038776.690    98434770.82945
      -872.016  
  21269291.151   111770911.95348      2201.929    21269293.494    87094231.73247
      1715.789  
  22466457.509   118062055.15748      2762.815    22466459.763    91996425.01047
      2152.844  
  23291739.759   122398916.46248     -3367.063    23291739.369    95375781.19145
     -2623.687  
  19778006.884   105910330.77609     -1487.285    19778009.956    82374714.70108
     -1156.777  
  23287317.037   124658827.57306     -3462.168    23287320.694    96956882.42306
     -2692.800  
  21832754.502   116585700.37304     -1107.824    21832759.366    90677779.34405
      -861.645  
  21605798.454   115171081.37608      2779.421    21605805.208    89577544.49907
      2161.773  
  22452924.018   120150139.75407      3050.468    22452928.324    93450129.31307
      2372.582  
  20160782.138   107770957.39109      1918.859    20160786.482    83821886.75208
      1492.445  
  20477252.100   109501068.57305     -1228.859    20477257.848    85167524.92308
      -955.785  
 20 09 30 07 16 30.0000000  0 15G15G18G20G 8G27G24G10G13R 4R 3R13R14
                                R21R 5R20
  20884544.622   109749023.36049     -2177.839    20884544.268    85518719.46848
     -1697.022  
  21128401.350   111030490.95549     -2229.116    21128401.327    86517263.20447
     -1736.976  
  20163111.200   105957872.44949      1075.242    20163110.129    82564575.49148
       837.848  
  24705488.409   129828221.45346       722.421    24705491.633   101164861.44145
       562.926  
  24039840.946   126330217.20747     -1122.234    24039842.911    98439136.63845
      -874.473  
  21267197.364   111759909.02948      2198.941    21267199.677    87085658.02848
      1713.461  
  22463829.090   118048242.75048      2761.688    22463831.344    91985662.10447
      2151.965  
  23294943.718   122415753.16248     -3367.815    23294943.208    95388900.68745
     -2624.276  
  19779396.346   105917771.34909     -1489.312    19779399.432    82380501.81708
     -1158.355  
  23290550.993   124676138.78606     -3462.492    23290554.571    96970346.69006
     -2693.054  
  21833793.763   116591250.84704     -1112.433    21833798.820    90682096.37105
      -865.229  
  21603192.848   115157192.12307      2776.069    21603199.621    89566741.75107
      2159.163  
  22450075.355   120134895.61008      3046.956    22450079.586    93438272.76707
      2369.854  
  20158988.064   107761367.16209      1916.964    20158992.418    83814427.69008
      1490.972  
  20478403.460   109507224.75605     -1233.578    20478409.076    85172313.05708
      -959.452  
 20 09 30 07 16 35.0000000  0 15G15G18G20G 8G27G24G10G13R 4R 3R13R14
                                R21R 5R20
  20886617.606   109759916.86949     -2179.605    20886617.226    85527207.91648
     -1698.397  
  21130523.502   111041642.88149     -2231.633    21130523.451    86525953.01047
     -1738.937  
  20162089.111   105952501.33849      1073.046    20162088.019    82560390.21348
       836.137  
  24704802.171   129824615.31146       719.594    24704805.388   101162051.44745
       560.718  
  24040909.933   126335834.80247     -1124.824    24040911.881    98443513.98346
      -876.488  
  21265106.333   111748920.55448      2196.211    21265108.649    87077095.58447
      1711.332  
  22461201.568   118034435.03448      2761.112    22461203.793    91974902.84747
      2151.516  
  23298148.403   122432593.64548     -3368.296    23298147.862    95402023.14845
     -2624.647  
  19780787.652   105925221.75709     -1491.039    19780790.736    82386296.57908
     -1159.737  
  23293785.073   124693451.50705     -3462.691    23293788.738    96983812.12806
     -2693.207  
  21834837.302   116596823.00304     -1116.339    21834842.306    90686430.27405
      -868.269  
  21600590.249   115143318.80408      2773.027    21600597.008    89555951.39707
      2156.801  
  22447229.583   120119667.40207      3044.098    22447233.816    93426428.60307
      2367.628  
  20157195.753   107751786.26309      1915.215    20157200.105    83806975.87808
      1489.565  
  20479558.932   109513403.61705     -1238.195    20479564.570    85177118.84008
      -963.042  
 20 09 30 07 16 40.0000000  0 15G15G18G20G 8G27G24G10G13R 4R 3R13R14
                                R21R 5R20
  20888692.685   109770821.45149     -2182.270    20888692.291    85535704.99248
     -1700.473  
  21132648.412   111052809.32549     -2234.977    21132648.352    86534654.12547
     -1741.543  
  20161069.456   105947142.98049      1070.136    20161068.357    82556214.86848
       833.870  
  24704119.054   129821025.47546       716.429    24704122.154   101159254.18444
       558.253  
  24041981.951   126341468.41747     -1128.496    24041983.925    98447903.79545
      -879.351  
  21263018.254   111737947.65448      2192.777    21263020.568    87068545.27547
      1708.655  
  22458575.183   118020633.28348      2759.570    22458577.402    91964148.24547
      2150.315  
  23301354.029   122449439.17048     -3369.754    23301353.526    95415149.52744
     -2625.784  
  19782181.045   105932683.25209     -1493.703    19782184.108    82392099.95608
     -1161.773  
  23297019.621   124710766.64106     -3463.097    23297023.363    96997279.44406
     -2693.522  
  21835885.188   116602418.28104     -1121.344    21835890.114    90690782.15605
      -872.160  
  21597990.860   115129462.81907      2769.269    21597997.646    89545174.52307
      2153.875  
  22444387.061   120104456.58707      3040.265    22444391.328    93414597.97407
      2364.651  
  20155405.471   107742216.05809      1912.714    20155409.778    83799532.38808
      1487.668  
  20480718.955   109519606.56105     -1243.206    20480724.551    85181943.34908
      -966.940  
 20 09 30 07 16 45.0000000  0 15G15G18G20G 8G27G24G10G13R 4R 3R13R14
                                R21R 5R20
  20890769.946   109781737.43849     -2184.163    20890769.541    85544210.95548
     -1701.949  
  21134776.170   111063990.64548     -2237.449    21134776.102    86543366.84247
     -1743.473  
  20160052.290   105941797.70549      1067.961    20160051.178    82552049.72248
       832.176  
  24703439.147   129817452.41146       713.340    24703442.267   101156469.97645
       555.844  
  24043057.072   126347118.43447     -1131.695    24043059.148    98452306.40245
      -881.844  
  21260933.219   111726990.66048      2189.878    21260935.508    87060007.36547
      1706.398  
  22455949.971   118006837.79748      2758.895    22455952.200    91953398.51347
      2149.788  
  23304560.669   122466290.05147     -3370.410    23304560.181    95428280.08744
     -2626.292  
  19783576.587   105940156.19209     -1495.401    19783579.636    82397912.24908
     -1163.090  
  23300254.791   124728084.78706     -3463.878    23300258.542    97010749.09806
     -2694.132  
  21836937.379   116608036.83004     -1125.468    21836942.271    90695152.13205
      -875.366  
  21595394.816   115115624.53408      2766.191    21595401.605    89534411.41907
      2151.480  
  22441547.863   120089263.43507      3036.793    22441552.111    93402781.08607
      2361.948  
  20153617.165   107732656.72309      1910.987    20153621.500    83792097.35308
      1486.323  
  20481883.503   109525833.67205     -1247.190    20481889.075    85186786.65808
      -970.042  
 20 09 30 07 16 50.0000000  0 16G15G18G20G 8G21G27G24G10G13R 4R 3R13
                                R14R21R 5R20
  20892848.918   109792662.41749     -2185.656    20892848.505    85552723.93348
     -1703.109  
  21136906.275   111075184.42249     -2239.805    21136906.208    86552089.27247
     -1745.300  
  20159037.135   105936463.09249      1066.034    20159036.037    82547892.88848
       830.676  
  24702761.916   129813893.63246       710.659    24702765.266   101153696.89345
       553.757  
  25214810.917   132504730.79717      2894.093           0.000           0.0000 
         0.000  
  24044134.902   126352782.31647     -1134.152    24044136.890    98456719.82846
      -883.757  
  21258850.743   111716047.14248      2187.616    21258853.020    87051479.95747
      1704.637  
  22453325.501   117993046.20648      2757.973    22453327.744    91942651.83547
      2149.069  
  23307767.851   122483143.84448     -3370.784    23307767.327    95441412.90545
     -2626.589  
  19784973.778   105947638.17709     -1497.104    19784976.844    82403731.57308
     -1164.414  
  23303489.983   124745403.30906     -3463.945    23303493.824    97024219.05606
     -2694.184  
  21837993.536   116613676.30604     -1129.551    21837998.397    90699538.40505
      -878.539  
  21592801.669   115101801.54307      2763.262    21592808.443    89523660.21707
      2149.203  
  22438711.504   120074085.47007      3034.445    22438715.734    93390976.01707
      2360.124  
  20151830.503   107723105.95709      1909.448    20151834.804    83784668.98808
      1485.129  
  20483052.120   109532082.50905     -1251.784    20483057.640    85191646.87108
      -973.609  
 20 09 30 07 16 55.0000000  0 16G15G18G20G 8G21G27G24G10G13R 4R 3R13
                                R14R21R 5R20
  20894929.461   109803595.64749     -2187.593    20894929.014    85561243.32948
     -1704.621  
  21139038.609   111086389.87849     -2242.464    21139038.556    86560820.78747
     -1747.379  
  20158023.890   105931138.42449      1063.699    20158022.786    82543743.79448
       828.851  
  24702087.219   129810348.39246       707.558    24702090.788   101150934.36445
       551.340  
  25212057.428   132490262.17647      2893.354    25212056.523   103239161.42454
      2254.563  
  24045215.209   126358459.39947     -1137.269    24045217.243    98461143.53445
      -886.184  
  21256770.730   111705116.53948      2184.558    21256772.988    87042962.60548
      1702.254  
  22450701.644   117979257.71748      2757.148    22450703.883    91931907.56447
      2148.426  
  23310975.443   122499999.79448     -3371.597    23310974.891    95454547.40644
     -2627.222  
  19786372.499   105955128.36109     -1499.219    19786375.568    82409557.27308
     -1166.058  
  23306725.078   124762721.58406     -3463.656    23306729.074    97037688.82006
     -2693.956  
  21839053.381   116619335.97704     -1134.398    21839058.324    90703940.36805
      -882.309  
  21590211.222   115087993.03008      2759.917    21590217.995    89512920.26907
      2146.602  
  22435877.841   120058921.93507      3031.031    22435882.093    93379182.14907
      2357.464  
  20150045.290   107713563.00209      1907.581    20150049.582    83777246.69008
      1483.675  
  20484224.518   109538352.44505     -1255.965    20484230.156    85196523.48308
      -977.250  
 20 09 30 07 17  0.0000000  0 16G15G18G20G 8G21G27G24G10G13R 4R 3R13
                                R14R21R 5R20
  20897012.327   109814541.15549     -2190.323    20897011.859    85569772.29548
     -1706.750  
  21141173.946   111097611.12149     -2245.733    21141173.871    86569564.60547
     -1749.926  
  20157013.306   105925827.77049      1060.652    20157012.203    82539605.62748
       826.480  
  24701415.909   129806820.78646       703.270    24701419.643   101148185.63545
       548.007  
  25209305.511   132475800.75647      2891.647    25209306.197   103227892.76644
      2253.305  
  24046298.800   126364153.76747     -1140.625    24046300.864    98465580.68745
      -888.801  
  21254693.905   111694202.77949      2181.246    21254696.168    87034458.37247
      1699.667  
  22448079.160   117965476.46848      2755.644    22448081.391    91921168.93047
      2147.254  
  23314184.190   122516862.02648     -3372.905    23314183.704    95467686.80645
     -2628.238  
  19787773.521   105962630.92709     -1501.832    19787776.612    82415392.60108
     -1168.094  
  23309960.940   124780043.72306     -3464.918    23309965.045    97051161.58106
     -2694.941  
  21840117.827   116625020.05804     -1139.473    21840122.799    90708361.31605
      -886.261  
  21587624.263   115074203.18107      2756.179    21587631.048    89502194.83707
      2143.694  
  22433047.693   120043777.08707      3027.207    22433051.933    93367402.83007
      2354.491  
  20148262.308   107704031.94608      1905.019    20148266.581    83769833.65708
      1481.683  
  20485401.699   109544647.61105     -1261.391    20485407.382    85201419.71608
      -981.086  
 20 09 30 07 17  5.0000000  0 16G15G18G20G 8G21G27G24G10G13R 4R 3R13
                                R14R21R 5R20
  20899097.110   109825496.67049     -2191.933    20899096.610    85578309.06648
     -1708.000  
  21143311.850   111108845.84948     -2248.210    21143311.777    86578318.94247
     -1751.851  
  20156004.964   105920528.83249      1058.808    20156003.833    82535476.58248
       825.042  
  24700747.480   129803308.42046       701.491    24700751.136   101145448.71344
       546.612  
  25206554.777   132461344.23646      2890.472    25206554.889   103216627.96344
      2252.422  
  24047385.277   126369863.05447     -1143.176    24047387.316    98470029.49745
      -890.785  
  21252619.868   111683303.55048      2178.507    21252622.098    87025965.46747
      1697.534  
  22445457.608   117951700.18448      2754.984    22445459.823    91910434.17047
      2146.738  
  23317393.743   122533728.24947     -3373.456    23317393.230    95480829.30744
     -2628.672  
  19789176.427   105970143.57909     -1503.394    19789179.517    82421235.77708
     -1169.405  
  23313197.081   124797367.38006     -3464.629    23313201.299    97064635.52506
     -2694.714  
  21841186.346   116630726.04604     -1143.136    21841191.360    90712799.29905
      -889.108  
  21585040.377   115060429.61107      2753.233    21585047.149    89491482.06807
      2141.405  
  22430220.562   120028648.50907      3024.113    22430224.766    93355636.15607
      2352.085  
  20146481.143   107694510.59809      1903.405    20146485.399    83762428.15908
      1480.422  
  20486583.128   109550965.65005     -1266.098    20486588.895    85206333.74608
      -984.746  
 20 09 30 07 17 10.0000000  0 16G15G18G20G 8G21G27G24G10G13R 4R 3R13
                                R14R21R 5R20
  20901183.760   109836462.05749     -2194.093    20901183.252    85586853.51648
     -1709.688  
  21145452.262   111120093.85349     -2250.961    21145452.222    86587083.61447
     -1754.000  
  20154998.821   105915241.51649      1056.398    20154997.691    82531356.60148
       823.168  
  24700082.035   129799811.32946       697.637    24700085.499   101142723.66545
       543.605  
  25203804.747   132446892.51646      2889.925    25203805.716   103205366.87444
      2251.883  
  24048474.560   126375587.18546     -1146.417    24048476.578    98474489.84146
      -893.316  
  21250548.544   111672418.70048      2175.410    21250550.776    87017483.77847
      1695.124  
  22442836.964   117937928.66648      2753.828    22442839.193    91899703.12947
      2145.840  
  23320603.974   122550598.21847     -3374.324    23320603.375    95493974.75144
     -2629.344  
  19790581.215   105977666.12209     -1505.496    19790584.291    82427086.64308
     -1170.945  
  23316433.521   124814692.32807     -3465.038    23316437.803    97078110.47607
     -2695.031  
  21842259.039   116636453.85504     -1147.769    21842263.997    90717254.26905
      -892.710  
  21582459.568   115046672.38308      2749.836    21582466.313    89480782.00307
      2138.758  
  22427396.473   120013536.17407      3020.813    22427400.644    93343882.12207
      2349.515  
  20144701.737   107684998.55908      1901.339    20144705.945    83755029.90308
      1478.816  
  20487768.891   109557306.39205     -1270.671    20487774.637    85211265.43208
      -988.305  
 20 09 30 07 17 15.0000000  0 16G15G18G20G 8G21G27G24G10G13R 4R 3R13
                                R14R21R 5R20
  20903272.274   109847437.30449     -2196.452    20903271.764    85595405.65348
     -1711.527  
  21147595.230   111131355.22949     -2253.922    21147595.203    86595858.70247
     -1756.309  
  20153994.877   105909965.84949      1053.597    20153993.766    82527245.69648
       820.983  
  24699419.424   129796329.43746       694.656    24699422.659   101140010.53945
       541.289  
  25201055.564   132432445.58247      2888.453    25201055.900   103194109.55544
      2250.737  
  24049566.654   126381326.08347     -1149.737    24049568.644    98478961.70345
      -895.901  
  21248479.997   111661548.41448      2172.254    21248482.245    87009013.42847
      1692.663  
  22440217.271   117924162.02548      2752.237    22440219.444    91888975.88347
      2144.601  
  23323814.947   122567471.99848     -3375.605    23323814.312    95507123.15744
     -2630.348  
  19791987.832   105985198.52709     -1507.940    19791990.898    82432945.17308
     -1172.847  
  23319670.289   124832018.81605     -3465.987    23319674.593    97091586.62007
     -2695.772  
  21843335.853   116642203.35604     -1152.613    21843340.674    90721726.11705
      -896.477  
  21579881.763   115032931.29908      2746.046    21579888.526    89470094.51607
      2135.812  
  22424575.378   119998440.05007      3017.305    22424579.548    93332140.68807
      2346.789  
  20142924.134   107675496.06108      1899.042    20142928.287    83747639.08608
      1477.063  
  20488958.791   109563669.82505     -1275.352    20488964.622    85216214.76007
      -991.945  
 20 09 30 07 17 20.0000000  0 16G15G18G20G 8G21G27G24G10G13R 4R 3R13
                                R14R21R 5R20
  20905363.002   109858424.08849     -2198.366    20905362.494    85603966.78148
     -1713.015  
  21149741.029   111142631.60349     -2256.609    21149741.039    86604645.47947
     -1758.401  
  20152993.479   105904703.49949      1051.413    20152992.366    82523145.16148
       819.280  
  24698760.020   129792864.37246       691.203    24698763.222   101137310.47544
       538.598  
  25198307.694   132418005.08746      2887.187    25198308.465   103182857.23543
      2249.754  
  24050661.876   126387081.54347     -1152.354    24050663.870    98483446.46945
      -897.944  
  21246414.511   111650694.24348      2169.426    21246416.758    87000555.63747
      1690.460  
  22437598.798   117910401.88648      2751.737    22437600.983    91878253.68947
      2144.207  
  23327026.960   122584351.30047     -3376.077    23327026.262    95520275.83844
     -2630.718  
  19793396.627   105992742.59109     -1509.710    19793399.691    82438812.77508
     -1174.222  
  23322907.483   124849348.14107     -3465.848    23322911.899    97105064.97006
     -2695.664  
  21844417.065   116647976.50204     -1157.102    21844421.827    90726216.33205
      -899.973  
  21577307.357   115019208.32708      2742.930    21577314.131    89459421.09207
      2133.386  
  22421757.629   119983361.95607      3013.977    22421761.841    93320413.29307
      2344.202  
  20141148.592   107666004.80408      1897.269    20141152.735    83740256.99108
      1475.652  
  20490153.231   109570057.56205     -1279.901    20490159.161    85221182.99908
      -995.480  
 20 09 30 07 17 25.0000000  0 16G15G18G20G 8G21G27G24G10G13R 4R 3R13
                                R14R21R 5R20
  20907455.493   109869420.20649     -2200.492    20907454.992    85612535.18248
     -1714.672  
  21151889.282   111153920.74849     -2259.495    21151889.316    86613442.21747
     -1760.647  
  20151994.200   105899452.25049      1048.808    20151993.085    82519053.27348
       817.249  
  24698103.432   129789414.07446       687.789    24698106.607   101134621.93345
       535.941  
  25195560.454   132403568.77547      2886.667    25195560.670   103171608.16144
      2249.352  
  24051759.828   126392851.32347     -1156.003    24051761.858    98487942.38945
      -900.785  
  21244351.688   111639854.03348      2166.183    21244353.941    86992108.71348
      1687.929  
  22434981.161   117896646.11448      2750.348    22434983.338    91867534.90347
      2143.128  
  23330239.576   122601233.83547     -3376.938    23330238.900    95533431.05544
     -2631.382  
  19794807.161   106000296.02909     -1511.897    19794810.229    82444687.67908
     -1175.922  
  23326144.860   124866678.42007     -3466.722    23326149.359    97118544.06006
     -2696.343  
  21845502.269   116653770.83504     -1161.085    21845506.925    90730723.02605
      -903.069  
  21574735.881   115005501.03507      2739.604    21574742.662    89448759.86007
      2130.800  
  22418942.865   119968299.52407      3010.160    22418947.061    93308698.07907
      2341.234  
  20139374.737   107656522.50308      1895.320    20139378.876    83732881.87708
      1474.137  
  20491352.037   109576467.49005     -1284.667    20491357.846    85226168.51608
      -999.187  
 20 09 30 07 17 30.0000000  0 16G15G18G20G 8G21G27G24G10G13R 4R 3R13
                                R14R21R 5R20
  20909550.101   109880427.50749     -2202.288    20909549.604    85621112.29948
     -1716.074  
  21154040.300   111165224.54948     -2261.949    21154040.362    86622250.36347
     -1762.559  
  20150997.392   105894214.02049      1046.601    20150996.275    82514971.53248
       815.530  
  24697450.062   129785980.40146       685.437    24697453.480   101131946.36245
       534.104  
  25192814.560   132389138.66046      2886.081    25192815.043   103160363.90344
      2248.891  
  24052860.808   126398637.16547     -1158.754    24052862.869    98492450.84745
      -902.930  
  21242291.894   111629029.74548      2163.397    21242294.159    86983674.22047
      1685.765  
  22432364.703   117882896.50248      2749.559    22432366.866    91856820.91847
      2142.512  
  23333453.183   122618121.51847     -3377.988    23333452.500    95546590.30244
     -2632.199  
  19796219.817   106007860.70709     -1513.823    19796222.871    82450571.31708
     -1177.421  
  23329382.786   124884011.53906     -3467.211    23329387.339    97132025.34306
     -2696.727  
  21846591.629   116659588.23704     -1165.452    21846596.338    90735247.67705
      -906.464  
  21572167.736   114991811.50608      2736.383    21572174.557    89438112.45507
      2128.296  
  22416131.420   119953254.85007      3007.573    22416135.605    93296996.66807
      2339.223  
  20137602.885   107647051.02809      1893.421    20137607.039    83725515.16608
      1472.659  
  20492555.261   109582901.57805     -1288.558    20492561.044    85231172.80008
     -1002.214  
 20 09 30 07 17 35.0000000  0 16G15G18G20G 8G21G27G24G10G13R 4R 3R13
                                R14R21R 5R20
  20911646.383   109891443.60749     -2204.141    20911645.899    85629696.27348
     -1717.515  
  21156193.664   111176540.61649     -2264.409    21156193.760    86631068.07347
     -1764.479  
  20150002.590   105888986.36449      1044.484    20150001.493    82510898.03648
       813.878  
  24696799.400   129782560.90346       682.772    24696802.769   101129281.80744
       532.027  
  25190069.274   132374712.36746      2884.848    25190069.677   103149122.68144
      2247.938  
  24053964.437   126404436.74347     -1161.250    24053966.498    98496969.99145
      -904.875  
  21240234.673   111618219.00348      2160.769    21240236.944    86975250.26847
      1683.714  
  22429748.973   117869150.71948      2748.835    22429751.133    91846109.93247
      2141.949  
  23336667.294   122635011.97147     -3378.265    23336666.623    95559751.69345
     -2632.414  
  19797634.089   106015434.19509     -1515.539    19797637.167    82456461.80608
     -1178.758  
  23332620.814   124901344.80006     -3466.488    23332625.351    97145506.76306
     -2696.160  
  21847684.916   116665426.33005     -1169.250    21847689.620    90739788.42405
      -909.422  
  21569602.485   114978137.21208      2733.367    21569609.295    89427476.89307
      2125.949  
  22413322.811   119938225.41307      3004.340    22413326.980    93285307.10407
      2336.702  
  20135832.624   107637588.03309      1891.733    20135836.777    83718155.06708
      1471.348  
  20493762.441   109589357.19405     -1293.429    20493768.267    85236193.82608
     -1006.003  
 20 09 30 07 17 40.0000000  0 16G15G18G20G 8G21G27G24G10G13R 4R 3R13
                                R14R21R 5R20
  20913744.640   109902470.05449     -2206.546    20913744.152    85638288.30248
     -1719.391  
  21158349.670   111187870.50648     -2267.526    21158349.766    86639896.55747
     -1766.909  
  20149010.098   105883770.87749      1041.695    20149009.020    82506834.02548
       811.711  
  24696151.710   129779157.14347       679.413    24696155.178   101126629.53245
       529.413  
  25187325.139   132360291.40046      2883.469    25187325.106   103137885.52944
      2246.855  
  24055070.983   126410251.65347     -1164.757    24055073.073    98501501.10445
      -907.601  
  21238180.293   111607423.22948      2157.413    21238182.600    86966837.98047
      1681.102  
  22427134.261   117855410.31448      2747.273    22427136.407    91835403.12547
      2140.733  
  23339882.220   122651906.68247     -3379.503    23339881.562    95572916.36044
     -2633.386  
  19799050.326   106023018.14109     -1518.183    19799053.412    82462360.42008
     -1180.812  
  23335859.206   124918680.04207     -3467.539    23335863.736    97158989.70306
     -2696.983  
  21848782.333   116671286.66004     -1174.968    21848787.062    90744346.45205
      -913.866  
  21567040.452   114964479.85308      2729.430    21567047.195    89416854.50707
      2122.890  
  22410517.364   119923212.77908      3000.691    22410521.527    93273630.61707
      2333.867  
  20134064.269   107628135.10209      1889.378    20134068.398    83710802.79808
      1469.515  
  20494973.943   109595836.01105     -1298.168    20494979.826    85241232.91407
     -1009.687  
 20 09 30 07 17 45.0000000  0 16G15G18G20G 8G21G27G24G10G13R 4R 3R13
                                R14R21R 5R20
  20915844.981   109913507.44849     -2208.305    20915844.504    85646888.86248
     -1720.762  
  21160508.403   111199214.81848     -2270.078    21160508.531    86648736.27647
     -1768.895  
  20148020.057   105878568.27249      1039.313    20148019.015    82502780.05848
       809.855  
  24695507.111   129775769.68946       676.105    24695510.472   101123989.94545
       526.836  
  25184582.090   132345876.42645      2882.558    25184582.075   103126653.08745
      2246.151  
  24056180.558   126416082.47447     -1167.280    24056182.664    98506044.60345
      -909.569  
  21236128.915   111596643.16148      2154.547    21236131.262    86958437.93747
      1678.863  
  22424520.702   117841675.96648      2746.663    22424522.837    91824701.05647
      2140.257  
  23343098.107   122668806.34047     -3380.609    23343097.483    95586084.92844
     -2634.241  
  19800468.640   106030613.14909     -1519.800    19800471.718    82468267.64508
     -1182.069  
  23339097.997   124936017.73306     -3467.383    23339102.577    97172474.57106
     -2696.854  
  21849884.125   116677170.01205     -1178.757    21849888.858    90748922.37206
      -916.815  
  21564481.705   114950840.04008      2726.520    21564488.392    89406245.75807
      2120.621  
  22407715.170   119908217.60908      2997.538    22407719.352    93261967.71306
      2331.417  
  20132297.890   107618692.88508      1887.574    20132302.045    83703458.85808
      1468.113  
  20496189.895   109602338.69105     -1302.883    20496195.850    85246290.54708
     -1013.355  
 20 09 30 07 17 50.0000000  0 16G15G18G20G 8G21G27G24G10G13R 4R 3R13
                                R14R21R 5R20
  20917947.171   109924554.56449     -2210.198    20917946.698    85655496.99448
     -1722.237  
  21162669.669   111210572.34448     -2272.602    21162669.838    86657586.30947
     -1770.862  
  20147032.236   105873377.26849      1037.272    20147031.206    82498735.11348
       808.262  
  24694865.339   129772397.46546       673.266    24694868.762   101121362.31044
       524.628  
  25181839.805   132331466.21445      2881.918    25181840.078   103115424.38045
      2245.644  
  24057292.954   126421928.00147     -1170.289    24057295.041    98510599.53845
      -911.917  
  21234080.301   111585877.74948      2151.917    21234082.686    86950049.29647
      1676.816  
  22421908.071   117827946.40348      2745.511    22421910.209    91814002.68647
      2139.354  
  23346314.668   122685709.63948     -3380.796    23346314.141    95599256.32145
     -2634.390  
  19801888.784   106038217.95809     -1521.651    19801891.862    82474182.49308
     -1183.558  
  23342337.053   124953356.74706     -3467.738    23342341.651    97185960.47506
     -2697.132  
  21850989.849   116683075.01705     -1182.522    21850994.677    90753515.15906
      -919.745  
  21561925.970   114937216.50208      2723.401    21561932.659    89395649.67507
      2118.202  
  22404916.034   119893238.80507      2994.507    22404920.175    93250317.56506
      2329.063  
  20130533.266   107609260.02008      1885.831    20130537.431    83696122.17908
      1466.758  
  20497410.158   109608863.89305     -1307.245    20497416.100    85251365.69008
     -1016.750  
 20 09 30 07 17 55.0000000  0 16G15G18G20G 8G21G27G24G10G13R 4R 3R13
                                R14R21R 5R20
  20920051.329   109935611.98649     -2212.375    20920050.872    85664113.17148
     -1723.934  
  21164833.539   111221943.59248     -2275.292    21164833.689    86666447.01347
     -1772.960  
  20146046.728   105868198.42149      1034.867    20146045.718    82494699.64348
       806.386  
  24694226.646   129769040.95446       669.843    24694230.160   101118746.81145
       521.949  
  25179098.711   132317061.44845      2880.535    25179098.921   103104199.86346
      2244.566  
  24058408.236   126427788.75247     -1173.487    24058410.287    98515166.34545
      -914.410  
  21232034.549   111575127.37548      2148.734    21232036.976    86941672.39347
      1674.340  
  22419296.443   117814222.23848      2744.241    22419298.587    91803308.53147
      2138.367  
  23349532.043   122702617.21847     -3381.714    23349531.541    95612431.07044
     -2635.102  
  19803310.883   106045833.14009     -1524.004    19803313.937    82480105.41808
     -1185.335  
  23345576.500   124970697.56907     -3468.141    23345581.079    97199447.75406
     -2697.444  
  21852099.919   116689002.41704     -1187.007    21852104.716    90758125.35006
      -923.229  
  21559373.413   114923609.90508      2719.863    21559380.099    89385066.78007
      2115.449  
  22402119.989   119878276.88307      2990.929    22402124.138    93238680.51907
      2326.277  
  20128770.518   107599837.15208      1883.875    20128774.705    83688793.28508
      1465.233  
  20498634.596   109615412.13905     -1311.339    20498640.639    85256458.76608
     -1019.933  
 20 09 30 07 18  0.0000000  0 16G15G18G20G 8G21G27G24G10G13R 4R 3R13
                                R14R21R 5R20
  20922157.538   109946680.22449     -2214.594    20922157.098    85672737.78448
     -1725.656  
  21167000.121   111233329.15049     -2278.336    21167000.305    86675318.85047
     -1775.336  
  20145063.656   105863032.34049      1032.109    20145062.645    82490674.12248
       804.237  
  24693591.057   129765700.72647       666.906    24693594.592   101116143.98545
       519.660  
  25176358.776   132302662.55646      2879.359    25176358.724   103092979.96544
      2243.648  
  24059526.498   126433665.32447     -1176.202    24059528.650    98519745.51145
      -916.523  
  21229991.793   111564392.65348      2145.555    21229994.227    86933307.67847
      1671.858  
  22416685.925   117800504.00149      2743.445    22416688.094    91792618.99947
      2137.749  
  23352750.351   122719529.53747     -3382.847    23352749.884    95625609.51844
     -2635.984  
  19804735.019   106053459.32009     -1526.171    19804738.083    82486036.90308
     -1186.972  
  23348816.311   124988040.81207     -3468.206    23348820.936    97212936.94906
     -2697.499  
  21853214.196   116694952.62705     -1192.108    21853219.012    90762753.31005
      -927.194  
  21556824.159   114910020.79108      2716.222    21556830.791    89374497.49207
      2112.617  
  22399327.257   119863332.44108      2987.656    22399331.375    93227057.03607
      2323.727  
  20127009.741   107590424.95009      1881.543    20127013.971    83681472.67408
      1463.417  
  20499863.559   109621984.11405     -1316.698    20499869.626    85261570.30908
     -1024.097  
 20 09 30 07 18  5.0000000  0 16G15G18G20G 8G21G27G24G10G13R 4R 3R13
                                R14R21R 5R20
  20924265.420   109957757.24849     -2216.171    20924264.979    85681369.23548
     -1726.887  
  21169169.052   111244726.99149     -2280.758    21169169.237    86684200.29447
     -1777.219  
  20144082.617   105857876.98049      1030.112    20144081.605    82486656.95948
       802.688  
  24692958.156   129762374.74446       664.390    24692961.632   101113552.33744
       517.706  
  25173619.493   132288267.56046      2878.840    25173619.415   103081763.08044
      2243.246  
  24060647.416   126439555.69447     -1179.280    24060649.515    98524335.42345
      -918.922  
  21227951.630   111553671.58349      2142.991    21227954.084    86924953.60447
      1669.863  
  22414076.167   117786789.72349      2742.633    22414078.347    91781932.55647
      2137.116  
  23355969.143   122736444.68847     -3383.132    23355968.763    95638790.13444
     -2636.210  
  19806160.791   106061094.26809     -1527.690    19806163.877    82491975.19308
     -1188.207  
  23352056.226   125005384.39607     -3468.688    23352060.832    97226426.39906
     -2697.871  
  21854332.330   116700923.58404     -1196.363    21854337.218    90767397.38705
      -930.504  
  21554277.774   114896447.12508      2713.077    21554284.384    89363940.19907
      2110.171  
  22396537.447   119848403.44808      2984.401    22396541.531    93215445.60907
      2321.202  
  20125250.583   107581021.27109      1879.965    20125254.834    83674158.70808
      1462.190  
  20501096.678   109628577.84305     -1320.964    20501102.660    85266698.75108
     -1027.402  
 20 09 30 07 18 10.0000000  0 16G15G18G20G 8G21G27G24G10G13R 4R 3R13
                                R14R21R 5R20
  20926375.146   109968843.96749     -2218.300    20926374.733    85690008.23248
     -1728.551  
  21171340.508   111256138.03949     -2283.671    21171340.698    86693092.00047
     -1779.488  
  20143103.820   105852733.36649      1027.522    20143102.800    82482648.94848
       800.663  
  24692328.177   129759064.05746       660.918    24692331.534   101110972.56844
       514.995  
  25170881.116   132273877.41647      2877.461    25170880.909   103070549.98044
      2242.167  
  24061771.079   126445460.70847     -1182.378    24061773.212    98528936.71145
      -921.339  
  21225914.236   111542965.07148      2139.789    21225916.695    86916610.86948
      1667.362  
  22411467.339   117773080.30048      2741.418    22411469.538    91771249.88747
      2136.167  
  23359188.671   122753363.51647     -3384.133    23359188.394    95651973.64445
     -2636.991  
  19807588.420   106068739.15509     -1530.094    19807591.514    82497921.21708
     -1190.063  
  23355296.441   125022729.42407     -3469.284    23355301.019    97239916.96706
     -2698.336  
  21855454.538   116706916.17904     -1200.608    21855459.438    90772058.29505
      -933.808  
  21551734.440   114882889.91108      2709.655    21551741.049    89353395.70407
      2107.512  
  22393750.677   119833490.81908      2980.671    22393754.744    93203846.90407
      2318.300  
  20123493.184   107571627.06009      1877.766    20123497.468    83666852.09708
      1460.480  
  20502334.043   109635194.18005     -1326.198    20502339.926    85271844.78908
     -1031.429  
 20 09 30 07 18 15.0000000  0 16G15G18G20G 8G21G27G24G10G13R 4R 3R13
                                R14R21R 5R20
  20928487.014   109979942.00049     -2220.554    20928486.635    85698656.05348
     -1730.304  
  21173514.755   111267563.84349     -2286.413    21173514.963    86701995.22147
     -1781.625  
  20142127.550   105847602.99849      1024.996    20142126.524    82478651.25848
       798.694  
  24691701.365   129755770.20046       657.409    24691704.634   101108405.95645
       512.269  
  25168143.959   132259493.71547      2876.378    25168143.823   103059341.94345
      2241.191  
  24062897.892   126451382.05347     -1185.785    24062900.021    98533550.74145
      -923.992  
  21223879.926   111532274.73048      2136.745    21223882.401    86908280.74247
      1664.995  
  22408859.750   117759377.35849      2740.249    22408861.957    91760572.27647
      2135.258  
  23362409.192   122770287.52947     -3385.058    23362408.885    95665161.17344
     -2637.710  
  19809018.170   106076395.43109     -1532.214    19809021.291    82503876.09708
     -1191.656  
  23358537.115   125040077.25806     -3470.016    23358541.733    97253409.72706
     -2698.905  
  21856581.168   116712932.12804     -1205.469    21856586.032    90776737.36505
      -937.590  
  21549194.515   114869350.74608      2706.421    21549201.124    89342865.25407
      2104.995  
  22390967.294   119818596.24808      2977.280    22390971.301    93192262.24007
      2315.664  
  20121737.898   107562243.99109      1875.726    20121742.202    83659554.16108
      1458.897  
  20503575.689   109641834.57205     -1330.831    20503581.705    85277009.53708
     -1035.093  
 20 09 30 07 18 20.0000000  0 16G15G18G20G 8G21G27G24G10G13R 4R 3R13
                                R14R21R 5R20
  20930600.815   109991050.16449     -2222.487    20930600.448    85707311.76348
     -1731.809  
  21175691.590   111279003.25049     -2289.229    21175691.832    86710909.04447
     -1783.819  
  20141153.571   105842484.67649      1022.487    20141152.538    82474662.95148
       796.737  
  24691077.598   129752492.00547       653.648    24691080.735   101105851.50644
       509.332  
  25165407.836   132245115.32247      2875.215    25165407.558   103048137.99144
      2240.422  
  24064027.556   126457318.48247     -1189.069    24064029.646    98538176.52245
      -926.555  
  21221848.443   111521599.30749      2133.534    21221850.931    86899962.24347
      1662.496  
  22406253.173   117745679.70648      2738.988    22406255.389    91749898.78447
      2134.277  
  23365630.460   122787215.65547     -3386.062    23365630.228    95678351.90844
     -2638.496  
  19810449.829   106084061.96409     -1534.336    19810452.977    82509838.95308
     -1193.374  
  23361778.218   125057426.76307     -3469.848    23361782.735    97266903.77906
     -2698.773  
  21857712.014   116718970.19304     -1209.574    21857716.781    90781433.63105
      -940.785  
  21546657.826   114855828.58108      2702.801    21546664.377    89332348.01407
      2102.179  
  22388186.991   119803718.53308      2973.828    22388191.011    93180690.67307
      2312.973  
  20119984.460   107552870.82809      1873.667    20119988.782    83652263.92808
      1457.297  
  20504821.972   109648498.03705     -1335.487    20504827.794    85282192.24308
     -1038.719  
 20 09 30 07 18 25.0000000  0 16G15G18G20G 8G21G27G24G10G13R 4R 3R13
                                R14R21R 5R20
  20932716.472   110002168.10849     -2224.445    20932716.149    85715975.08148
     -1733.339  
  21177870.965   111290455.88449     -2291.793    21177871.194    86719833.16748
     -1785.815  
  20140181.823   105837378.07249      1020.293    20140180.785    82470683.78348
       795.031  
  24690456.684   129749229.01447       651.034    24690459.787   101103308.91945
       507.300  
  25162672.614   132230741.88147      2874.113    25162672.368   103036937.93944
      2239.573  
  24065160.022   126463269.59647     -1191.593    24065162.170    98542813.77346
      -928.516  
  21219819.741   111510938.53249      2130.832    21219822.240    86891655.15647
      1660.387  
  22403647.541   117731987.01448      2738.133    22403649.733    91739229.15547
      2133.608  
  23368852.432   122804147.45547     -3386.655    23368852.294    95691545.50945
     -2638.957  
  19811883.342   106091738.35909     -1536.210    19811886.498    82515809.48608
     -1194.835  
  23365019.486   125074777.64507     -3470.409    23365024.024    97280398.90606
     -2699.210  
  21858846.824   116725030.10504     -1214.043    21858851.588    90786146.90705
      -944.254  
  21544124.221   114842322.85108      2699.652    21544130.731    89321843.56507
      2099.729  
  22385409.840   119788857.27908      2970.898    22385413.850    93169131.93807
      2310.698  
  20118232.803   107543507.15309      1871.956    20118237.126    83644981.06308
      1455.961  
  20506072.391   109655184.08805     -1339.581    20506078.098    85287392.48008
     -1041.956  
 20 09 30 07 18 30.0000000  0 16G15G18G20G 8G21G27G24G10G13R 4R 3R13
                                R14R21R 5R20
  20934833.806   110013294.89749     -2226.340    20934833.531    85724645.31448
     -1734.809  
  21180052.666   111301920.86249     -2294.440    21180052.922    86728766.91747
     -1787.878  
  20139212.118   105832282.30049      1018.058    20139211.085    82466713.05748
       793.292  
  24689838.474   129745980.39547       648.132    24689841.637   101100777.54345
       505.039  
  25159938.221   132216372.51847      2873.233    25159937.978   103025741.00645
      2238.883  
  24066295.124   126469234.56647     -1194.554    24066297.275    98547461.77345
      -930.824  
  21217793.664   111500291.52249      2127.808    21217796.165    86883358.78047
      1658.031  
  22401042.674   117718298.38149      2737.140    22401044.876    91728562.69947
      2132.835  
  23372074.964   122821082.06547     -3387.065    23372074.800    95704741.32044
     -2639.273  
  19813318.549   106099423.76609     -1538.019    19813321.709    82521787.02708
     -1196.242  
  23368260.867   125092128.91807     -3470.789    23368265.378    97293894.32906
     -2699.507  
  21859985.570   116731110.82104     -1218.086    21859990.303    90790876.35405
      -947.402  
  21541593.509   114828832.76408      2696.320    21541600.027    89311351.28407
      2097.137  
  22382635.619   119774011.71008      2967.437    22382639.601    93157585.38507
      2308.007  
  20116482.745   107534152.21509      1870.031    20116487.109    83637705.00908
      1454.452  
  20507326.691   109661891.77105     -1344.210    20507332.471    85292609.57508
     -1045.496  
 20 09 30 07 18 35.0000000  0 16G15G18G20G 8G21G27G24G10G13R 4R 3R13
                                R14R21R 5R20
  20936953.371   110024433.25449     -2229.145    20936953.119    85733324.54748
     -1737.000  
  21182237.232   111313400.83549     -2297.718    21182237.504    86737712.34947
     -1790.433  
  20138245.016   105827200.08649      1014.823    20138243.972    82462752.89148
       790.772  
  24689223.566   129742748.87547       644.453    24689226.882   101098259.44445
       502.163  
  25157205.082   132202009.90247      2871.659    25157204.869   103014549.38344
      2237.632  
  24067433.380   126475216.04847     -1198.215    24067435.509    98552122.68346
      -933.676  
  21215770.726   111489660.97049      2124.335    21215773.231    86875075.23447
      1655.323  
  22398439.098   117704616.52649      2735.387    22398441.305    91717901.51347
      2131.468  
  23375298.552   122838022.13447     -3388.668    23375298.301    95717941.36244
     -2640.522  
  19814755.890   106107120.72609     -1540.671    19814759.075    82527773.54308
     -1198.305  
  23371502.834   125109483.42507     -3471.766    23371507.346    97307392.28006
     -2700.266  
  21861128.560   116737214.94904     -1222.987    21861133.392    90795623.99505
      -951.219  
  21539066.271   114815361.03608      2692.246    21539072.775    89300873.28207
      2093.968  
  22379864.766   119759184.47308      2963.254    22379868.794    93146053.09807
      2304.753  
  20114734.820   107524808.49009      1867.309    20114739.188    83630437.67208
      1452.351  
  20508585.691   109668623.80405     -1349.386    20508591.389    85297845.60708
     -1049.522  
 20 09 30 07 18 40.0000000  0 16G15G18G20G 8G21G27G24G10G13R 4R 3R13
                                R14R21R 5R20
  20939074.729   110035581.03649     -2230.191    20939074.478    85742011.12848
     -1737.816  
  21184424.264   111324893.73349     -2299.433    21184424.533    86746667.83747
     -1791.770  
  20137280.085   105822129.33749      1013.370    20137279.040    82458801.65648
       789.637  
  24688611.510   129739532.24947       642.343    24688614.714   101095753.00045
       500.522  
  25154472.843   132187651.98347      2871.520    25154472.651   103003361.40544
      2237.550  
  24068574.345   126481211.92547     -1200.238    24068576.533    98556794.76545
      -935.257  
  21213750.548   111479044.86649      2121.878    21213753.049    86866802.95848
      1653.414  
  22395836.411   117690939.34249      2735.211    22395838.618    91707243.97647
      2131.331  
  23378522.766   122854965.64947     -3388.785    23378522.573    95731144.09244
     -2640.616  
  19816195.041   106114827.34609     -1542.054    19816198.246    82533767.58008
     -1199.379  
  23374745.020   125126838.88207     -3470.906    23374749.486    97320890.95106
     -2699.597  
  21862275.615   116743340.69304     -1227.215    21862280.555    90800388.46405
      -954.504  
  21536542.098   114801905.67908      2690.000    21536548.585    89290408.00807
      2092.222  
  22377096.981   119744373.52408      2961.113    22377100.991    93134533.46607
      2303.085  
  20112988.664   107515474.31809      1866.332    20112993.038    83623177.76008
      1451.590  
  20509848.901   109675378.35005     -1352.758    20509854.527    85303099.12808
     -1052.035  
 20 09 30 07 18 45.0000000  0 16G15G18G20G 8G21G27G24G10G13R 4R 3R13
                                R14R21R 5R20
  20941198.160   110046739.74449     -2232.781    20941197.933    85750706.22648
     -1739.832  
  21186614.036   111336401.02949     -2302.934    21186614.285    86755634.56747
     -1794.496  
  20136317.612   105817071.53649      1010.250    20136316.572    82454860.51048
       787.202  
  24688002.504   129736332.08846       638.265    24688005.667   101093259.36444
       497.347  
  25151741.761   132173300.26947      2869.371    25151741.460   102992178.25944
      2235.879  
  24069718.354   126487223.70147     -1204.003    24069720.475    98561479.26845
      -938.183  
  21211733.405   111468444.67349      2118.582    21211735.881    86858543.05447
      1650.839  
  22393234.919   117677268.34848      2733.511    22393237.100    91696591.25847
      2130.003  
  23381747.933   122871914.02047     -3390.257    23381747.738    95744350.60345
     -2641.762  
  19817636.261   106122545.04209     -1544.680    19817639.488    82539770.23608
     -1201.417  
  23377987.686   125144196.93807     -3471.987    23377992.103    97334391.66206
     -2700.438  
  21863427.125   116749489.25004     -1232.483    21863431.994    90805170.66405
      -958.601  
  21534021.267   114788468.13908      2685.706    21534027.707    89279956.59007
      2088.883  
  22374332.540   119729580.41008      2956.601    22374336.555    93123027.72407
      2299.578  
  20111244.514   107506150.80509      1863.543    20111248.875    83615926.14208
      1449.421  
  20511116.460   109682156.58605     -1358.250    20511122.085    85308371.09308
     -1056.417  
 20 09 30 07 18 50.0000000  0 16G15G18G20G 8G21G27G24G10G13R 4R 3R13
                                R14R21R 5R20
  20943323.568   110057908.80549     -2234.496    20943323.317    85759409.38148
     -1741.167  
  21188806.428   111347922.12849     -2305.323    21188806.675    86764612.03747
     -1796.358  
  20135357.497   105812026.09949      1008.012    20135356.442    82450928.99948
       785.460  
  24687396.569   129733147.90847       635.179    24687399.614   101090778.21044
       494.948  
  25149011.794   132158954.13247      2869.051    25149011.351   102980999.45144
      2235.625  
  24070865.286   126493250.80747     -1206.499    24070867.371    98566175.73845
      -940.128  
  21209719.165   111457859.77149      2115.813    21209721.630    86850295.09448
      1648.683  
  22390634.494   117663602.95849      2732.609    22390636.656    91685942.90547
      2129.304  
  23384973.905   122888866.64748     -3390.780    23384973.729    95757560.43645
     -2642.172  
  19819079.448   106130273.18109     -1546.405    19819082.662    82545781.00408
     -1202.765  
  23381230.657   125161556.84607     -3471.655    23381235.078    97347893.80806
     -2700.175  
  21864582.771   116755660.02804     -1236.433    21864587.555    90809970.16505
      -961.675  
  21531503.617   114775047.92908      2682.570    21531510.098    89269518.66107
      2086.445  
  22371571.240   119714804.51108      2953.882    22371575.347    93111535.35607
      2297.460  
  20109502.255   107496837.52809      1861.977    20109506.626    83608682.48108
      1448.202  
  20512388.309   109688957.92005     -1362.258    20512393.997    85313661.01208
     -1059.539  
 20 09 30 07 18 55.0000000  0 16G15G18G20G 8G21G27G24G10G13R 4R 3R13
                                R14R21R 5R20
  20945450.692   110069086.88749     -2236.577    20945450.443    85768119.57648
     -1742.793  
  21191001.201   111359455.71049     -2308.070    21191001.428    86773599.24847
     -1798.496  
  20134399.498   105806991.78049      1005.620    20134398.443    82447006.15648
       783.597  
  24686793.441   129729978.32347       632.413    24686796.456   101088308.37944
       492.785  
  25146282.656   132144612.35447      2867.905    25146282.309   102969824.04244
      2234.733  
  24072014.868   126499291.89947     -1209.780    24072016.939    98570883.05945
      -942.691  
  21207707.591   111447288.88149      2112.612    21207710.043    86842058.04447
      1646.190  
  22388034.871   117649941.87949      2731.702    22388037.055    91675297.91247
      2128.601  
  23388200.480   122905822.19448     -3391.394    23388200.293    95770772.54845
     -2642.648  
  19820524.326   106138010.53109     -1548.508    19820527.558    82551798.94708
     -1204.320  
  23384473.756   125178917.53607     -3472.309    23384478.193    97361396.56706
     -2700.688  
  21865742.159   116761851.84204     -1239.973    21865747.030    90814786.02205
      -964.426  
  21528988.934   114761643.56508      2679.179    21528995.467    89259093.05007
      2083.804  
  22368812.978   119700044.49807      2950.391    22368817.118    93100055.35507
      2294.745  
  20107761.667   107487533.14909      1859.812    20107766.036    83601445.74808
      1446.519  
  20513664.313   109695781.22805     -1367.022    20513669.997    85318968.02808
     -1063.246  
 20 09 30 07 19  0.0000000  0 16G15G18G20G 8G21G27G24G10G13R 4R 3R13
                                R14R21R 5R20
  20947579.684   110080274.75049     -2238.527    20947579.422    85776837.38648
     -1744.313  
  21193198.520   111371002.56949     -2310.723    21193198.710    86782596.78148
     -1800.565  
  20133443.776   105801969.42649      1003.285    20133442.721    82443092.63348
       781.777  
  24686193.223   129726824.12647       629.340    24686196.235   101085850.54444
       490.391  
  25143554.502   132130275.65347      2867.078    25143554.062   102958652.57644
      2234.086  
  24073167.235   126505347.72247     -1212.656    24073169.403    98575601.89645
      -944.926  
  21205698.844   111436732.90549      2109.772    21205701.283    86833832.60447
      1643.979  
  22385436.230   117636285.89748      2730.722    22385438.384    91664656.88147
      2127.831  
  23391427.744   122922781.51848     -3392.254    23391427.643    95783987.60345
     -2643.320  
  19821971.070   106145757.78209     -1550.440    19821974.309    82557824.58108
     -1205.901  
  23387717.139   125196279.52307     -3472.538    23387721.557    97374900.32906
     -2700.867  
  21866905.762   116768065.51204     -1244.027    21866910.643    90819618.87505
      -967.578  
  21526477.504   114748256.07808      2675.800    21526484.010    89248680.56607
      2081.180  
  22366057.904   119685301.31708      2947.078    22366061.965    93088588.43907
      2292.172  
  20106022.866   107478238.35609      1858.078    20106027.244    83594216.45908
      1445.168  
  20514944.463   109702627.04605     -1371.262    20514950.200    85324292.55708
     -1066.534  
 20 09 30 07 19  5.0000000  0 16G15G18G20G 8G21G27G24G10G13R 4R 3R13
                                R14R21R 5R20
  20949710.429   110091471.80049     -2240.589    20949710.157    85785562.36248
     -1745.918  
  21195398.250   111382562.10349     -2313.332    21195398.424    86791604.21047
     -1802.602  
  20132490.197   105796958.30749      1000.776    20132489.145    82439187.86848
       779.827  
  24685595.841   129723684.79947       626.289    24685598.993   101083404.34444
       488.015  
  25140827.162   132115943.54247      2865.651    25140826.712   102947484.69344
      2232.875  
  24074322.341   126511417.78547     -1215.547    24074324.522    98580331.78845
      -947.188  
  21203692.828   111426191.18749      2106.777    21203695.269    86825618.28247
      1641.645  
  22382838.433   117622634.44749      2729.761    22382840.601    91654019.39347
      2127.086  
  23394655.612   122939743.92248     -3393.054    23394655.561    95797205.04245
     -2643.940  
  19823419.537   106153514.37909     -1552.413    19823422.799    82563857.49108
     -1207.437  
  23390960.670   125213642.39707     -3472.746    23390965.086    97388404.78006
     -2701.026  
  21868073.197   116774300.33004     -1250.042    21868078.247    90824468.17705
      -972.257  
  21523969.090   114734884.72608      2672.566    21523975.563    89238280.62607
      2078.660  
  22363305.752   119670574.25008      2943.647    22363309.846    93077134.05607
      2289.503  
  20104285.780   107468952.66809      1856.160    20104290.157    83586994.26008
      1443.679  
  20516228.887   109709495.03205     -1375.663    20516234.578    85329634.32408
     -1069.960  
 20 09 30 07 19 10.0000000  0 16G15G18G20G 8G21G27G24G10G13R 4R 3R13
                                R14R21R 5R20
  20951843.383   110102680.51649     -2242.827    20951843.104    85794296.42348
     -1747.664  
  21197600.835   111394136.73549     -2316.512    21197601.002    86800623.40147
     -1805.077  
  20131539.221   105791960.89549       998.214    20131538.178    82435293.78448
       777.827  
  24685001.694   129720562.72547       622.718    24685004.971   101080971.54945
       485.234  
  25138101.135   132101618.36047      2864.577    25138100.783   102936322.24844
      2232.144  
  24075480.610   126517504.43547     -1218.788    24075482.824    98585074.65445
      -949.707  
  21201689.959   111415666.04249      2103.339    21201692.387    86817416.87647
      1638.964  
  22380241.963   117608989.96948      2728.441    22380244.130    91643387.34347
      2126.058  
  23397884.579   122956711.91248     -3394.163    23397884.495    95810426.86445
     -2644.804  
  19824870.224   106161282.83409     -1554.734    19824873.479    82569899.61708
     -1209.242  
  23394204.770   125231008.47407     -3473.266    23394209.185    97401911.72706
     -2701.434  
  21869245.260   116780558.76604     -1254.445    21869250.265    90829335.84705
      -975.680  
  21521464.188   114721532.09208      2668.933    21521470.630    89227895.25307
      2075.836  
  22360557.139   119655865.80308      2940.015    22360561.238    93065694.16007
      2286.680  
  20102550.887   107459678.63909      1853.742    20102555.252    83579781.13208
      1441.801  
  20517517.888   109716387.55405     -1381.363    20517523.519    85334995.16208
     -1074.398  
 20 09 30 07 19 15.0000000  0 16G15G18G20G 8G21G27G24G10G13R 4R 3R13
                                R14R21R 5R20
  20953978.019   110113898.03949     -2244.742    20953977.715    85803037.35848
     -1749.147  
  21199805.743   111405723.63849     -2318.866    21199805.909    86809652.15747
     -1806.914  
  20130590.327   105786974.39149       995.906    20130589.284    82431408.19348
       776.027  
  24684410.339   129717455.04147       619.804    24684413.588   101078549.96644
       482.960  
  25135375.970   132087297.42846      2863.395    25135375.561   102925163.04444
      2231.206  
  24076641.461   126523604.87447     -1221.847    24076643.716    98589828.21845
      -952.093  
  21199689.737   111405154.86749      2100.430    21199692.171    86809226.35747
      1636.699  
  22377646.285   117595349.65048      2727.211    22377648.463    91632758.52047
      2125.098  
  23401114.046   122973682.65848     -3394.766    23401113.919    95823650.81545
     -2645.276  
  19826322.602   106169060.19009     -1556.582    19826325.823    82575948.67208
     -1210.679  
  23397449.013   125248375.03907     -3473.988    23397453.374    97415419.05306
     -2701.995  
  21870421.376   116786837.88204     -1258.163    21870426.141    90834219.60205
      -978.573  
  21518962.224   114708195.27908      2665.535    21518968.695    89217522.18307
      2073.194  
  22357811.447   119641173.20708      2936.586    22357815.577    93054266.59407
      2284.011  
  20100817.614   107450413.23909      1851.813    20100821.953    83572574.71208
      1440.296  
  20518810.880   109723301.60605     -1385.479    20518816.511    85340372.75608
     -1077.613  
 20 09 30 07 19 20.0000000  0 16G15G18G20G 8G21G27G24G10G13R 4R 3R13
                                R14R21R 5R20
  20956114.687   110125126.27849     -2246.901    20956114.368    85811786.62948
     -1750.836  
  21202013.350   111417324.72149     -2321.960    21202013.527    86818691.95347
     -1809.324  
  20129643.879   105782000.74349       993.167    20129642.831    82427532.62348
       773.897  
  24683822.107   129714363.70147       616.605    24683825.242   101076141.13044
       480.472  
  25132651.937   132072982.53646      2862.230    25132651.676   102914008.59744
      2230.305  
  24077805.345   126529720.93647     -1224.820    24077807.609    98594593.97945
      -954.409  
  21197692.531   111394659.47548      2097.269    21197694.943    86801048.13447
      1634.234  
  22375051.767   117581715.39548      2725.983    22375053.946    91622134.43747
      2124.145  
  23404344.412   122990658.06848     -3395.897    23404344.269    95836878.40245
     -2646.160  
  19827776.986   106176848.44409     -1559.104    19827780.194    82582006.20108
     -1212.641  
  23400693.719   125265743.89107     -3474.238    23400697.974    97428928.14906
     -2702.187  
  21871601.505   116793139.70504     -1262.898    21871606.254    90839121.01405
      -982.257  
  21516463.619   114694876.24508      2661.773    21516470.086    89207162.93907
      2070.269  
  22355069.146   119626498.37908      2932.808    22355073.212    93042852.83707
      2281.074  
  20099086.322   107441158.48909      1849.729    20099090.632    83565376.57608
      1438.676  
  20520108.208   109730239.34905     -1390.488    20520113.926    85345768.77608
     -1081.495  
 20 09 30 07 19 25.0000000  0 16G15G18G20G 8G21G27G24G10G13R 4R 3R13
                                R14R21R 5R20
  20958253.254   110136364.48849     -2248.699    20958252.928    85820543.67548
     -1752.238  
  21204223.510   111428939.22148     -2324.324    21204223.693    86827742.21447
     -1811.163  
  20128699.751   105777039.21949       990.828    20128698.677    82423666.50248
       772.074  
  24683236.829   129711288.01846       613.386    24683239.836   101073744.48944
       477.961  
  25129928.882   132058673.03446      2861.042    25129928.554   102902858.33844
      2229.378  
  24078972.066   126535852.03747     -1227.894    24078974.335    98599371.43445
      -956.805  
  21195698.187   111384179.15848      2094.327    21195700.607    86792881.66147
      1631.945  
  22372458.279   117568086.49248      2724.999    22372460.445    91611514.51447
      2123.375  
  23407575.496   123007637.34047     -3396.543    23407575.353    95850108.99345
     -2646.659  
  19829233.265   106184646.72509     -1560.835    19829236.460    82588071.53008
     -1213.988  
  23403938.713   125283114.41207     -3474.430    23403942.962    97442438.54906
     -2702.340  
  21872785.751   116799463.54404     -1266.457    21872790.521    90844039.55605
      -985.027  
  21513968.193   114681574.31508      2658.457    21513974.687    89196816.99707
      2067.687  
  22352329.984   119611840.60308      2929.581    22352334.049    93031452.34607
      2278.562  
  20097356.892   107431913.69408      1847.918    20097361.201    83558186.17908
      1437.270  
  20521409.866   109737199.80405     -1395.258    20521415.597    85351182.46508
     -1085.202  
 20 09 30 07 19 30.0000000  0 16G15G18G20G 8G21G27G24G10G13R 4R 3R13
                                R14R21R 5R20
  20960393.782   110147613.01249     -2250.550    20960393.458    85829308.75648
     -1753.679  
  21206436.309   111440567.52949     -2326.652    21206436.477    86836803.22647
     -1812.980  
  20127757.980   105772090.21149       988.715    20127756.904    82419810.13248
       770.425  
  24682654.553   129708228.28947       610.742    24682657.619   101071360.31744
       475.902  
  25127206.987   132044369.25646      2860.531    25127206.592   102891712.57644
      2228.984  
  24080141.699   126541998.37547     -1230.464    24080143.965    98604160.80946
      -958.805  
  21193706.819   111373714.38648      2091.675    21193709.197    86784727.29647
      1629.879  
  22369865.859   117554463.29848      2724.438    22369868.047    91600899.04547
      2122.937  
  23410807.397   123024620.90548     -3396.831    23410807.271    95863342.93945
     -2646.887  
  19830691.528   106192455.59409     -1562.469    19830694.703    82594145.09108
     -1215.258  
  23407184.024   125300486.90906     -3474.292    23407188.297    97455950.48906
     -2702.230  
  21873974.157   116805809.75204     -1271.559    21873978.992    90848975.49605
      -988.992  
  21511476.085   114668289.81908      2655.457    21511482.535    89186484.61807
      2065.355  
  22349594.114   119597200.28308      2926.723    22349598.158    93020065.44007
      2276.340  
  20095629.360   107422679.07609      1846.133    20095633.669    83551003.70608
      1435.882  
  20522715.866   109744183.50905     -1398.800    20522721.614    85356614.23108
     -1088.066  
 20 09 30 07 19 35.0000000  0 16G15G18G20G 8G21G27G24G10G13R 4R 3R13
                                R14R21R 5R20
  20962535.995   110158870.44549     -2252.327    20962535.684    85838080.78048
     -1755.065  
  21208651.456   111452208.23849     -2329.383    21208651.629    86845873.90147
     -1815.105  
  20126818.352   105767152.30949       986.503    20126817.261    82415962.41748
       768.698  
  24682075.094   129705183.15047       607.719    24682078.183   101068987.46645
       473.542  
  25124485.903   132030069.89547      2859.258    25124485.544   102880570.21744
      2228.030  
  24081314.003   126548158.59347     -1233.437    24081316.172    98608960.95845
      -961.124  
  21191718.105   111363263.65848      2088.676    21191720.482    86776583.87347
      1627.539  
  22367274.277   117540844.44248      2723.395    22367276.448    91590286.94647
      2122.121  
  23414039.859   123041607.35948     -3397.577    23414039.715    95876579.13245
     -2647.468  
  19832151.482   106200273.48809     -1564.473    19832154.647    82600225.67408
     -1216.815  
  23410429.527   125317860.06007     -3475.223    23410433.755    97469462.93706
     -2702.952  
  21875166.570   116812176.82704     -1275.504    21875171.361    90853927.65805
      -992.062  
  21508986.996   114655021.42008      2652.023    21508993.389    89176164.75807
      2062.683  
  22346861.187   119582575.96708      2923.199    22346865.224    93008690.97107
      2273.597  
  20093903.512   107413453.49308      1844.229    20093907.833    83543828.25108
      1434.398  
  20524025.915   109751188.93105     -1403.218    20524031.685    85362062.88808
     -1091.395  
 20 09 30 07 19 40.0000000  0 16G15G18G20G 8G21G27G24G10G13R 4R 3R13
                                R14R21R 5R20
  20964680.046   110170137.54349     -2254.250    20964679.733    85846860.33348
     -1756.562  
  21210869.103   111463862.05149     -2331.949    21210869.275    86854954.79247
     -1817.104  
  20125880.948   105762226.24949       984.207    20125879.856    82412123.93248
       766.914  
  24681498.525   129702153.25947       604.464    24681501.637   101066626.51345
       471.011  
  25121765.756   132015775.58047      2858.609    25121765.417   102869431.74944
      2227.483  
  24082489.027   126554333.47547     -1236.495    24082491.249    98613772.54645
      -963.507  
  21189732.231   111352827.81948      2085.691    21189734.595    86768452.05848
      1625.215  
  22364683.652   117527230.68048      2722.344    22364685.838    91579678.83047
      2121.309  
  23417273.013   123058597.38548     -3398.358    23417272.875    95889818.10245
     -2648.073  
  19833613.272   106208101.27609     -1566.531    19833616.431    82606313.95308
     -1218.414  
  23413675.283   125335234.43707     -3474.663    23413679.449    97482976.33906
     -2702.519  
  21876362.957   116818565.37504     -1279.327    21876367.747    90858896.53205
      -995.034  
  21506501.053   114641769.82008      2648.715    21506507.410    89165857.96807
      2060.113  
  22344131.499   119567968.51108      2919.761    22344135.405    92997329.61707
      2270.922  
  20092179.458   107404237.47009      1842.301    20092183.786    83536660.23808
      1432.901  
  20525340.042   109758216.84805     -1407.879    20525345.963    85367529.04408
     -1095.019  
 20 09 30 07 19 45.0000000  0 16G15G18G20G 8G21G27G24G10G13R 4R 3R13
                                R14R21R 5R20
  20966825.935   110181414.23349     -2256.703    20966825.616    85855647.36648
     -1758.472  
  21213089.223   111475528.95149     -2335.020    21213089.405    86864045.88247
     -1819.500  
  20124945.815   105757312.02949       981.340    20124944.703    82408294.67048
       764.679  
  24680924.903   129699138.76247       601.077    24680928.129   101064277.56244
       468.366  
  25119046.627   132001486.40047      2856.875    25119046.305   102858297.37844
      2226.141  
  24083666.860   126560522.93847     -1239.535    24083669.046    98618595.52245
      -965.870  
  21187749.171   111342406.73648      2082.433    21187751.522    86760331.73847
      1622.675  
  22362094.000   117513621.96348      2720.785    22362096.195    91569074.64547
      2120.093  
  23420506.816   123075590.94748     -3399.472    23420506.627    95903059.83945
     -2648.944  
  19835076.908   106215938.85509     -1568.832    19835080.051    82612409.84908
     -1220.207  
  23416921.228   125352610.07907     -3475.590    23416925.364    97496490.72506
     -2703.242  
  21877563.441   116824975.60804     -1284.827    21877568.192    90863882.26705
      -999.315  
  21504018.226   114628535.05008      2644.827    21504024.570    89155564.25807
      2057.090  
  22341404.919   119553377.71608      2915.972    22341408.790    92985981.23007
      2267.980  
  20090457.202   107395031.14609      1839.983    20090461.539    83529499.77008
      1431.098  
  20526658.491   109765267.21905     -1412.312    20526664.440    85373012.66608
     -1098.465  
 20 09 30 07 19 50.0000000  0 16G15G18G20G 8G21G27G24G10G13R 4R 3R13
                                R14R21R 5R20
  20968973.874   110192701.72849     -2258.324    20968973.554    85864442.81548
     -1759.738  
  21215312.069   111487210.08749     -2337.362    21215312.241    86873148.05747
     -1821.324  
  20124013.145   105752410.81749       979.172    20124012.034    82404475.54448
       762.987  
  24680354.426   129696140.66847       598.242    24680357.453   101061941.36344
       466.156  
  25116328.653   131987203.37847      2855.813    25116328.400   102847167.76143
      2225.312  
  24084847.695   126566728.14147     -1242.515    24084849.835    98623430.75145
      -968.195  
  21185769.153   111332001.73448      2079.566    21185771.508    86752223.94347
      1620.440  
  22359505.529   117500019.49148      2720.081    22359507.723    91558475.31347
      2119.542  
  23423741.508   123092589.24448     -3399.937    23423741.281    95916305.26745
     -2649.304  
  19836542.552   106223787.34009     -1570.605    19836545.708    82618514.22508
     -1221.586  
  23420167.575   125369988.18607     -3475.784    23420171.746    97510007.01906
     -2703.316  
  21878768.199   116831408.72904     -1288.336    21878772.887    90868885.80505
     -1002.043  
  21501538.810   114615318.33208      2641.737    21501545.119    89145284.59307
      2054.683  
  22338681.665   119538805.00108      2912.996    22338685.539    92974646.90107
      2265.660  
  20088736.972   107385835.53309      1838.151    20088741.303    83522347.62908
      1429.676  
  20527981.394   109772341.27905     -1416.938    20527987.347    85378514.71208
     -1102.066  
 20 09 30 07 19 55.0000000  0 16G15G18G20G 8G21G27G24G10G13R 4R 3R13
                                R14R21R 5R20
  20971123.533   110203998.32649     -2260.546    20971123.232    85873245.35548
     -1761.469  
  21217537.301   111498903.75949     -2340.198    21217537.479    86882260.00347
     -1823.534  
  20123082.625   105747520.90249       976.562    20123081.507    82400665.22448
       760.957  
  24679786.731   129693157.37647       594.698    24679789.609   101059616.73245
       463.402  
  25113611.487   131972924.89147      2855.116    25113611.360   102836041.65744
      2224.765  
  24086031.154   126572947.38747     -1245.113    24086033.248    98628276.90945
      -970.222  
  21183791.816   111321610.78848      2076.565    21183794.186    86744127.11148
      1618.104  
  22356917.921   117486421.54948      2718.871    22356920.113    91547879.51547
      2118.602  
  23426976.745   123109590.52748     -3400.793    23426976.500    95929553.01045
     -2649.973  
  19838009.953   106231645.11509     -1572.604    19838013.100    82624625.83108
     -1223.140  
  23423414.163   125387366.95907     -3476.090    23423418.246    97523523.84206
     -2703.629  
  21879977.015   116837862.86504     -1292.852    21879981.509    90873905.68905
     -1005.551  
  21499062.437   114602117.83908      2638.273    21499068.726    89135017.54807
      2051.992  
  22335961.507   119524248.63608      2909.401    22335965.313    92963325.29007
      2262.866  
  20087018.421   107376648.98808      1836.073    20087022.763    83515202.54108
      1428.054  
  20529308.402   109779437.32905     -1420.898    20529314.359    85384033.85808
     -1105.148  
 20 09 30 07 20  0.0000000  0 16G15G18G20G 8G21G27G24G10G13R 4R 3R13
                                R14R21R 5R20
  20973275.512   110215307.02049     -2262.808    20973275.198    85882057.32748
     -1763.226  
  21219765.502   111510613.03348     -2343.230    21219765.686    86891384.10847
     -1825.897  
  20122154.839   105742645.38149       973.929    20122153.718    82396866.11448
       758.902  
  24679222.430   129690191.89246       591.366    24679225.356   101057305.95945
       460.800  
  25110895.872   131958654.14146      2853.351    25110895.666   102824921.59544
      2223.367  
  24087217.912   126579183.77747     -1248.800    24087220.040    98633136.43645
      -973.089  
  21181817.840   111311237.41248      2073.098    21181820.207    86736043.96448
      1615.401  
  22354331.772   117472831.24748      2717.460    22354333.943    91537289.67647
      2117.504  
  23430213.139   123126597.89548     -3401.914    23430212.950    95942805.48445
     -2650.848  
  19839479.676   106239515.32009     -1575.019    19839482.819    82630747.09708
     -1225.019  
  23426661.497   125404749.62707     -3476.559    23426665.489    97537043.69006
     -2703.991  
  21881190.113   116844341.33604     -1297.741    21881194.740    90878944.49405
     -1009.359  
  21496589.709   114588936.90408      2634.242    21496596.017    89124765.71507
      2048.854  
  22333244.952   119509711.65008      2905.632    22333248.716    92952018.75007
      2259.937  
  20085302.150   107367474.65909      1833.886    20085306.514    83508066.95108
      1426.351  
  20530639.950   109786558.24505     -1427.097    20530646.021    85389572.34708
     -1109.969  
 20 09 30 07 20  5.0000000  0 16G15G18G20G 8G21G27G24G10G13R 4R 3R13
                                R14R21R 5R20
  20975429.294   110226625.25049     -2264.608    20975428.992    85890876.72148
     -1764.632  
  21221996.178   111522335.31549     -2345.718    21221996.331    86900518.35147
     -1827.835  
  20121229.296   105737781.65349       971.613    20121228.182    82393076.19948
       757.097  
  24678661.073   129687241.75446       588.323    24678663.933   101055007.15245
       458.433  
  25108181.195   131944388.45246      2852.538    25108181.078   102813805.49543
      2222.757  
  24088407.402   126585434.65447     -1251.390    24088409.601    98638007.23945
      -975.113  
  21179846.648   111300878.69748      2070.422    21179849.010    86727972.24347
      1613.315  
  22351746.571   117459245.98448      2716.445    22351748.724    91526703.76048
      2116.710  
  23433450.215   123143608.74848     -3402.414    23433450.101    95956060.69845
     -2651.233  
  19840951.169   106247395.12909     -1576.956    19840954.334    82636875.84008
     -1226.522  
  23429909.008   125422133.55907     -3476.929    23429912.974    97550564.52006
     -2704.281  
  21882407.260   116850841.24204     -1302.608    21882411.979    90883999.97805
     -1013.144  
  21494120.146   114575772.77308      2631.172    21494126.454    89114526.95107
      2046.469  
  22330531.455   119495191.42708      2902.374    22330535.228    92940725.24507
      2257.397  
  20083587.690   107358309.92009      1832.066    20083592.046    83500938.82308
      1424.938  
  20531975.583   109793701.56605     -1431.078    20531981.865    85395128.26408
     -1113.065  
 20 09 30 07 20 10.0000000  0 16G15G18G20G 8G21G27G24G10G13R 4R 3R13
                                R14R21R 5R20
  20977584.774   110237952.37849     -2265.917    20977584.457    85899703.05548
     -1765.648  
  21224229.204   111534069.94748     -2347.780    21224229.356    86909662.21647
     -1829.444  
  20120305.880   105732929.10249       969.690    20120304.780    82389294.99148
       755.604  
  24678102.471   129684306.22247       586.245    24678105.387   101052719.71645
       456.813  
  25105467.360   131930127.27646      2851.671    25105467.157   102802692.88245
      2222.082  
  24089599.540   126591699.38347     -1253.621    24089601.823    98642888.84746
      -976.847  
  21177878.162   111290534.26448      2067.851    21177880.523    86719911.64947
      1611.312  
  22349162.222   117445665.13648      2716.151    22349164.367    91516121.28348
      2116.480  
  23436687.813   123160622.44148     -3402.491    23436687.646    95969318.12546
     -2651.296  
  19842424.384   106255284.09909     -1578.309    19842427.557    82643011.70108
     -1227.574  
  23433156.511   125439517.97507     -3476.698    23433160.543    97564085.72906
     -2704.102  
  21883628.216   116857362.01404     -1306.480    21883633.086    90889071.68505
     -1016.156  
  21491653.651   114562624.90408      2628.398    21491659.949    89104300.83807
      2044.308  
  22327821.008   119480687.46708      2899.581    22327824.801    92929444.38607
      2255.229  
  20081874.864   107349154.10209      1830.671    20081879.261    83493817.63208
      1423.851  
  20533315.469   109800866.57005     -1435.292    20533321.772    85400701.04308
     -1116.344  
 20 09 30 07 20 15.0000000  0 16G15G18G20G 8G21G27G24G10G13R 4R 3R13
                                R14R21R 5R20
  20979741.919   110249288.21649     -2268.254    20979741.604    85908536.17848
     -1767.468  
  21226464.557   111545816.77649     -2350.729    21226464.680    86918815.58747
     -1831.741  
  20119384.566   105728087.59449       967.078    20119383.465    82385522.39048
       753.565  
  24677546.668   129681385.17647       582.663    24677549.618   101050443.59245
       454.022  
  25102754.321   131915870.41046      2851.086    25102754.199   102791583.64645
      2221.625  
  24090794.252   126597977.85447     -1257.058    24090796.555    98647781.16545
      -979.527  
  21175912.380   111280203.88749      2064.512    21175914.727    86711862.01148
      1608.711  
  22346578.667   117432088.55949      2714.769    22346580.825    91505542.14047
      2115.406  
  23439925.940   123177638.79048     -3403.495    23439925.754    95982577.60245
     -2652.077  
  19843899.261   106263181.93309     -1580.531    19843902.430    82649154.46308
     -1229.304  
  23436404.086   125456902.87707     -3477.108    23436408.180    97577607.31505
     -2704.421  
  21884853.225   116863903.49504     -1310.589    21884858.112    90894159.51105
     -1019.347  
  21489190.188   114549493.04308      2624.684    21489196.432    89094087.17707
      2041.421  
  22325113.572   119466199.58608      2895.797    22325117.420    92918176.04507
      2252.285  
  20080163.708   107340007.02309      1828.483    20080168.105    83486703.24308
      1422.156  
  20534659.390   109808053.21305     -1439.722    20534665.717    85406290.65008
     -1119.788  
 20 09 30 07 20 20.0000000  0 16G15G18G20G 8G21G27G24G10G13R 4R 3R13
                                R14R21R 5R20
  20981900.946   110260633.98349     -2270.550    20981900.623    85917377.03348
     -1769.261  
  21228702.442   111557577.00549     -2353.730    21228702.583    86927979.39347
     -1834.077  
  20118465.594   105723258.33549       964.257    20118464.502    82381759.33048
       751.367  
  24676993.788   129678479.83047       579.065    24676996.768   101048179.70345
       451.219  
  25100042.389   131901619.10946      2849.324    25100042.114   102780478.73645
      2220.253  
  24091991.873   126604271.20647     -1260.335    24091994.149    98652685.05044
      -982.086  
  21173949.498   111269888.83949      2061.070    21173951.840    86703824.31648
      1606.027  
  22343996.173   117418517.46248      2713.265    22343998.332    91494967.26547
      2114.233  
  23443164.776   123194659.02048     -3404.761    23443164.618    95995840.11845
     -2653.065  
  19845376.046   106271089.95909     -1582.934    19845379.206    82655305.15108
     -1231.171  
  23439652.062   125474289.39107     -3477.449    23439656.142    97591130.15606
     -2704.687  
  21886082.368   116870466.86204     -1315.602    21886087.243    90899264.35305
     -1023.246  
  21486729.918   114536378.54508      2620.812    21486736.186    89083887.01507
      2038.410  
  22322409.391   119451728.96807      2892.297    22322413.247    92906921.12307
      2249.559  
  20078454.411   107330869.97708      1826.027    20078458.846    83479596.65208
      1420.241  
  20536007.576   109815262.63405     -1444.773    20536013.915    85411897.97708
     -1123.715  
 20 09 30 07 20 25.0000000  0 16G15G18G20G 8G21G27G24G10G13R 4R 3R13
                                R14R21R 5R20
  20984062.151   110271991.15849     -2272.300    20984061.814    85926226.77948
     -1770.629  
  21230943.170   111569352.04749     -2356.425    21230943.277    86937154.75547
     -1836.179  
  20117549.212   105718442.74449       961.809    20117548.126    82378006.92448
       749.456  
  24676444.182   129675591.69847       575.847    24676447.199   101045929.18546
       448.707  
  25097331.755   131887374.76047      2848.340    25097331.560   102769379.25245
      2219.483  
  24093192.606   126610580.94847     -1263.355    24093194.823    98657601.73446
      -984.438  
  21171989.788   111259590.46349      2058.050    21171992.118    86695799.61448
      1603.675  
  22341414.979   117404953.29148      2712.270    22341417.157    91484397.78247
      2113.452  
  23446404.614   123211684.54348     -3405.397    23446404.384    96009106.76045
     -2653.562  
  19846854.979   106279009.54609     -1584.828    19846858.132    82661464.82708
     -1232.647  
  23442900.613   125491678.91807     -3477.745    23442904.647    97604655.32606
     -2704.922  
  21887315.739   116877053.52404     -1319.676    21887320.712    90904387.31005
     -1026.418  
  21484273.193   114523282.85108      2617.495    21484279.475    89073701.47507
      2035.831  
  22319708.723   119437277.11508      2888.582    22319712.559    92895680.79807
      2246.675  
  20076747.275   107321744.41908      1824.210    20076751.737    83472498.99708
      1418.831  
  20537360.271   109822496.29005     -1448.781    20537366.637    85417524.15108
     -1126.832  
 20 09 30 07 20 30.0000000  0 16G15G18G20G 8G21G27G24G10G13R 4R 3R13
                                R14R21R 5R20
  20986225.164   110283357.87149     -2274.164    20986224.827    85935083.95448
     -1772.078  
  21233186.378   111581140.09249     -2358.898    21233186.473    86946340.23647
     -1838.104  
  20116635.096   105713639.03049       959.559    20116634.024    82374263.76648
       747.703  
  24675897.490   129672718.78147       572.973    24675900.433   101043690.54945
       446.468  
  25094622.128   131873135.66347      2847.671    25094622.126   102758283.85544
      2218.964  
  24094396.063   126616905.12347     -1265.870    24094398.267    98662529.66946
      -986.398  
  21170032.909   111249306.90349      2055.284    21170035.237    86687786.45248
      1601.519  
  22338834.810   117391394.44148      2711.465    22338836.995    91473832.45047
      2112.827  
  23449645.112   123228713.54047     -3406.144    23449644.930    96022376.09945
     -2654.141  
  19848335.734   106286938.85609     -1586.809    19848338.882    82667632.06608
     -1234.188  
  23446149.396   125509069.71907     -3478.043    23446153.402    97618181.50206
     -2705.147  
  21888553.181   116883661.61404     -1323.691    21888558.185    90909526.92305
     -1029.543  
  21481819.635   114510204.13108      2614.289    21481825.941    89063529.14207
      2033.336  
  22317011.212   119422842.24808      2885.395    22317015.052    92884453.68007
      2244.195  
  20075041.973   107312628.47509      1822.284    20075046.412    83465408.82108
      1417.331  
  20538717.248   109829752.28105     -1453.266    20538723.542    85423167.69508
     -1130.319  
 20 09 30 07 20 35.0000000  0 16G15G18G20G 8G21G27G24G10G13R 4R 3R13
                                R14R21R 5R20
  20988389.867   110294733.43149     -2276.198    20988389.524    85943948.02648
     -1773.664  
  21235431.919   111592940.45749     -2361.387    21235431.992    86955535.32547
     -1840.047  
  20115723.108   105708846.53449       957.097    20115722.043    82370529.35648
       745.788  
  24675353.602   129669860.66247       569.690    24675356.504   101041463.43845
       443.910  
  25091913.416   131858901.07146      2846.315    25091913.357   102747191.96343
      2217.906  
  24095602.146   126623243.19547     -1269.391    24095604.384    98667468.42346
      -989.137  
  21168078.731   111239037.59749      2052.211    21168081.025    86679784.40348
      1599.124  
  22336255.461   117377839.86948      2710.215    22336257.639    91463270.45048
      2111.855  
  23452886.162   123245745.30947     -3406.749    23452885.923    96035647.60944
     -2654.613  
  19849818.198   106294877.25909     -1588.754    19849821.330    82673806.37808
     -1235.707  
  23449398.204   125526461.15506     -3478.594    23449402.290    97631708.17206
     -2705.577  
  21889794.545   116890290.65004     -1327.694    21889799.592    90914682.84605
     -1032.655  
  21479369.188   114497141.80708      2610.726    21479375.491    89053369.56107
      2030.566  
  22314316.744   119408423.57808      2882.030    22314320.604    92873239.16907
      2241.577  
  20073338.331   107303521.53509      1820.347    20073342.764    83458325.64908
      1415.824  
  20540078.153   109837029.93305     -1457.879    20540084.491    85428828.08708
     -1133.909  
 20 09 30 07 20 40.0000000  0 16G15G18G20G 8G21G27G24G10G13R 4R 3R13
                                R14R21R 5R20
  20990556.538   110306119.39449     -2278.155    20990556.207    85952820.20248
     -1775.190  
  21237680.089   111604754.66749     -2364.089    21237680.176    86964741.19747
     -1842.151  
  20114813.553   105704066.79049       954.844    20114812.488    82366804.88148
       744.035  
  24674812.774   129667018.58847       566.848    24674815.688   101039248.85645
       441.699  
  25089205.830   131844672.54547      2845.249    25089205.714   102736104.83444
      2217.077  
  24096811.175   126629596.62547     -1272.128    24096813.428    98672419.13245
      -991.273  
  21166127.561   111228784.15749      2049.109    21166129.838    86671794.71248
      1596.706  
  22333677.232   117364291.28149      2709.108    22333679.413    91452713.11047
      2110.995  
  23456128.008   123262781.41947     -3407.534    23456127.751    96048922.47845
     -2655.223  
  19851302.636   106302826.32509     -1590.805    19851305.754    82679988.98408
     -1237.272  
  23452647.444   125543854.55905     -3478.784    23452651.545    97645236.36706
     -2705.726  
  21891040.030   116896942.09404     -1333.406    21891045.200    90919856.18605
     -1037.098  
  21476922.039   114484097.31008      2607.276    21476928.379    89043223.84907
      2027.883  
  22311625.635   119394022.87608      2878.534    22311629.488    92862038.62407
      2238.859  
  20071636.651   107294425.11009      1818.390    20071641.090    83451250.65208
      1414.305  
  20541443.495   109844330.93705     -1462.433    20541449.823    85434506.64508
     -1137.453  
 20 09 30 07 20 45.0000000  0 16G15G18G20G 8G21G27G24G10G13R 4R 3R13
                                R14R21R 5R20
  20992725.194   110317515.69649     -2280.401    20992724.851    85961700.43648
     -1776.940  
  21239930.883   111616582.70549     -2367.066    21239930.975    86973957.84547
     -1844.472  
  20113906.429   105699299.82049       951.988    20113905.357    82363090.36048
       741.809  
  24674275.017   129664192.75047       563.578    24674278.087   101037046.91044
       438.977  
  25086499.431   131830450.07147      2843.656    25086499.254   102725022.36644
      2215.831  
  24098023.096   126635965.40547     -1275.394    24098025.409    98677381.83646
      -993.812  
  21164179.401   111218546.47849      2045.906    21164181.674    86663817.30547
      1594.211  
  22331100.164   117350748.69848      2707.933    22331102.346    91442160.45347
      2110.077  
  23459370.686   123279821.96047     -3408.668    23459370.468    96062200.83045
     -2656.109  
  19852789.051   106310786.01309     -1593.284    19852792.162    82686179.85208
     -1239.227  
  23455897.146   125561250.09806     -3479.257    23455901.198    97658766.22406
     -2706.093  
  21892289.824   116903615.89404     -1337.633    21892294.966    90925046.92205
     -1040.387  
  21474478.260   114471070.71908      2603.398    21474484.632    89033092.05907
      2024.867  
  22308937.834   119379640.03508      2874.495    22308941.689    92850851.97107
      2235.714  
  20069936.944   107285339.20109      1816.063    20069941.383    83444183.83408
      1412.487  
  20542813.019   109851655.01805     -1467.237    20542819.448    85440203.15008
     -1141.187  
 20 09 30 07 20 50.0000000  0 16G15G18G20G 8G21G27G24G10G13R 4R 3R13
                                R14R21R 5R20
  20994895.584   110328921.17349     -2281.809    20994895.249    85970587.82048
     -1778.030  
  21242184.075   111628423.36849     -2369.147    21242184.170    86983184.33347
     -1846.094  
  20113001.492   105694544.40849       950.168    20113000.431    82359384.84148
       740.386  
  24673740.184   129661381.99947       560.992    24673743.194   101034856.70544
       437.132  
  25083793.901   131816232.45147      2843.270    25083793.774   102713943.71944
      2215.530  
  24099237.715   126642348.29947     -1277.749    24099240.012    98682355.49245
      -995.651  
  21162234.036   111208323.42549      2043.375    21162236.284    86655851.29147
      1592.241  
  22328524.005   117337210.92149      2707.531    22328526.193    91431611.53547
      2109.766  
  23462613.938   123296865.55347     -3408.730    23462613.698    96075481.53644
     -2656.155  
  19854277.216   106318755.06809     -1594.331    19854280.327    82692378.00508
     -1240.038  
  23459146.881   125578646.52707     -3478.855    23459151.027    97672296.77606
     -2705.780  
  21893543.495   116910310.79904     -1340.633    21893548.705    90930254.06305
     -1042.719  
  21472037.651   114458060.83508      2600.617    21472044.004    89022973.26507
      2022.703  
  22306253.128   119365273.78708      2871.914    22306257.027    92839678.22507
      2233.711  
  20068238.985   107276262.57809      1814.707    20068243.399    83437124.24408
      1411.438  
  20544186.799   109859001.14405     -1470.723    20544193.194    85445916.79908
     -1143.898  
 20 09 30 07 20 55.0000000  0 16G15G18G20G 8G21G27G24G10G13R 4R 3R13
                                R14R21R 5R20
  20997067.994   110340337.23249     -2284.148    20997067.628    85979483.44548
     -1779.859  
  21244439.945   111640278.07949     -2372.203    21244440.076    86992421.76547
     -1848.472  
  20112099.041   105689802.02949       947.155    20112097.988    82355689.48648
       738.042  
  24673208.417   129658587.63847       557.237    24673211.438   101032679.28245
       434.210  
  25081089.519   131802021.13547      2841.887    25081089.449   102702869.95944
      2214.452  
  24100455.283   126648746.75947     -1281.102    24100457.628    98687341.30145
      -998.266  
  21160291.681   111198116.28049      2039.977    21160293.922    86647897.67547
      1589.594  
  22325949.030   117323679.39648      2705.828    22325951.201    91421067.49747
      2108.438  
  23465858.069   123313913.64047     -3409.887    23465857.885    96088765.75244
     -2657.054  
  19855767.398   106326734.92609     -1597.020    19855770.516    82698584.56008
     -1242.128  
  23462397.100   125596045.23507     -3479.805    23462401.226    97685829.09106
     -2706.520  
  21894801.409   116917028.30604     -1345.354    21894806.684    90935478.78405
     -1046.391  
  21469600.415   114445069.09208      2596.516    21469606.801    89012868.57707
      2019.511  
  22303571.828   119350925.70208      2867.840    22303575.768    92828518.60707
      2230.542  
  20066543.015   107267196.70809      1812.183    20066547.441    83430073.01208
      1409.473  
  20545564.964   109866370.62605     -1476.741    20545571.310    85451648.61908
     -1148.578  
 20 09 30 07 21  0.0000000  0 16G15G18G20G 8G21G27G24G10G13R 4R 3R13
                                R14R21R 5R20
  20999242.391   110351763.70449     -2285.918    20999242.021    85988387.18848
     -1781.238  
  21246698.452   111652146.67649     -2374.695    21246698.587    87001670.02147
     -1850.414  
  20111199.056   105685072.50949       945.042    20111197.996    82352004.14148
       736.395  
  24672679.735   129655809.52147       554.266    24672682.710   101030514.51145
       431.890  
  25078386.360   131787816.06647      2840.679    25078386.327   102691801.09844
      2213.515  
  24101675.782   126655160.61747     -1284.058    24101678.182    98692339.11045
     -1000.569  
  21158352.398   111187925.21449      2037.022    21158354.614    86639956.59747
      1587.289  
  22323375.221   117310153.97148      2704.934    22323377.407    91410528.20947
      2107.742  
  23469103.004   123330966.10747     -3410.397    23469102.894    96102053.39444
     -2657.457  
  19857259.576   106334725.43909     -1598.711    19857262.681    82704799.40408
     -1243.445  
  23465647.745   125613446.19106     -3480.156    23465651.846    97699363.16106
     -2706.793  
  21896063.427   116923768.37904     -1349.331    21896068.906    90940721.06205
     -1049.484  
  21467166.579   114432095.40908      2593.375    21467172.981    89002777.94307
      2017.070  
  22300893.913   119336595.73608      2864.797    22300897.835    92817373.08407
      2228.176  
  20064849.047   107258141.48009      1810.354    20064853.466    83423030.05908
      1408.054  
  20546947.468   109873763.61805     -1480.160    20546953.812    85457398.71708
     -1151.237  
 20 09 30 07 21  5.0000000  0 16G15G18G20G 8G21G27G24G10G13R 4R 3R13
                                R14R21R 5R20
  21001418.465   110363199.10949     -2288.206    21001418.114    85997297.89448
     -1783.022  
  21248959.336   111664027.66849     -2377.543    21248959.462    87010927.92947
     -1852.636  
  20110301.213   105680354.34449       942.315    20110300.152    82348327.65148
       734.273  
  24672153.920   129653046.18747       551.019    24672156.868   101028361.24446
       429.362  
  25075684.057   131773615.61647      2839.418    25075684.069   102680735.80044
      2212.531  
  24102898.927   126661588.38147     -1286.952    24102901.308    98697347.76445
     -1002.824  
  21156415.856   111177748.52649      2033.715    21156418.055    86632026.70948
      1584.710  
  22320802.283   117296633.18548      2703.519    22320804.472    91399992.53548
      2106.637  
  23472348.470   123348021.39647     -3411.695    23472348.410    96115343.20844
     -2658.468  
  19858753.451   106342725.19909     -1600.957    19858756.579    82711021.43708
     -1245.190  
  23468898.520   125630847.71906     -3480.855    23468902.573    97712897.67206
     -2707.335  
  21897329.333   116930529.30604     -1354.410    21897335.032    90945979.55905
     -1053.434  
  21464735.840   114419138.23108      2589.516    21464742.234    88992700.14507
      2014.065  
  22298219.082   119322282.23608      2861.090    22298223.001    92806240.36407
      2225.292  
  20063156.794   107249095.32209      1808.136    20063161.195    83415994.16108
      1406.328  
  20548334.024   109881178.19005     -1485.883    20548340.375    85463165.60708
     -1155.690  
 20 09 30 07 21 10.0000000  0 16G15G18G20G 8G21G27G24G10G13R 4R 3R13
                                R14R21R 5R20
  21003596.359   110374644.02049     -2290.093    21003596.000    86006216.00448
     -1784.492  
  21251222.651   111675921.56149     -2380.254    21251222.770    87020195.88947
     -1854.745  
  20109405.651   105675648.10449       939.886    20109404.593    82344660.45448
       732.374  
  24671630.979   129650298.20747       547.711    24671634.016   101026219.97145
       426.785  
  25072982.764   131759420.41647      2838.667    25072982.706   102669674.61045
      2211.949  
  24104124.829   126668030.60447     -1290.257    24104127.274    98702367.67245
     -1005.395  
  21154482.154   111167586.72549      2030.617    21154484.331    86624108.43548
      1582.300  
  22318230.336   117283117.54348      2702.441    22318232.539    91389460.86647
      2105.796  
  23475594.596   123365080.08947     -3412.199    23475594.411    96128635.69844
     -2658.854  
  19860249.154   106350734.61809     -1603.034    19860252.273    82717250.98308
     -1246.805  
  23472149.464   125648250.46106     -3481.019    23472153.579    97726433.13006
     -2707.465  
  21898599.488   116937311.77204     -1358.344    21898605.147    90951254.80605
     -1056.492  
  21462308.298   114406198.16308      2585.901    21462314.710    88982635.64807
      2011.258  
  22295547.427   119307985.79808      2857.316    22295551.371    92795120.91507
      2222.351  
  20061466.359   107240058.78809      1806.140    20061470.718    83408965.74908
      1404.777  
  20549724.881   109888615.00705     -1489.171    20549731.083    85468949.80008
     -1158.246  
 20 09 30 07 21 15.0000000  0 16G15G18G20G 8G21G27G24G10G13R 4R 3R13
                                R14R21R 5R20
  21005776.197   110386099.11849     -2291.848    21005775.825    86015142.05348
     -1785.855  
  21253488.591   111687829.15949     -2382.772    21253488.718    87029474.53647
     -1856.710  
  20108512.499   105670954.56149       937.605    20108511.442    82341003.14948
       730.597  
  24671111.105   129647566.24947       544.819    24671114.234   101024091.17545
       424.534  
  25070282.656   131745231.31547      2837.086    25070282.684   102658618.18844
      2210.719  
  24105353.600   126674487.99247     -1292.616    24105356.123    98707399.41445
     -1007.234  
  21152551.456   111157440.80949      2027.688    21152553.621    86616202.52948
      1580.016  
  22315659.527   117269607.88249      2701.500    22315661.731    91378933.86847
      2105.066  
  23478841.533   123382143.07947     -3412.804    23478841.442    96141931.52744
     -2659.327  
  19861746.812   106358754.53809     -1604.828    19861749.930    82723488.70208
     -1248.198  
  23475400.808   125665655.16506     -3481.469    23475404.961    97739970.11706
     -2707.813  
  21899873.847   116944116.46704     -1362.648    21899879.411    90956547.35305
     -1059.836  
  21459884.139   114393276.05908      2582.769    21459890.544    88972585.13307
      2008.820  
  22292879.166   119293707.33108      2854.062    22292883.121    92784015.44507
      2219.828  
  20059777.854   107231032.76509      1804.273    20059782.207    83401945.51008
      1403.319  
  20551119.853   109896074.83105     -1494.441    20551126.099    85474751.88108
     -1162.347  
 20 09 30 07 21 20.0000000  0 16G15G18G20G 8G21G27G24G10G13R 4R 3R13
                                R14R21R 5R20
  21007957.837   110397563.74649     -2293.870    21007957.486    86024075.52848
     -1787.438  
  21255757.006   111699749.75949     -2385.491    21255757.146    87038763.30847
     -1858.828  
  20107621.643   105666273.07949       935.137    20107620.593    82337355.24148
       728.679  
  24670594.192   129644849.82047       541.867    24670597.350   101021974.46945
       422.229  
  25067583.609   131731047.60247      2835.859    25067583.479   102647565.96043
      2209.766  
  24106585.152   126680959.96747     -1295.699    24106587.651    98712442.50345
     -1009.641  
  21150623.624   111147309.92149      2024.555    21150625.762    86608308.33347
      1577.573  
  22313089.732   117256103.51749      2700.413    22313091.928    91368410.98847
      2104.218  
  23482089.122   123399209.49247     -3413.707    23482089.118    96155230.00145
     -2660.038  
  19863246.311   106366784.25809     -1606.991    19863249.415    82729734.03708
     -1249.862  
  23478652.459   125683061.25506     -3481.328    23478656.598    97753508.17106
     -2707.702  
  21901152.145   116950942.66004     -1367.354    21901157.699    90961856.60805
     -1063.503  
  21457463.198   114380371.17508      2579.254    21457469.614    88962548.00407
      2006.085  
  22290214.080   119279446.04108      2850.554    22290218.055    92772923.34507
      2217.097  
  20058091.177   107222016.47409      1802.125    20058095.524    83394932.84308
      1401.651  
  20552519.030   109903557.17205     -1498.531    20552525.333    85480571.47508
     -1165.527  
 20 09 30 07 21 25.0000000  0 16G15G18G20G 8G21G27G24G10G13R 4R 3R13
                                R14R21R 5R20
  21010141.185   110409037.31449     -2295.542    21010140.826    86033015.97248
     -1788.737  
  21258027.789   111711682.77449     -2387.925    21258027.915    87048061.75947
     -1860.726  
  20106732.961   105661603.05749       932.812    20106731.934    82333716.27048
       726.867  
  24670080.099   129642148.27947       538.819    24670083.282   101019869.38345
       419.859  
  25064885.452   131716868.68847      2834.866    25064885.207   102636517.45644
      2208.988  
  24107819.381   126687445.85547     -1298.566    24107821.874    98717496.44245
     -1011.875  
  21148698.533   111137193.49849      2021.804    21148700.680    86600425.41448
      1575.433  
  22310520.827   117242603.86149      2699.300    22310523.046    91357891.78147
      2103.351  
  23485337.246   123416278.75047     -3414.249    23485337.335    96168530.75044
     -2660.453  
  19864747.530   106374823.18909     -1608.632    19864750.622    82735986.54208
     -1251.160  
  23481904.131   125700467.96106     -3481.171    23481908.346    97767046.71806
     -2707.582  
  21902434.201   116957789.80004     -1371.422    21902439.942    90967182.16705
     -1066.664  
  21455045.365   114367482.95308      2575.983    21455051.826    88952523.84207
      2003.543  
  22287552.092   119265201.32808      2847.059    22287556.083    92761844.12807
      2214.379  
  20056406.210   107213009.42709      1800.348    20056410.564    83387927.37008
      1400.270  
  20553922.438   109911061.23205     -1502.675    20553928.638    85486407.96808
     -1168.750  
 20 09 30 07 21 30.0000000  0 16G15G18G20G 8G21G27G24G10G13R 4R 3R13
                                R14R21R 5R20
  21012326.259   110420519.92349     -2297.511    21012325.908    86041963.45748
     -1790.273  
  21260300.954   111723628.30549     -2390.383    21260301.073    87057369.95847
     -1862.640  
  20105846.493   105656944.60149       930.562    20105845.452    82330086.30248
       725.109  
  24669568.898   129639461.74347       535.753    24669572.073   101017776.00645
       417.469  
  25062188.251   131702694.67947      2834.113    25062187.995   102625472.79144
      2208.398  
  24109056.248   126693945.72947     -1301.425    24109058.848    98722561.26645
     -1014.102  
  21146776.256   111127091.83649      2018.769    21146778.384    86592553.99548
      1573.065  
  22307952.851   117229109.02449      2698.339    22307955.072    91347376.32647
      2102.602  
  23488585.964   123433350.97047     -3415.047    23488586.051    96181833.76045
     -2661.077  
  19866250.457   106382871.35609     -1610.645    19866253.568    82742246.22508
     -1252.726  
  23485156.016   125717875.52406     -3481.538    23485160.261    97780585.92406
     -2707.867  
  21903720.430   116964657.97004     -1376.026    21903726.126    90972524.06405
     -1070.245  
  21452630.747   114354611.58708      2572.531    21452637.183    88942512.77707
      2000.859  
  22284893.253   119250973.47108      2843.949    22284897.276    92750778.02107
      2211.961  
  20054722.981   107204011.60109      1798.449    20054727.320    83380929.06208
      1398.793  
  20555329.862   109918587.20505     -1507.703    20555336.041    85492261.50608
     -1172.660  
 20 09 30 07 21 35.0000000  0 16G15G18G20G 8G21G27G24G10G13R 4R 3R13
                                R14R21R 5R20
  21014513.461   110432013.81149     -2300.238    21014513.114    86050919.73148
     -1792.398  
  21262576.920   111735588.58849     -2393.742    21262577.031    87066689.66047
     -1865.258  
  20104962.654   105652299.96749       927.383    20104961.601    82326467.11448
       722.636  
  24669060.963   129636792.46247       532.140    24669064.178   101015696.00945
       414.651  
  25059492.370   131688527.85247      2832.425    25059492.121   102614433.70144
      2207.085  
  24110296.254   126700461.94047     -1304.980    24110298.892    98727638.82245
     -1016.871  
  21144857.190   111117007.04549      2015.039    21144859.298    86584695.72048
      1570.160  
  22305386.201   117215621.28549      2696.620    22305388.456    91336866.40347
      2101.262  
  23491835.680   123450428.43647     -3416.214    23491835.701    96195140.87744
     -2661.987  
  19867755.595   106390931.20909     -1613.429    19867758.681    82748515.00008
     -1254.890  
  23488408.410   125735286.18806     -3482.703    23488412.738    97794127.53906
     -2708.772  
  21905010.941   116971549.44504     -1380.979    21905016.673    90977884.10905
     -1074.097  
  21450219.656   114341759.27308      2568.491    21450226.101    88932516.54407
      1997.715  
  22282237.997   119236764.68908      2839.758    22282242.027    92739726.75107
      2208.699  
  20053041.926   107195025.36809      1795.816    20053046.259    83373939.77108
      1396.746  
  20556741.710   109926137.30305     -1511.586    20556747.954    85498133.80108
     -1175.683  
 20 09 30 07 21 40.0000000  0 16G15G18G20G 8G21G27G24G10G13R 4R 3R13
                                R14R21R 5R20
  21016702.649   110443518.03849     -2301.620    21016702.303    86059884.06348
     -1793.476  
  21264855.512   111747562.67049     -2396.008    21264855.621    87076020.10447
     -1867.023  
  20104081.252   105647668.19649       925.241    20104080.211    82322857.93748
       720.964  
  24668556.110   129634139.28647       529.190    24668559.356   101013628.59745
       412.351  
  25056797.701   131674367.23947      2832.039    25056797.388   102603399.43943
      2206.780  
  24111539.165   126706993.44947     -1307.632    24111541.876    98732728.29046
     -1018.940  
  21142941.181   111106938.25449      2012.343    21142943.256    86576849.91248
      1568.058  
  22302820.745   117202139.69149      2695.897    22302822.989    91326361.27247
      2100.699  
  23495086.186   123467510.12047     -3416.687    23495086.129    96208451.27345
     -2662.359  
  19869262.718   106399001.75209     -1614.843    19869265.805    82754792.08808
     -1255.987  
  23491661.299   125752698.93606     -3482.409    23491665.613    97807670.77506
     -2708.546  
  21906305.718   116978463.20504     -1385.116    21906311.418    90983261.46905
     -1077.316  
  21447811.989   114328925.17608      2565.358    21447818.458    88922534.47007
      1995.280  
  22279586.106   119222574.07608      2836.441    22279590.187    92728689.61007
      2206.121  
  20051362.843   107186049.73809      1794.465    20051367.167    83366958.72608
      1395.694  
  20558157.993   109933710.74505     -1517.108    20558164.233    85504024.25008
     -1179.977  
 20 09 30 07 21 45.0000000  0 16G15G18G20G 8G21G27G24G10G13R 4R 3R13
                                R14R21R 5R20
  21018893.504   110455031.03149     -2303.628    21018893.152    86068855.22448
     -1795.039  
  21267136.449   111759548.97949     -2398.698    21267136.509    87085360.08447
     -1869.117  
  20103202.004   105643047.75249       922.812    20103200.962    82319257.59148
       719.069  
  24668054.055   129631500.90447       526.047    24668057.312   101011572.71945
       409.902  
  25054103.923   131660211.31147      2830.375    25054103.552   102592368.84745
      2205.488  
  24112784.694   126713538.72047     -1310.608    24112787.402    98737828.51046
     -1021.257  
  21141027.894   111096883.86349      2009.391    21141029.963    86569015.32748
      1565.758  
  22300256.149   117188662.67949      2694.793    22300258.384    91315859.70747
      2099.839  
  23498337.233   123484594.48647     -3417.128    23498337.114    96221763.76544
     -2662.699  
  19870771.511   106407081.26909     -1616.937    19870774.582    82761076.15408
     -1257.620  
  23494914.222   125770112.15406     -3483.034    23494918.584    97821214.38106
     -2709.031  
  21907604.240   116985397.89604     -1389.688    21907610.099    90988655.11105
     -1080.870  
  21445407.444   114316107.62808      2561.679    21445413.905    88912565.27307
      1992.418  
  22276937.326   119208399.97708      2833.227    22276941.399    92717665.32507
      2203.621  
  20049685.462   107177083.17309      1792.332    20049689.771    83359984.73208
      1394.035  
  20559578.358   109941305.57205     -1521.695    20559584.503    85509931.33708
     -1183.542  
 20 09 30 07 21 50.0000000  0 16G15G18G20G 8G21G27G24G10G13R 4R 3R13
                                R14R21R 5R20
  21021086.354   110466554.56749     -2305.530    21021086.017    86077834.60648
     -1796.520  
  21269420.036   111771549.30949     -2401.273    21269420.096    87094710.98947
     -1871.125  
  20102325.266   105638440.46049       920.336    20102324.224    82315667.49548
       717.141  
  24667555.160   129628879.13247       522.652    24667558.250   101009529.79844
       407.262  
  25051411.395   131646061.88947      2829.328    25051410.993   102581343.36545
      2204.676  
  24114033.136   126720099.51347     -1313.300    24114035.790    98742940.82345
     -1023.351  
  21139117.699   111086845.72049      2006.211    21139119.762    86561193.40447
      1563.281  
  22297692.796   117175192.07149      2693.617    22297695.005    91305363.13147
      2098.922  
  23501589.150   123501683.42847     -3417.973    23501589.009    96235079.82544
     -2663.358  
  19872282.315   106415171.58809     -1619.163    19872285.385    82767368.62608
     -1259.355  
  23498167.639   125787527.78906     -3482.910    23498172.014    97834759.86506
     -2708.933  
  21908907.080   116992355.17604     -1393.453    21908912.983    90994066.33205
     -1083.800  
  21443006.338   114303308.54208      2558.145    21443012.823    88902610.43707
      1989.668  
  22274292.020   119194244.32108      2829.585    22274296.037    92706655.36307
      2200.785  
  20048010.100   107168127.46709      1790.191    20048014.408    83353019.19008
      1392.371  
  20561002.966   109948923.84105     -1526.465    20561009.173    85515856.65808
     -1187.254  
 20 09 30 07 21 55.0000000  0 16G15G18G20G 8G21G27G24G10G13R 4R 3R13
                                R14R21R 5R20
  21023280.841   110478086.67249     -2307.265    21023280.511    86086820.66048
     -1797.875  
  21271705.910   111783561.65749     -2403.555    21271705.968    87104071.25447
     -1872.901  
  20101450.647   105633844.33849       918.145    20101449.611    82312086.10348
       715.433  
  24667059.018   129626271.85647       520.050    24667061.943   101007498.12845
       405.229  
  25048719.703   131631917.01547      2828.676    25048719.251   102570321.37944
      2204.163  
  24115284.162   126726673.85747     -1316.340    24115286.841    98748063.66845
     -1025.722  
  21137210.187   111076821.76949      2003.354    21137212.260    86553382.53347
      1561.054  
  22295130.281   117161725.90149      2692.887    22295132.487    91294870.01547
      2098.352  
  23504841.549   123518774.86547     -3418.261    23504841.397    96248397.81144
     -2663.582  
  19873794.786   106423270.77109     -1620.608    19873797.850    82773667.98908
     -1260.477  
  23501420.999   125804943.75206     -3483.206    23501425.497    97848305.60506
     -2709.163  
  21910213.893   116999333.01404     -1397.555    21910219.698    90999493.53205
     -1086.991  
  21440608.364   114290525.92508      2554.956    21440614.822    88892668.40307
      1987.188  
  22271649.772   119180105.05508      2826.223    22271653.794    92695658.16507
      2198.172  
  20046336.417   107159180.63909      1788.563    20046340.704    83346060.54908
      1391.105  
  20562431.630   109956563.42605     -1530.215    20562437.820    85521798.55208
     -1190.171  
 20 09 30 07 22  0.0000000  0 16G15G18G20G 8G21G27G24G10G13R 4R 3R13
                                R14R21R 5R20
  21025476.843   110489626.74449     -2309.077    21025476.528    86095812.92248
     -1799.284  
  21273993.976   111795585.46749     -2406.116    21273994.030    87113440.45447
     -1874.901  
  20100578.040   105629258.82349       915.663    20100577.010    82308512.97548
       713.503  
  24666565.503   129623678.54347       516.695    24666568.444   101005477.36445
       402.620  
  25046028.812   131617776.12747      2827.397    25046028.328   102559302.49944
      2203.168  
  24116537.689   126733261.21647     -1318.987    24116540.379    98753196.66546
     -1027.785  
  21135305.301   111066811.53049      2000.358    21135307.360    86545582.35047
      1558.723  
  22292568.490   117148263.59849      2691.816    22292570.712    91284379.91447
      2097.516  
  23508094.352   123535868.27647     -3419.082    23508094.158    96261717.35444
     -2664.222  
  19875308.798   106431378.29609     -1622.578    19875311.873    82779973.84108
     -1262.008  
  23504674.413   125822359.50006     -3483.230    23504678.963    97861851.17806
     -2709.183  
  21911524.272   117006330.83204     -1402.391    21911530.150    91004936.28205
     -1090.753  
  21438213.309   114277759.21508      2551.414    21438219.821    88882738.74307
      1984.433  
  22269010.449   119165981.62608      2822.691    22269014.510    92684673.27907
      2195.425  
  20044664.274   107150242.17409      1786.741    20044668.573    83339108.41308
      1389.687  
  20563864.176   109964223.83105     -1534.069    20563870.370    85527756.64408
     -1193.167  
 20 09 30 07 22  5.0000000  0 16G15G18G20G 8G21G27G24G10G13R 4R 3R13
                                R14R21R 5R20
  21027675.179   110501179.10549     -2311.526    21027674.875    86104814.75448
     -1801.195  
  21276285.036   111807625.00149     -2409.401    21276285.084    87122821.90447
     -1877.456  
  20099708.272   105624688.18749       912.820    20099707.245    82304951.43648
       711.284  
  24666075.444   129621103.39347       513.433    24666078.541   101003470.76145
       400.073  
  25043339.479   131603643.49647      2825.918    25043338.949   102548290.06844
      2202.011  
  24117794.481   126739865.76747     -1322.289    24117797.166    98758343.06045
     -1030.358  
  21133403.810   111056819.15449      1996.800    21133405.875    86537796.08547
      1555.944  
  22290008.233   117134809.45149      2690.359    22290010.442    91273896.16047
      2096.379  
  23511348.317   123552967.91148     -3420.305    23511348.162    96275041.73944
     -2665.176  
  19876825.167   106439498.38409     -1624.964    19876828.234    82786289.46008
     -1263.867  
  23507928.622   125839779.37807     -3484.566    23507933.185    97875399.96006
     -2710.223  
  21912839.297   117013352.83804     -1407.042    21912845.125    91010397.84505
     -1094.370  
  21435822.072   114265012.70408      2547.355    21435828.600    88872824.79007
      1981.277  
  22266374.924   119151878.46507      2818.707    22266378.974    92673704.15307
      2192.323  
  20042994.474   107141316.29409      1784.133    20042998.787    83332166.06208
      1387.655  
  20565301.316   109971909.45905     -1539.245    20565307.612    85533734.34908
     -1197.194  
 20 09 30 07 22 10.0000000  0 16G15G18G20G 8G21G27G24G10G13R 4R 3R13
                                R14R21R 5R20
  21029875.399   110512741.30949     -2313.574    21029875.105    86113824.26748
     -1802.788  
  21278578.632   111819677.84049     -2412.000    21278578.685    87132213.72347
     -1879.484  
  20098840.888   105620130.05849       910.215    20098839.847    82301399.64948
       709.258  
  24665588.445   129618544.22746       510.265    24665591.541   101001476.61245
       397.609  
  25040651.240   131589516.67047      2824.659    25040650.635   102537282.15244
      2201.034  
  24119054.098   126746485.19247     -1325.792    24119056.776    98763501.04745
     -1033.090  
  21131505.301   111046842.48749      1993.734    21131507.364    86530022.06347
      1553.558  
  22287449.082   117121361.05749      2688.984    22287451.307    91263416.90147
      2095.313  
  23514603.026   123570071.30648     -3420.995    23514602.942    96288369.04845
     -2665.715  
  19878343.438   106447628.65509     -1627.289    19878346.505    82792613.00608
     -1265.667  
  23511182.994   125857200.82006     -3484.784    23511187.662    97888949.96006
     -2710.391  
  21914158.471   117020396.71704     -1410.870    21914164.210    91015876.41905
     -1097.347  
  21433434.179   114252284.01308      2543.835    21433440.717    88862924.70507
      1978.538  
  22263742.733   119137793.07607      2815.347    22263746.792    92662748.85607
      2189.714  
  20041326.613   107132400.58909      1782.102    20041330.914    83325231.63108
      1386.078  
  20566742.736   109979617.84705     -1544.289    20566749.126    85539729.76008
     -1201.117  
 20 09 30 07 22 15.0000000  0 16G15G18G20G 8G21G27G24G10G13R 4R 3R13
                                R14R21R 5R20
  21032077.439   110524313.17149     -2315.375    21032077.157    86122841.30048
     -1804.190  
  21280874.721   111831743.80449     -2414.507    21280874.753    87141615.77247
     -1881.437  
  20097975.858   105615584.26249       908.047    20097974.813    82297857.47648
       707.570  
  24665104.466   129616000.74547       507.441    24665107.622   100999494.69845
       395.410  
  25037964.087   131575395.59047      2823.749    25037963.549   102526278.70444
      2200.320  
  24120316.491   126753119.23547     -1328.105    24120319.174    98768670.45145
     -1034.886  
  21129609.704   111036881.18449      1990.828    21129611.776    86522260.00948
      1551.292  
  22284891.017   117107918.26949      2688.007    22284893.239    91252942.00548
      2094.550  
  23517858.373   123587178.36648     -3421.879    23517858.338    96301699.22744
     -2666.401  
  19879863.566   106455768.93509     -1629.051    19879866.645    82798944.33708
     -1267.042  
  23514437.749   125874623.74606     -3484.746    23514442.432    97902501.12006
     -2710.362  
  21915481.702   117027462.35004     -1414.754    21915487.383    91021371.91105
     -1100.363  
  21431049.649   114239573.03508      2540.426    21431056.156    88853038.39507
      1975.887  
  22261113.812   119123725.34608      2811.699    22261117.927    92651807.30607
      2186.878  
  20039660.643   107123494.89609      1780.109    20039664.913    83318304.98108
      1384.465  
  20568188.511   109987348.67805     -1547.995    20568194.831    85545742.63008
     -1203.999  
 20 09 30 07 22 20.0000000  0 16G15G18G20G 8G21G27G24G10G13R 4R 3R13
                                R14R21R 5R20
  21034281.325   110535894.63649     -2316.820    21034281.051    86131865.81548
     -1805.319  
  21283173.294   111843822.82349     -2416.609    21283173.282    87151027.98847
     -1883.074  
  20097113.149   105611050.72549       905.929    20097112.102    82294324.85248
       705.918  
  24664623.474   129613472.92547       504.355    24664626.525   100997524.96744
       393.004  
  25035278.018   131561280.10446      2823.183    25035277.465   102515279.63945
      2199.882  
  24121581.677   126759767.86247     -1330.233    24121584.443    98773851.20345
     -1036.546  
  21127717.069   111026935.38249      1988.090    21127719.156    86514510.04748
      1549.160  
  22282333.984   117094481.00349      2687.253    22282336.199    91242471.41747
      2093.965  
  23521114.393   123604288.89648     -3422.270    23521114.371    96315032.10745
     -2666.707  
  19881385.543   106463919.08409     -1630.512    19881388.628    82805283.34208
     -1268.176  
  23517692.804   125892048.06207     -3484.722    23517697.461    97916053.35406
     -2710.343  
  21916808.950   117034549.46804     -1418.762    21916814.624    91026884.11005
     -1103.483  
  21428668.407   114226879.64208      2537.355    21428674.895    88843165.76507
      1973.499  
  22258488.215   119109675.21308      2808.645    22258492.293    92640879.42007
      2184.500  
  20037996.517   107114599.25109      1778.698    20038000.792    83311386.15108
      1383.433  
  20569638.412   109995101.88705     -1552.620    20569644.742    85551772.89908
     -1207.598  
 20 09 30 07 22 25.0000000  0 16G15G18G20G 8G21G27G24G10G13R 4R 3R13
                                R14R21R 5R20
  21036486.657   110547483.70649     -2318.886    21036486.384    86140896.25448
     -1806.930  
  21285473.956   111855912.88649     -2419.516    21285473.958    87160448.80847
     -1885.340  
  20096252.398   105606527.48349       903.176    20096251.357    82290800.24648
       703.773  
  24664145.051   129610958.73347       501.218    24664148.013   100995565.85345
       390.558  
  25032592.610   131547168.31747      2821.707    25032592.032   102504283.45844
      2198.733  
  24122849.269   126766429.07247     -1333.472    24122852.091    98779041.75945
     -1039.070  
  21125826.952   111017002.90349      1984.804    21125829.076    86506770.45348
      1546.601  
  22279777.643   117081047.28049      2686.007    22279779.846    91232003.58147
      2092.991  
  23524370.726   123621400.91548     -3422.887    23524370.750    96328366.15345
     -2667.188  
  19882908.969   106472077.08609     -1632.788    19882912.078    82811628.45508
     -1269.948  
  23520947.730   125909471.84007     -3485.004    23520952.402    97929605.16406
     -2710.562  
  21918139.864   117041656.16604     -1424.538    21918145.503    91032411.53905
     -1107.980  
  21426290.066   114214201.84008      2533.551    21426296.572    88833305.25507
      1970.538  
  22255865.530   119095640.69908      2804.961    22255869.624    92629963.68907
      2181.636  
  20036333.876   107105711.48509      1776.421    20036338.144    83304473.44408
      1381.659  
  20571092.029   110002875.40905     -1557.152    20571098.437    85557818.97008
     -1211.120  
 20 09 30 07 22 30.0000000  0 16G15G18G20G 8G21G27G24G10G13R 4R 3R13
                                R14R21R 5R20
  21038694.196   110559084.34049     -2321.137    21038693.927    86149935.71048
     -1808.680  
  21287777.480   111868017.95449     -2422.203    21287777.492    87169881.33247
     -1887.434  
  20095394.360   105602018.49249       900.488    20095393.309    82287286.74648
       701.679  
  24663669.971   129608462.32947       497.757    24663672.844   100993620.61745
       387.863  
  25029908.678   131533064.19347      2820.190    25029908.276   102493293.23743
      2197.551  
  24124119.971   126773106.81647     -1337.059    24124122.767    98784245.18645
     -1041.866  
  21123940.126   111007087.69149      1981.538    21123942.289    86499044.31347
      1544.054  
  22277222.725   117067621.09049      2684.585    22277224.943    91221541.61947
      2091.887  
  23527628.097   123638518.45648     -3423.867    23527628.084    96341704.48245
     -2667.952  
  19884434.642   106480246.99309     -1635.031    19884437.756    82817982.82108
     -1271.695  
  23524203.318   125926898.97607     -3485.499    23524207.974    97943159.59806
     -2710.948  
  21919474.986   117048786.51604     -1428.550    21919480.811    91037957.36805
     -1111.097  
  21423915.392   114201543.67808      2529.879    21423921.927    88823460.02207
      1967.684  
  22253246.528   119081625.79908      2801.315    22253250.593    92619063.22407
      2178.801  
  20034673.468   107096835.65409      1774.097    20034677.730    83297570.02408
      1379.855  
  20572550.367   110010673.38805     -1561.906    20572556.719    85563884.06108
     -1214.820  
 20 09 30 07 22 35.0000000  0 16G15G18G20G 8G21G27G24G10G13R 4R 3R13
                                R14R21R 5R20
  21040903.404   110570693.80249     -2322.624    21040903.125    86158982.04048
     -1809.840  
  21290083.334   111880135.30149     -2424.530    21290083.344    87179323.41347
     -1889.249  
  20094538.520   105597521.02149       898.456    20094537.470    82283782.22748
       700.097  
  24663197.680   129605980.64047       495.015    24663200.466   100991686.80745
       385.722  
  25027225.691   131518964.96547      2819.457    25027225.370   102482306.84244
      2196.983  
  24125393.363   126779798.37747     -1339.422    24125396.119    98789459.37745
     -1043.711  
  21122056.114   110997187.23749      1978.836    21122058.296    86491329.68048
      1541.949  
  22274668.718   117054199.69749      2683.891    22274670.923    91211083.39447
      2091.344  
  23530886.019   123655638.69948     -3424.140    23530885.979    96355044.92644
     -2668.163  
  19885962.028   106488426.07909     -1636.598    19885965.150    82824344.33208
     -1272.913  
  23527458.969   125944326.70007     -3485.405    23527463.646    97956714.48406
     -2710.874  
  21920814.228   117055937.68204     -1432.034    21920820.001    91043519.38005
     -1113.809  
  21421543.924   114188902.45108      2526.593    21421550.451    88813627.96307
      1965.129  
  22250630.630   119067627.78708      2797.938    22250634.661    92608175.87707
      2176.168  
  20033014.782   107087969.05509      1772.551    20033019.035    83290673.78508
      1378.652  
  20574012.626   110018492.96305     -1565.914    20574019.019    85569965.95308
     -1217.938  
 20 09 30 07 22 40.0000000  0 16G15G18G20G 8G21G27G24G10G13R 4R 3R13
                                R14R21R 5R20
  21043114.483   110582313.03949     -2325.211    21043114.179    86168035.99648
     -1811.851  
  21292391.714   111892265.85449     -2427.742    21292391.712    87188775.79247
     -1891.750  
  20093685.058   105593036.01849       895.527    20093683.987    82280287.41848
       697.812  
  24662728.387   129603514.61547       491.358    24662731.215   100989765.23945
       382.878  
  25024543.813   131504871.57247      2817.617    25024543.514   102471324.96545
      2195.547  
  24126669.541   126786504.64747     -1342.969    24126672.212    98794685.05046
     -1046.473  
  21120175.061   110987302.33049      1975.176    21120177.261    86483627.15548
      1539.094  
  22272115.804   117040784.04449      2682.476    22272118.018    91200629.64347
      2090.242  
  23534144.627   123672762.61348     -3425.438    23534144.550    96368388.23044
     -2669.175  
  19887491.282   106496615.19309     -1639.090    19887494.417    82830713.64308
     -1274.852  
  23530714.949   125961756.02807     -3486.565    23530719.627    97970270.62006
     -2711.777  
  21922157.471   117063110.58504     -1437.301    21922163.277    91049098.30205
     -1117.905  
  21419175.792   114176279.13408      2522.534    21419182.359    88803809.83607
      1961.972  
  22248018.103   119053647.56508      2793.828    22248022.100    92597302.37307
      2172.977  
  20031357.992   107079112.65708      1769.948    20031362.263    83283785.47508
      1376.624  
  20575479.213   110026335.08805     -1571.065    20575485.542    85576065.37508
     -1221.945  
 20 09 30 07 22 45.0000000  0 16G15G18G20G 8G21G27G24G10G13R 4R 3R13
                                R14R21R 5R20
  21045327.426   110593942.13449     -2326.445    21045327.114    86177097.62748
     -1812.819  
  21294702.625   111904409.71449     -2429.687    21294702.618    87198238.53547
     -1893.265  
  20092833.993   105588563.64349       893.628    20092832.914    82276802.44948
       696.331  
  24662262.178   129601064.57547       488.488    24662265.118   100987856.11845
       380.637  
  25021863.053   131490784.14547      2817.492    25021862.830   102460347.76244
      2195.444  
  24127948.493   126793225.74247     -1345.370    24127951.179    98799922.26746
     -1048.339  
  21118297.015   110977433.16249      1972.633    21118299.215    86475936.90048
      1537.117  
  22269564.017   117027374.28049      2681.883    22269566.217    91190180.47647
      2089.776  
  23537403.975   123689890.35348     -3425.565    23537403.882    96381734.52445
     -2669.272  
  19889022.463   106504814.60109     -1640.551    19889025.613    82837090.95708
     -1275.983  
  23533971.242   125979187.09407     -3485.980    23533975.903    97983828.11206
     -2711.319  
  21923505.009   117070305.39704     -1441.003    21923510.657    91054694.26705
     -1120.781  
  21416811.103   114163673.91608      2519.878    21416817.646    88794005.78307
      1959.906  
  22245408.909   119039685.36307      2791.195    22245412.946    92586442.89007
      2170.930  
  20029703.163   107070266.52209      1768.590    20029707.411    83276905.15008
      1375.640  
  20576949.937   110034199.96305     -1574.378    20576956.336    85582182.50208
     -1224.519  
 20 09 30 07 22 50.0000000  0 16G15G18G20G 8G21G27G24G10G13R 4R 3R13
                                R14R21R 5R20
  21047542.142   110605580.57549     -2328.558    21047541.834    86186166.53748
     -1814.464  
  21297015.961   111916566.37449     -2432.523    21297015.975    87207711.25147
     -1895.477  
  20091985.222   105584103.38149       890.952    20091984.155    82273326.92348
       694.249  
  24661798.852   129598630.00047       485.500    24661801.839   100985959.07144
       378.313  
  25019183.352   131476702.28746      2815.871    25019183.122   102449374.87044
      2194.179  
  24129230.200   126799961.18547     -1348.469    24129232.907    98805170.66645
     -1050.753  
  21116421.857   110967579.23649      1969.324    21116424.068    86468258.52148
      1534.539  
  22267013.258   117013969.91749      2680.347    22267015.452    91179735.52047
      2088.582  
  23540663.938   123707021.38848     -3426.503    23540663.826    96395083.38745
     -2670.007  
  19890555.432   106513023.61209     -1642.598    19890558.595    82843475.74208
     -1277.578  
  23537227.781   125996619.29107     -3486.777    23537232.404    97997386.47606
     -2711.940  
  21924856.274   117077521.57704     -1444.902    21924861.985    91060306.85205
     -1123.812  
  21414449.659   114151086.15208      2515.815    21414456.215    88784215.30607
      1956.745  
  22242803.023   119025740.74107      2787.374    22242807.008    92575597.07407
      2167.953  
  20028050.141   107061430.17209      1766.417    20028054.389    83270032.43708
      1373.878  
  20578424.933   110042086.96005     -1579.590    20578431.258    85588316.82808
     -1228.569  
 20 09 30 07 22 55.0000000  0 16G15G18G20G 8G21G27G24G10G13R 4R 3R13
                                R14R21R 5R20
  21049758.328   110617226.77349     -2330.313    21049758.016    86195241.49448
     -1815.832  
  21299331.440   111928734.23749     -2435.062    21299331.449    87217192.70147
     -1897.457  
  20091138.489   105579653.74049       888.362    20091137.409    82269859.67148
       692.229  
  24661338.190   129596209.23547       482.395    24661341.193   100984072.73745
       375.886  
  25016504.423   131462624.35647      2814.854    25016504.112   102438405.08543
      2193.395  
  24130514.340   126806709.38847     -1351.593    24130517.053    98810428.99846
     -1053.194  
  21114549.307   110957738.88749      1966.176    21114551.505    86460590.71848
      1532.085  
  22264463.210   117000569.32549      2679.308    22264465.382    91169293.50447
      2087.772  
  23543924.235   123724154.17748     -3427.331    23543924.129    96408433.59445
     -2670.651  
  19892089.911   106521240.70809     -1644.675    19892093.087    82849866.81508
     -1279.194  
  23540484.215   126014051.11307     -3486.441    23540488.834    98010944.54906
     -2711.680  
  21926211.238   117084757.38004     -1450.069    21926217.004    91065934.70005
     -1127.835  
  21412091.225   114138514.27908      2512.288    21412097.765    88774437.18907
      1954.004  
  22240200.094   119011811.97408      2783.659    22240204.077    92564763.58707
      2165.065  
  20026398.649   107052602.00409      1764.351    20026402.898    83263166.08408
      1372.272  
  20579903.754   110049994.47305     -1584.406    20579910.025    85594467.11408
     -1232.319  
 20 09 30 07 23  0.0000000  0 16G15G18G20G 8G21G27G24G10G13R 4R 3R13
                                R14R21R 5R20
  21051977.047   110628886.25149     -2332.777    21051976.741    86204326.80248
     -1817.753  
  21301650.108   111940918.82749     -2438.167    21301650.106    87226687.18247
     -1899.874  
  20090294.803   105575220.13849       885.491    20090293.700    82266404.91848
       689.987  
  24660881.186   129593807.91247       478.679    24660884.240   100982201.59444
       372.995  
  25013827.327   131448555.86947      2813.604    25013826.898   102427442.62045
      2192.414  
  24131801.972   126813475.81247     -1354.667    24131804.633    98815701.54645
     -1055.586  
  21112680.429   110947917.86449      1962.680    21112682.611    86452937.97448
      1529.358  
  22261914.945   116987178.07049      2677.762    22261917.105    91158858.76647
      2086.565  
  23547185.909   123741294.19948     -3428.487    23547185.806    96421789.46045
     -2671.555  
  19893626.923   106529471.40009     -1647.043    19893630.118    82856268.46608
     -1281.039  
  23543741.598   126031488.10807     -3487.043    23543746.235    98024506.65806
     -2712.147  
  21927571.083   117092018.66204     -1454.421    21927576.817    91071582.36505
     -1131.223  
  21409736.818   114125963.96408      2508.245    21409743.367    88764675.84007
      1950.859  
  22237601.134   118997904.72408      2779.887    22237605.184    92553946.84607
      2162.133  
  20024749.737   107043787.65109      1761.883    20024753.993    83256310.48408
      1370.351  
  20581387.467   110057928.20905     -1588.598    20581393.689    85600637.79908
     -1235.573  
 20 09 30 07 23  5.0000000  0 16G15G18G20G 8G21G27G24G10G13R 4R 3R13
                                R14R21R 5R20
  21054197.244   110640553.49849     -2334.418    21054196.936    86213418.16148
     -1819.031  
  21303970.904   111953114.59749     -2440.284    21303970.890    87236190.37447
     -1901.522  
  20089453.115   105570797.06749       883.387    20089452.025    82262958.36748
       688.348  
  24660426.872   129591420.47847       476.085    24660429.943   100980341.22745
       371.144  
  25011150.957   131434491.32847      2812.398    25011150.545   102416483.24644
      2191.479  
  24133091.986   126820254.98047     -1357.094    24133094.675    98820983.98945
     -1057.479  
  21110814.156   110938110.60049      1959.933    21110816.337    86445295.95648
      1527.223  
  22259367.398   116973790.65449      2677.207    22259369.550    91148427.01947
      2086.137  
  23550447.904   123758435.88148     -3428.613    23550447.798    96435146.61644
     -2671.651  
  19895165.478   106537710.26309     -1648.656    19895168.667    82862676.46908
     -1282.292  
  23546998.977   126048924.64206     -3487.448    23547003.537    98038068.39106
     -2712.464  
  21928934.454   117099299.70604     -1459.296    21928940.320    91077245.38805
     -1135.012  
  21407385.406   114113429.64408      2505.102    21407391.968    88754926.92607
      1948.414  
  22235005.232   118984013.49807      2776.640    22235009.254    92543142.56007
      2159.605  
  20023102.329   107034981.53009      1760.358    20023106.625    83249461.27708
      1369.168  
  20582874.981   110065882.42605     -1592.422    20582881.174    85606824.40708
     -1238.554  
 20 09 30 07 23 10.0000000  0 16G15G18G20G 8G21G27G24G10G13R 4R 3R13
                                R14R21R 5R20
  21056419.201   110652230.02549     -2336.409    21056418.883    86222516.75548
     -1820.582  
  21306294.101   111965323.01749     -2443.050    21306294.068    87245703.42847
     -1903.675  
  20088613.711   105566385.97349       880.797    20088612.623    82259521.15648
       686.335  
  24659975.516   129589048.36647       472.930    24659978.449   100978492.84245
       368.515  
  25008475.557   131420432.19147      2811.007    25008475.069   102405528.08944
      2190.397  
  24134384.717   126827048.29547     -1360.164    24134387.430    98826277.48246
     -1059.866  
  21108950.750   110928318.39849      1956.741    21108952.931    86437665.68248
      1524.734  
  22256820.880   116960408.51549      2675.797    22256822.999    91137999.38047
      2085.030  
  23553710.501   123775580.66448     -3429.355    23553710.362    96448506.17744
     -2672.230  
  19896705.791   106545958.56909     -1650.804    19896708.973    82869091.81908
     -1283.961  
  23550256.460   126066362.10907     -3487.574    23550261.016    98051630.86206
     -2712.563  
  21930302.040   117106601.81504     -1462.398    21930307.757    91082924.81505
     -1137.422  
  21405037.261   114100912.71408      2501.508    21405043.812    88745191.54607
      1945.617  
  22232412.525   118970139.62107      2772.910    22232416.576    92532351.77607
      2156.703  
  20021456.773   107026185.06309      1758.270    20021461.080    83242619.58308
      1367.543  
  20584366.551   110073858.61905     -1597.902    20584372.762    85613028.11308
     -1242.815  
 20 09 30 07 23 15.0000000  0 16G15G18G20G 8G21G27G24G10G13R 4R 3R13
                                R14R21R 5R20
  21058642.897   110663915.65549     -2337.534    21058642.591    86231622.43848
     -1821.461  
  21308619.702   111977544.03849     -2445.129    21308619.633    87255226.29347
     -1905.301  
  20087776.573   105561986.81349       879.058    20087775.491    82256093.23948
       684.977  
  24659527.043   129586691.56247       470.000    24659529.978   100976656.36745
       366.229  
  25005801.223   131406378.47047      2810.417    25005800.706   102394577.14344
      2189.938  
  24135680.140   126833855.78647     -1362.746    24135682.811    98831582.00645
     -1061.883  
  21107090.242   110918541.36149      1954.140    21107092.423    86430047.21148
      1522.706  
  22254275.352   116947031.64649      2675.133    22254277.451    91127575.84748
      2084.515  
  23556973.665   123792728.51648     -3429.608    23556973.515    96461868.14945
     -2672.421  
  19898247.869   106554216.44809     -1652.164    19898251.065    82875514.61008
     -1285.019  
  23553514.154   126083800.70607     -3487.362    23553518.683    98065194.20406
     -2712.398  
  21931673.563   117113925.17304     -1466.719    21931679.170    91088620.75105
     -1140.784  
  21402692.444   114088413.30208      2498.495    21402698.948    88735469.78807
      1943.273  
  22229823.136   118956283.24407      2769.883    22229827.158    92521574.59107
      2154.352  
  20019813.006   107017398.21409      1756.683    20019817.327    83235785.37108
      1366.308  
  20585862.231   110081856.75405     -1601.563    20585868.452    85619248.87808
     -1245.664  
 20 09 30 07 23 20.0000000  0 16G15G18G20G 8G21G27G24G10G13R 4R 3R13
                                R14R21R 5R20
  21060868.427   110675610.86349     -2340.101    21060868.114    86240735.58348
     -1823.460  
  21310947.786   111989778.10949     -2448.246    21310947.714    87264759.33247
     -1907.727  
  20086941.814   105557600.09549       875.972    20086940.717    82252675.01348
       682.570  
  24659081.573   129584350.50747       466.613    24659084.462   100974832.18044
       363.589  
  25003128.027   131392330.63747      2808.601    25003127.535   102383630.76644
      2188.516  
  24136978.366   126840677.82247     -1366.238    24136980.983    98836897.89646
     -1064.601  
  21105232.689   110908779.91649      1950.512    21105234.891    86422440.89748
      1519.879  
  22251730.918   116933660.52249      2673.452    22251733.004    91117156.79647
      2083.207  
  23560237.517   123809879.92348     -3430.754    23560237.348    96475232.87744
     -2673.319  
  19899791.807   106562484.29109     -1654.788    19899795.021    82881945.16008
     -1287.059  
  23556772.167   126101240.79407     -3488.226    23556776.645    98078758.71506
     -2713.070  
  21933049.119   117121269.97004     -1471.265    21933054.606    91094333.37005
     -1144.316  
  21400350.996   114075931.81408      2494.319    21400357.438    88725761.96707
      1940.027  
  22227237.089   118942444.75408      2765.612    22227241.115    92510811.33307
      2151.030  
  20018171.113   107008621.57709      1754.203    20018175.483    83228959.09908
      1364.379  
  20587362.105   110089877.28305     -1606.448    20587368.325    85625487.06808
     -1249.461  
 20 09 30 07 23 25.0000000  0 16G15G18G20G 8G21G27G24G10G13R 4R 3R13
                                R14R21R 5R20
  21063095.773   110687315.61349     -2341.815    21063095.454    86249856.16748
     -1824.796  
  21313278.350   112002025.18049     -2450.766    21313278.253    87274302.49947
     -1909.691  
  20086109.421   105553225.77549       873.609    20086108.312    82249266.45448
       680.734  
  24658639.062   129582025.13047       463.582    24658641.932   100973020.18445
       361.230  
  25000455.919   131378288.61547      2808.074    25000455.618   102372688.96444
      2188.113  
  24138279.321   126847514.35747     -1368.483    24138281.962    98842225.03346
     -1066.354  
  21103378.109   110899034.09249      1947.574    21103380.330    86414846.74948
      1517.589  
  22249187.571   116920295.08149      2672.457    22249189.607    91106742.16547
      2082.429  
  23563501.980   123827034.76148     -3431.277    23563501.835    96488600.27944
     -2673.722  
  19901337.586   106570762.05609     -1656.651    19901340.826    82888383.41708
     -1288.511  
  23560030.398   126118682.29407     -3488.659    23560034.884    98092324.31906
     -2713.406  
  21934428.484   117128636.42504     -1475.409    21934434.115    91100062.83905
     -1147.542  
  21398012.881   114063468.25308      2490.930    21398019.275    88716068.08507
      1937.386  
  22224654.368   118928624.18408      2762.250    22224658.449    92500062.00007
      2148.414  
  20016531.135   106999854.98509      1752.136    20016535.526    83222140.64008
      1362.772  
  20588866.294   110097920.26405     -1610.559    20588872.387    85631742.72008
     -1252.659  
 20 09 30 07 23 30.0000000  0 16G15G18G20G 8G21G27G24G10G13R 4R 3R13
                                R14R21R 5R20
  21065324.938   110699029.99049     -2344.081    21065324.626    86258984.25248
     -1826.559  
  21315611.395   112014285.35249     -2453.522    21315611.316    87283855.87747
     -1911.839  
  20085279.384   105548863.99549       870.979    20085278.294    82245867.66948
       678.687  
  24658199.573   129579715.59747       460.320    24658202.432   100971220.57145
       358.691  
  24997784.998   131364252.61347      2806.550    24997784.629   102361751.80445
      2186.917  
  24139583.091   126854365.56047     -1371.784    24139585.749    98847563.63445
     -1068.921  
  21101526.512   110889303.98149      1944.359    21101528.760    86407264.85048
      1515.085  
  22246645.331   116906935.46149      2671.335    22246647.320    91096332.07947
      2081.558  
  23566767.133   123844193.25648     -3432.116    23566766.970    96501970.52345
     -2674.382  
  19902885.261   106579049.84809     -1658.719    19902888.512    82894829.47408
     -1290.116  
  23563288.912   126136125.28506     -3489.074    23563293.385    98105891.07406
     -2713.726  
  21935811.911   117136024.50504     -1479.227    21935817.681    91105809.12405
     -1150.508  
  21395678.172   114051022.78308      2487.125    21395684.524    88706388.28607
      1934.430  
  22222075.011   118914821.62108      2758.473    22222079.148    92489326.67607
      2145.479  
  20014893.075   106991098.58209      1750.086    20014897.476    83215330.10808
      1361.180  
  20590374.464   110105985.66105     -1615.503    20590380.665    85638015.80808
     -1256.503  
 20 09 30 07 23 35.0000000  0 16G15G18G20G 8G21G27G24G10G13R 4R 3R13
                                R14R21R 5R20
  21067556.059   110710754.57749     -2345.640    21067555.764    86268120.29448
     -1827.777  
  21317947.037   112026559.23149     -2455.843    21317946.965    87293419.93847
     -1913.647  
  20084451.850   105544515.36949       868.688    20084450.786    82242479.12948
       676.895  
  24657763.187   129577422.49947       457.257    24657765.968   100969433.73044
       356.301  
  24995115.292   131350223.18047      2805.336    24995114.915   102350819.80544
      2185.977  
  24140889.763   126861232.01247     -1374.581    24140892.401    98852914.12746
     -1071.102  
  21099678.009   110879590.06149      1941.496    21099680.271    86399695.56448
      1512.854  
  22244104.323   116893582.27849      2670.163    22244106.295    91085927.00847
      2080.648  
  23570033.105   123861355.96248     -3432.776    23570032.986    96515344.06145
     -2674.895  
  19904434.915   106587348.20409     -1660.487    19904438.165    82901283.75608
     -1291.491  
  23566547.796   126153570.50207     -3489.184    23566552.303    98119459.56606
     -2713.812  
  21937199.724   117143434.87704     -1483.886    21937205.404    91111572.74105
     -1154.136  
  21393346.938   114038595.89908      2483.844    21393353.274    88696722.93807
      1931.878  
  22219499.156   118901037.69607      2755.223    22219503.263    92478605.85007
      2142.948  
  20013257.033   106982352.93609      1748.362    20013261.437    83208527.94208
      1359.840  
  20591887.205   110114074.06105     -1619.234    20591893.237    85644306.78508
     -1259.409  
 20 09 30 07 23 40.0000000  0 16G15G18G20G 8G21G27G24G10G13R 4R 3R13
                                R14R21R 5R20
  21069788.796   110722487.62849     -2347.499    21069788.496    86277262.92748
     -1829.227  
  21320284.955   112038844.98449     -2458.421    21320284.879    87302993.24247
     -1915.655  
  20083626.495   105540178.09849       866.313    20083625.429    82239099.43148
       675.042  
  24657329.569   129575143.91447       454.188    24657332.464   100967658.19645
       353.909  
  24992446.453   131336198.49347      2804.383    24992446.142   102339891.46844
      2185.229  
  24142199.010   126868111.86847     -1377.573    24142201.591    98858275.04146
     -1073.438  
  21097832.274   110869890.65949      1938.292    21097834.552    86392137.59148
      1510.358  
  22241564.178   116880233.72449      2669.183    22241566.134    91075525.53647
      2079.882  
  23573299.509   123878520.99948     -3433.461    23573299.413    96528719.41044
     -2675.429  
  19905986.240   106595655.44809     -1662.438    19905989.483    82907744.94008
     -1293.011  
  23569806.763   126171015.94607     -3489.468    23569811.264    98133028.23406
     -2714.035  
  21938591.212   117150865.69204     -1488.183    21938596.942    91117352.26405
     -1157.479  
  21391018.838   114026185.91308      2480.066    21391025.193    88687070.72807
      1928.937  
  22216926.458   118887270.66907      2751.769    22216930.573    92467898.16207
      2140.262  
  20011622.654   106973616.33909      1746.276    20011627.076    83201732.81008
      1358.211  
  20593403.905   110122183.78505     -1624.434    20593409.788    85650614.34508
     -1263.452  
 20 09 30 07 23 45.0000000  0 16G15G18G20G 8G21G27G24G10G13R 4R 3R13
                                R14R21R 5R20
  21072023.593   110734231.62749     -2349.804    21072023.319    86286414.09448
     -1831.019  
  21322625.627   112051145.13849     -2461.323    21322625.536    87312577.77947
     -1917.917  
  20082803.775   105535854.67949       863.507    20082802.719    82235730.54048
       672.859  
  24656899.234   129572882.55347       450.555    24656902.174   100965896.10645
       351.077  
  24989779.052   131322181.14447      2802.776    24989778.835   102328968.88544
      2183.980  
  24143511.250   126875007.64247     -1380.977    24143513.831    98863648.38045
     -1076.090  
  21095989.772   110860208.27649      1934.851    21095992.065    86384592.88348
      1507.675  
  22239025.395   116866892.33249      2667.727    22239027.337    91065129.65047
      2078.746  
  23576566.835   123895691.00748     -3434.422    23576566.721    96542098.61745
     -2676.175  
  19907539.690   106603974.04109     -1664.749    19907542.914    82914214.95808
     -1294.808  
  23573066.295   126188464.28907     -3489.839    23573070.744    98146599.16106
     -2714.323  
  21939987.038   117158319.38504     -1492.699    21939992.779    91123149.57905
     -1160.991  
  21388694.391   114013795.36308      2476.272    21388700.758    88677433.64007
      1925.991  
  22214357.360   118873522.94308      2747.617    22214361.514    92457205.49507
      2137.034  
  20009990.473   106964891.33509      1744.034    20009994.877    83194946.69808
      1356.473  
  20594924.931   110130317.24105     -1628.952    20594930.769    85656940.36408
     -1266.968  
 20 09 30 07 23 50.0000000  0 16G15G18G20G 8G21G27G24G10G13R 4R 3R13
                                R14R21R 5R20
  21074260.044   110745984.19549     -2351.133    21074259.751    86295571.94148
     -1832.054  
  21324968.561   112063457.30949     -2463.366    21324968.456    87322171.67847
     -1919.512  
  20081983.243   105531542.75449       861.452    20081982.179    82232370.59848
       671.257  
  24656471.726   129570636.01147       448.285    24656474.604   100964145.56044
       349.312  
  24987112.552   131308168.71947      2802.116    24987112.326   102318050.10345
      2183.460  
  24144826.099   126881917.00347     -1383.437    24144828.668    98869032.29245
     -1078.008  
  21094150.029   110850540.42649      1932.405    21094152.327    86377059.49348
      1505.770  
  22236487.531   116853555.73249      2667.156    22236489.460    91054737.49847
      2078.300  
  23579834.673   123912863.64148     -3434.512    23579834.567    96555479.90045
     -2676.241  
  19909094.807   106612301.65409     -1666.145    19909098.045    82920691.99308
     -1295.895  
  23576325.856   126205913.21907     -3489.605    23576330.351    98160170.55006
     -2714.141  
  21941386.696   117165793.63504     -1496.612    21941392.458    91128962.88505
     -1164.034  
  21386373.141   114001421.85908      2473.308    21386379.506    88667809.80707
      1923.683  
  22211791.407   118859792.28907      2744.836    22211795.605    92446526.09707
      2134.866  
  20008359.961   106956175.37609      1742.570    20008364.370    83188167.62508
      1355.331  
  20596450.008   110138471.94805     -1632.453    20596455.734    85663282.91708
     -1270.047  
 20 09 30 07 23 55.0000000  0 16G15G18G20G 8G21G27G24G10G13R 4R 3R13
                                R14R21R 5R20
  21076498.115   110757745.30349     -2353.132    21076497.815    86304736.43648
     -1833.612  
  21327313.784   112075781.44949     -2466.241    21327313.667    87331774.89347
     -1921.749  
  20081164.900   105527242.29949       858.761    20081163.822    82229019.59348
       669.159  
  24656047.058   129568404.27447       444.703    24656049.931   100962406.53344
       346.520  
  24984447.024   131294161.21347      2800.894    24984446.779   102307135.16445
      2182.511  
  24146143.507   126888839.80947     -1385.995    24146146.024    98874426.67746
     -1080.000  
  21092313.103   110840887.25449      1928.976    21092315.383    86369537.54748
      1503.098  
  22233950.572   116840223.89349      2665.632    22233952.480    91044349.05347
      2077.113  
  23583102.943   123930038.64547     -3435.453    23583102.933    96568862.99945
     -2676.980  
  19910651.560   106620638.12109     -1668.285    19910654.836    82927175.90908
     -1297.559  
  23579585.492   126223362.43606     -3489.945    23579590.011    98173742.16106
     -2714.406  
  21942790.375   117173288.42604     -1500.754    21942795.953    91134792.16305
     -1167.257  
  21384055.095   113989065.42908      2469.534    21384061.466    88658199.25907
      1920.750  
  22209228.673   118846078.67608      2740.784    22209232.868    92435859.96107
      2131.722  
  20006731.162   106947468.54509      1740.261    20006735.569    83181395.64208
      1353.534  
  20597979.041   110146648.06205     -1638.059    20597984.699    85669642.11008
     -1274.051  
 20 09 30 07 24  0.0000000  0 16G15G18G20G 8G21G27G24G10G13R 4R 3R13
                                R14R21R 5R20
  21078738.111   110769516.52949     -2355.296    21078737.820    86313908.82048
     -1835.300  
  21329661.568   112088119.13749     -2468.870    21329661.465    87341388.67147
     -1923.800  
  20080349.039   105522954.91949       856.155    20080347.961    82225678.77848
       667.129  
  24655625.462   129566188.89847       441.429    24655628.470   100960680.28245
       343.972  
  24981782.691   131280160.23447      2799.956    24981782.478   102296225.32744
      2181.784  
  24147463.758   126895777.74147     -1388.895    24147466.282    98879832.85045
     -1082.257  
  21090479.257   110831250.38849      1925.691    21090481.542    86362028.30648
      1500.538  
  22231414.802   116826898.42549      2664.421    22231416.713    91033965.57347
      2076.171  
  23586371.989   123947217.63047     -3435.930    23586371.954    96582249.21945
     -2677.352  
  19912210.285   106628985.05309     -1670.453    19912213.575    82933667.97008
     -1299.242  
  23582845.606   126240813.67106     -3490.452    23582850.016    98187315.33606
     -2714.801  
  21944198.157   117180805.43204     -1505.348    21944203.618    91140638.73005
     -1170.824  
  21381740.551   113976727.54208      2465.777    21381746.910    88648603.12607
      1917.827  
  22206669.425   118832383.68408      2737.043    22206673.648    92425208.30607
      2128.812  
  20005104.388   106938772.47009      1738.132    20005108.782    83174632.03108
      1351.883  
  20599512.219   110154847.03005     -1642.445    20599517.932    85676019.08208
     -1277.461  
 20 09 30 07 24  5.0000000  0 16G15G18G20G 8G21G27G24G10G13R 4R 3R13
                                R14R21R 5R20
  21080979.994   110781297.64249     -2357.391    21080979.692    86323088.91148
     -1836.933  
  21332011.895   112100470.15549     -2471.690    21332011.817    87351012.84347
     -1925.996  
  20079535.628   105518680.41749       853.352    20079534.549    82222347.99448
       664.945  
  24655206.960   129563989.68247       437.965    24655209.945   100958966.58444
       341.262  
  24979119.590   131266165.60847      2797.874    24979119.283   102285320.42544
      2180.164  
  24148786.879   126902730.53947     -1392.319    24148789.343    98885250.62846
     -1084.925  
  21088648.467   110821629.52549      1922.374    21088650.746    86354531.53248
      1497.953  
  22228880.231   116813579.10149      2662.913    22228882.140    91023586.89047
      2074.995  
  23589641.775   123964400.46847     -3437.285    23589641.687    96595638.44745
     -2678.406  
  19913770.939   106637342.28709     -1672.737    19913774.229    82940168.04008
     -1301.019  
  23586105.990   126258266.70106     -3490.956    23586110.372    98200889.90806
     -2715.191  
  21945610.019   117188344.32404     -1509.555    21945615.409    91146502.30605
     -1174.102  
  21379429.448   113964408.12608      2461.659    21379435.814    88639021.36707
      1914.625  
  22204113.642   118818707.11308      2733.272    22204117.869    92414570.97307
      2125.874  
  20003479.579   106930086.87709      1735.824    20003483.948    83167876.57408
      1350.086  
  20601049.624   110163068.66205     -1647.660    20601055.418    85682413.68108
     -1281.515  
 20 09 30 07 24 10.0000000  0 16G15G18G20G 8G21G27G24G10G13R 4R 3R13
                                R14R21R 5R20
  21083223.917   110793089.47549     -2359.180    21083223.602    86332277.34848
     -1838.324  
  21334364.935   112112835.33749     -2474.347    21334364.854    87360648.04247
     -1928.066  
  20078724.829   105514419.64249       850.890    20078723.767    82219027.91248
       663.026  
  24654791.650   129561807.40147       434.765    24654794.633   100957266.10645
       338.773  
  24976457.866   131252178.18547      2796.793    24976457.505   102274421.14244
      2179.320  
  24150112.965   126909699.01147     -1395.323    24150115.399    98890680.60345
     -1087.270  
  21086820.886   110812025.54949      1919.339    21086823.171    86347047.92148
      1495.589  
  22226346.983   116800266.82649      2661.695    22226348.906    91013213.68747
      2074.046  
  23592912.417   123981587.93147     -3438.000    23592912.424    96609031.25644
     -2678.965  
  19915333.688   106645710.70409     -1674.730    19915336.972    82946676.81008
     -1302.565  
  23589366.869   126275722.44106     -3491.109    23589371.232    98214466.57906
     -2715.312  
  21947026.131   117195905.87304     -1514.315    21947031.443    91152383.50405
     -1177.805  
  21377121.969   113952108.02608      2458.077    21377128.332    88629454.62807
      1911.840  
  22201561.487   118805049.88908      2729.652    22201565.691    92403948.69207
      2123.062  
  20001856.930   106921412.76209      1733.718    20001861.261    83161130.04408
      1348.448  
  20602591.398   110171313.72005     -1651.258    20602597.285    85688826.50208
     -1284.315  
 20 09 30 07 24 15.0000000  0 16G15G18G20G 8G21G27G24G10G13R 4R 3R13
                                R14R21R 5R20
  21085469.496   110804889.94949     -2360.953    21085469.173    86341472.52548
     -1839.706  
  21336720.253   112125212.62049     -2476.734    21336720.200    87370292.66647
     -1929.925  
  20077916.244   105510170.52849       848.688    20077915.188    82215716.91748
       661.315  
  24654379.235   129559640.05547       431.862    24654382.316   100955577.27045
       336.511  
  24973797.131   131238195.86447      2795.983    24973796.703   102263525.85245
      2178.687  
  24151441.662   126916681.11447     -1397.913    24151444.097    98896121.18245
     -1089.288  
  21084996.159   110802436.48249      1916.363    21084998.441    86339575.92648
      1493.269  
  22223814.662   116786959.48549      2661.058    22223816.612    91002844.33447
      2073.551  
  23596183.548   123998777.96847     -3438.156    23596183.628    96622426.07045
     -2679.085  
  19916898.113   106654088.16109     -1676.319    19916901.403    82953192.60708
     -1303.808  
  23592627.764   126293178.73606     -3491.035    23592632.230    98228043.69606
     -2715.254  
  21948446.013   117203488.02504     -1518.793    21948451.314    91158280.73505
     -1181.288  
  21374817.754   113939825.23508      2454.909    21374824.105    88619901.34807
      1909.375  
  22199012.510   118791409.89308      2726.242    22199016.733    92393339.81007
      2120.409  
  20000236.009   106912747.91809      1731.940    20000240.316    83154390.72308
      1347.065  
  20604137.163   110179580.37005     -1655.608    20604143.188    85695256.11208
     -1287.699  
 20 09 30 07 24 20.0000000  0 16G15G18G20G 8G21G27G24G10G13R 4R 3R13
                                R14R21R 5R20
  21087716.803   110816699.56549     -2362.766    21087716.475    86350674.81848
     -1841.120  
  21339077.969   112137602.49749     -2479.315    21339077.923    87379947.11747
     -1931.937  
  20077109.988   105505933.59249       846.207    20077108.933    82212415.40748
       659.379  
  24653969.735   129557488.15147       428.891    24653972.859   100953900.45645
       334.194  
  24971137.439   131224219.15147      2794.956    24971136.916   102252634.90744
      2177.887  
  24152773.053   126923677.37147     -1400.527    24152775.326    98901572.81145
     -1091.323  
  21083174.335   110792862.73249      1913.124    21083176.634    86332115.86648
      1490.745  
  22221283.395   116773657.61749      2659.797    22221285.350    90992479.24247
      2072.570  
  23599455.281   124015971.10447     -3438.647    23599455.431    96635823.30745
     -2679.469  
  19918464.352   106662475.23509     -1678.355    19918467.629    82959715.88308
     -1305.391  
  23595888.926   126310636.08606     -3491.394    23595893.414    98241621.62406
     -2715.530  
  21949869.924   117211091.34904     -1522.979    21949875.172    91164194.43305
     -1184.539  
  21372516.892   113927560.21908      2451.430    21372523.214    88610361.89907
      1906.667  
  22196466.876   118777787.75008      2722.758    22196471.110    92382744.81307
      2117.699  
  19998616.903   106904092.80509      1730.105    19998621.190    83147658.96708
      1345.632  
  20605687.046   110187868.82105     -1659.766    20605693.156    85701702.68808
     -1290.929  
 20 09 30 07 24 25.0000000  0 16G15G18G20G 8G21G27G24G10G13R 4R 3R13
                                R14R21R 5R20
  21089965.706   110828517.53349     -2364.414    21089965.374    86359883.62448
     -1842.405  
  21341437.913   112150004.15049     -2481.589    21341437.894    87389610.73947
     -1933.711  
  20076305.885   105501708.03349       843.854    20076304.836    82209122.76348
       657.547  
  24653563.017   129555350.76846       426.132    24653566.195   100952234.98445
       332.051  
  24968478.649   131210247.33547      2793.862    24968478.296   102241747.77144
      2177.038  
  24154106.940   126930686.93047     -1403.448    24154109.208    98907034.80346
     -1093.601  
  21081355.307   110783303.67949      1910.280    21081357.608    86324667.26048
      1488.530  
  22218753.010   116760360.44749      2658.844    22218754.977    90982117.81747
      2071.827  
  23602727.437   124033166.55447     -3439.297    23602727.591    96649222.34745
     -2679.979  
  19920032.235   106670871.02409     -1680.022    19920035.484    82966245.94408
     -1306.683  
  23599150.183   126328093.75706     -3491.608    23599154.674    98255199.80306
     -2715.698  
  21951297.705   117218715.15104     -1525.976    21951302.866    91170124.05805
     -1186.871  
  21370219.216   113915312.19008      2447.804    21370225.478    88600835.65707
      1903.848  
  22193924.405   118764182.44808      2719.097    22193928.642    92372162.91407
      2114.855  
  19996999.479   106895446.68509      1728.195    19997003.756    83140934.21208
      1344.151  
  20607241.058   110196178.41605     -1663.722    20607247.105    85708165.69908
     -1294.011  
 20 09 30 07 24 30.0000000  0 16G15G18G20G 8G21G27G24G10G13R 4R 3R13
                                R14R21R 5R20
  21092216.572   110840345.91449     -2366.823    21092216.232    86369100.54248
     -1844.280  
  21343800.504   112162419.64949     -2484.578    21343800.506    87399285.14647
     -1936.038  
  20075504.351   105497495.91549       841.008    20075503.304    82205840.59348
       655.331  
  24653159.459   129553230.11846       422.008    24653162.633   100950582.52845
       328.835  
  24965821.220   131196282.48047      2791.976    24965820.766   102230866.09944
      2175.570  
  24155443.763   126937711.86047     -1406.637    24155445.969    98912508.77446
     -1096.086  
  21079539.466   110773761.24049      1906.781    21079541.721    86317231.59948
      1485.805  
  22216223.933   116747070.02749      2657.293    22216225.880    90971761.65047
      2070.616  
  23606000.441   124050366.34047     -3440.370    23606000.592    96662624.77245
     -2680.812  
  19921602.101   106679277.58309     -1682.409    19921605.349    82972784.37708
     -1308.543  
  23602411.782   126345553.81707     -3492.359    23602416.372    98268779.84006
     -2716.285  
  21952729.613   117226361.37104     -1531.058    21952734.762    91176071.10705
     -1190.828  
  21367925.059   113903083.26108      2444.000    21367931.333    88591324.27607
      1900.891  
  22191385.520   118750596.26508      2715.266    22191389.748    92361595.88707
      2111.874  
  19995384.110   106886811.67109      1725.770    19995388.399    83134218.09508
      1342.284  
  20608799.383   110204511.17005     -1668.800    20608805.380    85714646.72908
     -1297.957  
 20 09 30 07 24 35.0000000  0 16G15G18G20G 8G21G27G24G10G13R 4R 3R13
                                R14R21R 5R20
  21094469.231   110852183.68649     -2368.753    21094468.900    86378324.77848
     -1845.784  
  21346165.550   112174847.99149     -2487.073    21346165.524    87408969.56547
     -1937.983  
  20074705.201   105493296.25649       838.519    20074704.151    82202568.13448
       653.386  
  24652758.898   129551125.18947       419.233    24652762.021   100948942.33945
       326.534  
  24963164.928   131182323.54347      2790.984    24963164.317   102219989.01044
      2174.792  
  24156783.290   126944751.18147     -1409.488    24156785.472    98917993.93845
     -1098.305  
  21077726.562   110764234.36549      1903.691    21077728.833    86309808.06348
      1483.395  
  22213695.943   116733785.38349      2656.194    22213697.897    90961409.98247
      2069.761  
  23609274.064   124067569.46847     -3441.430    23609274.175    96676029.79745
     -2681.636  
  19923173.814   106687694.03409     -1684.445    19923177.054    82979330.50508
     -1310.128  
  23605673.671   126363015.18706     -3492.562    23605678.321    98282360.88506
     -2716.441  
  21954165.532   117234028.87804     -1536.113    21954170.686    91182034.72705
     -1194.754  
  21365634.351   113890872.53108      2440.003    21365640.601    88581827.04007
      1897.781  
  22188849.965   118737028.18608      2711.645    22188854.236    92351042.93807
      2109.059  
  19993770.667   106878186.77009      1723.749    19993774.933    83127509.83808
      1340.690  
  20610361.863   110212866.14105     -1673.042    20610367.793    85721145.03508
     -1301.184  
 20 09 30 07 24 40.0000000  0 16G15G18G20G 8G21G27G24G10G13R 4R 3R13
                                R14R21R 5R20
  21096723.753   110864031.30949     -2370.284    21096723.451    86387556.69248
     -1846.976  
  21348533.118   112187289.61149     -2489.343    21348533.108    87418664.33147
     -1939.753  
  20073908.489   105489109.50749       836.293    20073907.439    82199305.73148
       651.656  
  24652361.448   129549036.50947       416.339    24652364.439   100947314.77844
       324.413  
  24960509.857   131168371.05147      2790.030    24960509.304   102209116.95444
      2174.058  
  24158125.661   126951805.32947     -1411.995    24158127.816    98923490.67446
     -1100.262  
  21075916.768   110754723.77549      1900.636    21075919.037    86302397.21948
      1481.015  
  22211169.145   116720506.97049      2655.233    22211171.092    90951063.17048
      2069.016  
  23612548.405   124084776.37247     -3441.418    23612548.584    96689437.76645
     -2681.633  
  19924747.437   106696120.74409     -1686.172    19924750.682    82985884.61108
     -1311.472  
  23608936.055   126380478.32606     -3492.703    23608940.613    98295943.33306
     -2716.550  
  21955605.523   117241718.22304     -1540.063    21955610.659    91188015.32105
     -1197.831  
  21363347.134   113878680.31408      2436.770    21363353.359    88572344.21107
      1895.265  
  22186317.887   118723478.67908      2708.319    22186322.173    92340504.43807
      2106.472  
  19992159.192   106869572.51109      1722.069    19992163.443    83120809.86308
      1339.387  
  20611928.627   110221243.73905     -1677.413    20611934.453    85727660.94408
     -1304.659  
 20 09 30 07 24 45.0000000  0 15G15G18G20G 8G21G27G24G10G13R 4R13R14
                                R21R 5R20
  21098980.057   110875888.30349     -2372.405    21098979.753    86396795.90548
     -1848.633  
  21350903.098   112199744.03749     -2492.344    21350903.128    87428369.07547
     -1942.089  
  20073114.149   105484935.22649       833.526    20073113.109    82196053.04948
       649.499  
  24651966.974   129546963.44347       412.988    24651969.995   100945699.40645
       321.804  
  24957855.923   131154424.50047      2788.582    24957855.411   102198249.48844
      2172.917  
  24159470.732   126958873.78547     -1414.957    24159472.921    98928998.56046
     -1102.565  
  21074109.955   110745228.81549      1897.324    21074112.215    86294998.55648
      1478.434  
  22208643.444   116707234.31949      2653.871    22208645.368    90940720.84747
      2067.948  
  23615823.365   124101986.59047     -3442.534    23615823.632    96702848.32145
     -2682.496  
  19926322.912   106704557.27809     -1688.448    19926326.146    82992446.36008
     -1313.241  
  21957049.588   117249428.92004     -1543.934    21957054.618    91194012.53205
     -1200.840  
  21361063.309   113866506.20908      2432.714    21361069.499    88562875.46707
      1892.112  
  22183789.215   118709947.34008      2704.445    22183793.513    92329980.06807
      2103.456  
  19990549.575   106860968.28109      1719.788    19990553.837    83114117.68408
      1337.609  
  20613499.367   110229643.46905     -1682.292    20613505.252    85734194.06508
     -1308.448  
 20 09 30 07 24 50.0000000  0 15G15G18G20G 8G21G27G24G10G13R 4R13R14
                                R21R 5R20
  21101238.084   110887754.40749     -2374.148    21101237.798    86406042.21848
     -1849.988  
  21353275.474   112212211.01949     -2494.637    21353275.515    87438083.60147
     -1943.875  
  20072322.151   105480773.18649       831.121    20072321.106    82192809.89948
       647.625  
  24651575.426   129544905.81547       409.886    24651578.376   100944096.07345
       319.390  
  24955203.034   131140483.66447      2787.691    24955202.620   102187386.50144
      2172.222  
  24160818.496   126965956.39447     -1418.148    24160820.698    98934517.48246
     -1105.054  
  21072306.060   110735749.25149      1894.354    21072308.324    86287611.89048
      1476.121  
  22206118.803   116693967.21349      2652.784    22206120.715    90930382.84847
      2067.101  
  23619098.893   124119199.82247     -3443.375    23619099.174    96716261.21145
     -2683.155  
  19927900.153   106713003.36709     -1690.386    19927903.385    82999015.53908
     -1314.750  
  21958497.550   117257160.64504     -1548.698    21958502.514    91200026.09605
     -1204.542  
  21358782.846   113854350.05608      2429.367    21358789.029    88553420.68507
      1889.508  
  22181263.864   118696433.83108      2700.815    22181268.213    92319469.56107
      2100.632  
  19988941.838   106852373.97209      1717.780    19988946.087    83107433.22508
      1336.050  
  20615074.290   110238065.01205     -1686.116    20615080.139    85740744.15608
     -1311.425  
 20 09 30 07 24 55.0000000  0 15G15G18G20G 8G21G27G24G10G13R 4R13R14
                                R21R 5R20
  21103498.048   110899630.63049     -2376.070    21103497.761    86415296.42148
     -1851.487  
  21355650.438   112224691.53549     -2497.234    21355650.486    87447808.67847
     -1945.902  
  20071532.666   105476624.34949       828.683    20071531.609    82189577.04148
       645.727  
  24651186.984   129542864.62847       406.688    24651190.019   100942505.50345
       316.894  
  24952551.467   131126549.58447      2786.409    24952551.019   102176528.79845
      2171.229  
  24162169.168   126973054.03747     -1420.750    24162171.386    98940048.10445
     -1107.082  
  21070505.275   110726286.09249      1891.109    21070507.523    86280238.00748
      1473.590  
  22203595.379   116680706.65049      2651.495    22203597.316    90920049.94747
      2066.102  
  23622375.205   124136417.11547     -3443.492    23622375.525    96729677.28945
     -2683.246  
  19929479.388   106721460.06809     -1692.315    19929482.615    83005592.97308
     -1316.249  
  21959949.525   117264914.45204     -1552.694    21959954.554    91206056.83805
     -1207.655  
  21356505.927   113842212.80208      2425.804    21356512.113    88543980.60707
      1886.737  
  22178742.086   118682939.32307      2697.097    22178746.435    92308973.83807
      2097.737  
  19987336.111   106843790.44209      1715.707    19987340.346    83100757.14908
      1334.434  
  20616653.502   110246509.64305     -1691.241    20616659.333    85747312.19708
     -1315.413  
 20 09 30 07 25  0.0000000  0 15G15G18G20G 8G21G27G24G10G13R 4R13R14
                                R21R 5R20
  21105759.720   110911515.85649     -2377.886    21105759.459    86424557.63348
     -1852.902  
  21358027.772   112237184.48149     -2499.824    21358027.820    87457543.43447
     -1947.918  
  20070745.479   105472487.62549       826.175    20070744.416    82186353.61848
       643.773  
  24650801.485   129540838.84947       403.370    24650804.555   100940927.00045
       314.316  
  24949900.925   131112621.10847      2785.187    24949900.625   102165675.43744
      2170.277  
  24163522.486   126980165.64647     -1423.866    24163524.671    98945589.61145
     -1109.512  
  21068707.433   110716838.27449      1887.968    21068709.671    86272876.07148
      1471.145  
  22201072.988   116667451.52549      2650.496    22201074.950    90909721.28147
      2065.320  
  23625652.086   124153637.36947     -3444.651    23625652.439    96743095.64445
     -2684.147  
  19931060.392   106729926.17509     -1694.086    19931063.608    83012177.72308
     -1317.624  
  21961405.536   117272689.34504     -1557.070    21961410.532    91212103.97105
     -1211.058  
  21354232.352   113830093.43008      2422.016    21354238.535    88534554.43207
      1883.789  
  22176223.633   118669462.54008      2693.434    22176227.978    92298491.90407
      2094.894  
  19985732.203   106835216.63509      1713.753    19985736.445    83094088.63108
      1332.914  
  20618236.774   110254975.95405     -1695.358    20618242.598    85753897.10308
     -1318.578  
 20 09 30 07 25  5.0000000  0 15G15G18G20G 8G21G27G24G10G13R 4R13R14
                                R21R 5R20
  21108023.104   110923410.05349     -2379.562    21108022.841    86433825.83648
     -1854.206  
  21360407.463   112249689.84249     -2502.043    21360407.520    87467287.87647
     -1949.647  
  20069960.609   105468363.00949       823.949    20069959.521    82183139.63348
       642.038  
  24650418.880   129538828.34147       400.772    24650422.081   100939360.36245
       312.288  
  24947251.521   131098698.30347      2784.241    24947251.253   102154826.51645
      2169.539  
  24164878.440   126987291.20047     -1426.188    24164880.658    98951141.99845
     -1111.315  
  21066912.509   110707405.88449      1885.069    21066914.749    86265526.16548
      1468.886  
  22198551.651   116654201.84149      2649.542    22198553.634    90899396.85447
      2064.578  
  23628929.516   124170860.50547     -3444.910    23628929.825    96756516.27345
     -2684.347  
  19932643.166   106738401.70309     -1695.882    19932646.353    83018769.79908
     -1319.022  
  21962865.561   117280485.35804     -1561.632    21962870.482    91218167.53505
     -1214.605  
  21351962.088   113817991.86308      2418.788    21351968.297    88525142.10507
      1881.281  
  22173708.525   118656003.69008      2690.229    22173712.865    92288023.91707
      2092.401  
  19984130.115   106826652.59109      1711.948    19984134.348    83087427.70808
      1331.511  
  20619824.075   110263463.99405     -1699.440    20619829.926    85760498.90908
     -1321.792  
 20 09 30 07 25 10.0000000  0 15G15G18G20G 8G21G27G24G10G13R 4R13R14
                                R21R 5R20
  21110288.258   110935313.57749     -2381.234    21110288.013    86443101.30648
     -1855.512  
  21362789.586   112262207.92149     -2504.640    21362789.645    87477042.21847
     -1951.671  
  20069178.099   105464250.86049       821.547    20069177.006    82179935.36548
       640.163  
  24650039.307   129536833.54747       397.569    24650042.595   100937805.99544
       309.797  
  24944603.228   131084781.40047      2783.125    24944602.947   102143982.17645
      2168.667  
  24166237.097   126994430.99447     -1428.870    24166239.322    98956705.46946
     -1113.409  
  21065120.572   110697989.19649      1882.112    21065122.814    86258188.49048
      1466.581  
  22196031.412   116640957.92649      2648.457    22196033.402    90889076.92347
      2063.730  
  23632207.533   124188086.88147     -3445.312    23632207.897    96769939.39845
     -2684.668  
  19934227.732   106746886.92009     -1697.679    19934230.901    83025369.41608
     -1320.422  
  21964329.536   117288302.62304     -1565.276    21964334.419    91224247.62705
     -1217.440  
  21349695.246   113805908.47608      2415.218    21349701.472    88515743.92407
      1878.504  
  22171196.799   118642562.93408      2686.776    22171201.100    92277569.99307
      2089.711  
  19982529.913   106818098.55709      1710.152    19982534.148    83080774.57608
      1330.116  
  20621415.371   110271974.02505     -1703.891    20621421.351    85767117.81508
     -1325.253  
 20 09 30 07 25 15.0000000  0 15G15G18G20G 8G21G27G24G10G13R 4R13R14
                                R21R 5R20
  21112555.095   110947225.95049     -2383.496    21112554.832    86452383.67448
     -1857.273  
  21365174.028   112274738.24849     -2507.464    21365174.072    87486806.10947
     -1953.870  
  20068397.888   105460150.73249       818.741    20068396.776    82176740.45548
       637.977  
  24649662.639   129534854.08247       394.164    24649666.006   100936263.55145
       307.140  
  24941955.986   131070870.08247      2781.699    24941955.698   102133142.19845
      2167.559  
  24167598.382   127001584.62547     -1431.952    24167600.541    98962279.71545
     -1115.812  
  21063331.515   110688587.63749      1878.719    21063333.743    86250862.60748
      1463.937  
  22193512.186   116627719.36549      2647.050    22193514.173    90878761.16348
      2062.636  
  23635486.123   124205316.04947     -3446.272    23635486.484    96783364.72545
     -2685.406  
  19935814.057   106755381.55509     -1699.937    19935817.227    83031976.34708
     -1322.176  
  21965797.305   117296140.64804     -1569.815    21965802.221    91230343.86505
     -1220.972  
  21347431.780   113793842.83108      2411.300    21347437.995    88506359.53407
      1875.456  
  22168688.395   118629139.92508      2682.921    22168692.698    92267129.87807
      2086.714  
  19980931.525   106809554.22909      1707.776    19980935.763    83074128.98908
      1328.269  
  20623010.771   110280505.62805     -1708.398    20623016.810    85773753.50108
     -1328.757  
 20 09 30 07 25 20.0000000  0 14G15G18G20G 8G21G27G24G10G13R 4R14R21
                                R 5R20
  21114823.902   110959148.61249     -2385.292    21114823.645    86461674.05648
     -1858.671  
  21367561.090   112287282.34249     -2509.948    21367561.141    87496580.72547
     -1955.809  
  20067620.247   105456064.13849       816.133    20067619.131    82173556.09948
       635.949  
  24649289.169   129532891.23546       391.245    24649292.417   100934734.04845
       304.863  
  24939310.058   131056965.78947      2780.397    24939309.687   102122307.69244
      2166.542  
  24168962.576   127008753.57447     -1435.047    24168964.772    98967865.88546
     -1118.226  
  21061545.646   110679202.83249      1875.479    21061547.860    86243549.77648
      1461.414  
  22190994.244   116614487.61949      2645.820    22190996.247    90868450.71048
      2061.675  
  23638765.578   124222549.48247     -3446.901    23638765.798    96796793.37745
     -2685.902  
  19937402.390   106763886.91009     -1701.847    19937405.550    83038591.62608
     -1323.664  
  21345171.867   113781796.44408      2407.476    21345178.126    88496990.13107
      1872.480  
  22166183.661   118615736.21307      2679.008    22166187.887    92256704.76907
      2083.668  
  19979335.180   106801020.94309      1705.813    19979339.437    83067491.99408
      1326.742  
  20624610.509   110289060.33605     -1712.737    20624616.606    85780407.16108
     -1332.237  
 20 09 30 07 25 25.0000000  0 14G15G18G20G 8G21G27G24G10G13R 4R14R21
                                R 5R20
  21117094.372   110971080.07249     -2387.082    21117094.127    86470971.29748
     -1860.066  
  21369950.481   112299838.64649     -2512.632    21369950.510    87506364.85747
     -1957.897  
  20066844.877   105451989.53849       813.824    20066843.746    82170381.08648
       634.147  
  24648918.564   129530943.56747       387.968    24648921.757   100933216.38145
       302.308  
  24936665.162   131043066.98747      2779.363    24936664.844   102111477.43845
      2165.734  
  24170329.379   127015936.23547     -1437.910    24170331.596    98973462.77045
     -1120.453  
  21059762.707   110669833.45249      1872.371    21059764.919    86236248.96448
      1458.991  
  22188477.341   116601261.20449      2644.683    22188479.345    90858144.41747
      2060.793  
  23642045.511   124239785.64847     -3447.522    23642045.749    96810224.13245
     -2686.387  
  19938992.415   106772401.51809     -1703.972    19938995.615    83045214.09708
     -1325.315  
  21342915.275   113769767.82008      2403.780    21342921.588    88487634.53907
      1869.608  
  22163682.163   118602350.12908      2675.515    22163686.342    92246293.38007
      2080.953  
  19977740.672   106792497.35409      1703.776    19977744.931    83060862.53708
      1325.156  
  20626214.448   110297636.69104     -1717.382    20626220.433    85787077.65308
     -1335.702  
 20 09 30 07 25 30.0000000  0 14G15G18G20G 8G21G27G24G10G13R 4R14R21
                                R 5R20
  21119366.766   110983021.61449     -2389.594    21119366.519    86480276.39648
     -1862.019  
  21372342.415   112312408.46849     -2515.581    21372342.468    87516159.52247
     -1960.194  
  20066072.040   105447928.25649       810.593    20066070.902    82167216.45348
       631.633  
  24648551.093   129529012.40146       384.359    24648554.180   100931711.59045
       299.496  
  24934021.607   131029175.13847      2777.176    24934021.181   102100652.64444
      2164.030  
  24171699.054   127023133.98747     -1441.273    24171701.206    98979071.40745
     -1123.074  
  21057982.910   110660480.56049      1868.698    21057985.124    86228961.00048
      1456.129  
  22185961.697   116588041.43549      2643.022    22185963.709    90847843.30548
      2059.499  
  23645326.226   124257025.82547     -3448.496    23645326.375    96823658.03044
     -2687.140  
  19940584.403   106780926.72809     -1706.440    19940587.645    83051844.81408
     -1327.229  
  21340662.343   113757758.33108      2399.722    21340668.632    88478293.83107
      1866.448  
  22161184.268   118588983.23308      2671.113    22161188.380    92235896.90207
      2077.530  
  19976148.202   106783984.59509      1701.284    19976152.443    83054241.50008
      1323.222  
  20627822.437   110306235.70505     -1722.215    20627828.493    85793765.77908
     -1339.503  
 20 09 30 07 25 35.0000000  0 14G15G18G20G 8G21G27G24G10G13R 4R14R21
                                R 5R20
  21121641.008   110994972.74749     -2391.090    21121640.705    86489588.96348
     -1863.191  
  21374736.833   112324991.34649     -2517.737    21374736.923    87525964.35447
     -1961.879  
  20065301.656   105443879.79949       808.550    20065300.490    82164061.80748
       630.035  
  24648186.628   129527097.34346       381.219    24648189.739   100930219.32745
       297.046  
  24931379.273   131015289.61047      2776.375    24931378.961   102089832.75944
      2163.409  
  24173071.545   127030346.32147     -1443.878    24173073.734    98984691.39845
     -1125.104  
  21056206.144   110651143.68049      1865.933    21056208.375    86221685.51248
      1453.973  
  22183447.244   116574827.83349      2642.395    22183449.236    90837546.99147
      2059.003  
  23648607.622   124274269.55747     -3448.906    23648607.688    96837094.70644
     -2687.461  
  19942178.338   106789462.11909     -1707.910    19942181.576    83058483.44808
     -1328.379  
  21338412.875   113745767.46208      2396.519    21338419.177    88468967.60507
      1863.961  
  22158689.867   118575634.91008      2668.133    22158693.882    92225514.87707
      2075.214  
  19974557.679   106775482.40009      1699.647    19974561.939    83047628.68308
      1321.949  
  20629434.648   110314857.23705     -1726.511    20629440.776    85800471.40708
     -1342.847  
 20 09 30 07 25 40.0000000  0 15G15G18G20G 8G21G27G24G10G13R 4R13R14
                                R21R 5R20
  21123916.696   111006931.53549     -2392.351    21123916.386    86498907.49848
     -1864.175  
  21377133.371   112337585.30149     -2519.781    21377133.465    87535777.82547
     -1963.468  
  20064533.326   105439842.25649       806.538    20064532.173    82160915.67648
       628.473  
  24647824.872   129525196.36546       378.941    24647827.935   100928738.05145
       295.276  
  24928737.772   131001408.52147      2776.179    24928737.465   102079016.33745
      2163.253  
  24174446.379   127037571.25147     -1445.815    24174448.631    98990321.21445
     -1126.609  
  21054432.083   110641820.96149      1863.190    21054434.331    86214421.06448
      1451.835  
  22180933.561   116561618.46649      2641.687    22180935.594    90827253.98447
      2058.456  
  23651889.314   124291514.90047     -3449.218    23651889.272    96850532.62044
     -2687.710  
  19943773.773   106798005.53409     -1709.594    19943777.014    83065128.32708
     -1329.687  
  21973196.834   117335644.53014     -1589.952    21973201.870    91261077.87815
     -1236.629  
  21336166.517   113733793.23608      2393.273    21336172.851    88459654.32207
      1861.433  
  22156198.549   118562303.27008      2664.949    22156202.526    92215145.83207
      2072.738  
  19972968.724   106766988.64909      1698.004    19972973.008    83041022.43708
      1320.668  
  20631050.698   110323499.04405     -1730.444    20631056.854    85807192.81808
     -1345.905  
 20 09 30 07 25 45.0000000  0 15G15G18G20G 8G21G27G24G10G13R 4R13R14
                                R21R 5R20
  21126193.853   111018898.01449     -2394.391    21126193.516    86508232.02748
     -1865.761  
  21379532.033   112350190.38349     -2522.395    21379532.116    87545599.96347
     -1965.507  
  20063767.108   105435815.65849       803.917    20063765.928    82157778.06448
       626.425  
  24647465.779   129523309.44147       375.699    24647468.901   100927267.74045
       292.753  
  24926097.123   130987531.87846      2774.883    24926096.798   102068203.37244
      2162.241  
  24175823.632   127044808.85847     -1448.941    24175825.883    98995960.89346
     -1129.051  
  21052660.709   110632512.39049      1860.120    21052662.970    86207167.63748
      1449.445  
  22178420.710   116548413.40649      2640.328    22178422.747    90816964.32848
      2057.398  
  23655171.295   124308761.85947     -3449.812    23655171.276    96863971.81544
     -2688.163  
  19945370.690   106806557.07809     -1711.437    19945373.938    83071779.52208
     -1331.120  
  21974688.316   117343608.68004     -1594.558    21974693.305    91267272.20805
     -1240.214  
  21333923.329   113721835.77908      2389.644    21333929.665    88450354.08707
      1858.612  
  22153710.326   118548988.40908      2661.055    22153714.332    92204789.82507
      2069.711  
  19971381.404   106758503.42209      1696.000    19971385.672    83034422.81708
      1319.108  
  20632670.552   110332161.34905     -1735.183    20632676.763    85813930.16408
     -1349.590  
 20 09 30 07 25 50.0000000  0 15G15G18G20G 8G21G27G24G10G13R 4R13R14
                                R21R 5R20
  21128473.055   111030875.23649     -2396.491    21128472.698    86517564.92548
     -1867.402  
  21381933.389   112362809.59549     -2525.215    21381933.465    87555433.11447
     -1967.703  
  20063003.542   105431803.09249       801.141    20063002.348    82154651.39448
       624.266  
  24647109.988   129521439.71347       372.210    24647113.179   100925810.80645
       290.030  
  24923457.899   130973662.88447      2772.776    24923457.628   102057396.38144
      2160.604  
  24177203.855   127052062.16247     -1452.104    24177206.096    99001612.82546
     -1131.512  
  21050892.633   110623221.12049      1856.519    21050894.885    86199927.68948
      1446.636  
  22175909.255   116535215.65249      2638.809    22175911.307    90806680.37047
      2056.214  
  23658454.197   124326013.52947     -3451.094    23658454.028    96877414.66644
     -2689.168  
  19946969.711   106815119.89009     -1713.526    19946972.983    83078439.49108
     -1332.746  
  21976183.893   117351595.47904     -1599.109    21976188.923    91273484.16305
     -1243.753  
  21331683.876   113709898.17608      2385.573    21331690.187    88441069.29007
      1855.445  
  22151225.830   118535693.34008      2656.922    22151229.826    92194449.22507
      2066.496  
  19969796.224   106750029.78909      1693.608    19969800.504    83027832.21708
      1317.250  
  20634294.765   110340847.02905     -1739.102    20634301.044    85820685.69308
     -1352.637  
 20 09 30 07 25 55.0000000  0 15G15G18G20G 8G21G27G24G10G13R 4R13R14
                                R21R 5R20
  21130754.142   111042862.39949     -2398.223    21130753.794    86526905.57248
     -1868.749  
  21384337.283   112375442.14648     -2527.594    21384337.358    87565276.65447
     -1969.559  
  20062242.484   105427803.73949       798.738    20062241.289    82151535.01548
       622.395  
  24646757.305   129519586.35346       368.895    24646760.480   100924366.62445
       287.449  
  24920819.955   130959800.58246      2771.812    24920819.712   102046594.61545
      2159.854  
  24178586.956   127059330.34747     -1455.148    24178589.189    99007276.35946
     -1133.882  
  21049127.698   110613946.35349      1853.468    21049129.957    86192700.60348
      1444.261  
  22173399.045   116522024.47049      2637.828    22173401.101    90796401.52747
      2055.449  
  23661737.827   124343269.05847     -3451.461    23661737.719    96890860.55144
     -2689.453  
  19948570.696   106823693.15109     -1715.492    19948573.978    83085107.57808
     -1334.277  
  21977683.499   117359604.06904     -1603.332    21977688.689    91279713.06405
     -1247.038  
  21329447.983   113697979.60508      2381.878    21329454.264    88431799.29407
      1852.573  
  22148744.879   118522417.26808      2653.327    22148748.885    92184123.40307
      2063.699  
  19968213.097   106741566.97409      1691.624    19968217.352    83021250.02808
      1315.680  
  20635923.364   110349555.47305     -1743.844    20635929.582    85827458.92708
     -1356.327  
 20 09 30 07 26  0.0000000  0 15G15G18G20G 8G21G27G24G10G13R 4R13R14
                                R21R 5R20
  21133037.059   111054859.11449     -2400.534    21133036.693    86536253.66248
     -1870.551  
  21386743.645   112388087.69449     -2530.480    21386743.717    87575130.32747
     -1971.808  
  20061483.876   105423817.25849       795.844    20061482.686    82148428.66148
       620.132  
  24646407.672   129517749.01847       365.558    24646410.783   100922934.92745
       284.847  
  24918183.256   130945944.72947      2770.105    24918183.102   102035797.82545
      2158.523  
  24179972.822   127066613.05847     -1457.965    24179975.067    99012951.17345
     -1136.082  
  21047365.811   110604687.64049      1849.995    21047368.083    86185486.02348
      1441.550  
  22170890.030   116508839.47649      2636.413    22170892.089    90786127.51047
      2054.348  
  23665022.143   124360528.13447     -3452.355    23665021.946    96904309.16244
     -2690.152  
  19950173.569   106832276.49509     -1717.820    19950176.864    83091783.50908
     -1336.085  
  21979187.233   117367634.26904     -1608.063    21979192.487    91285958.77305
     -1250.719  
  21327215.600   113686079.68408      2378.113    21327221.847    88422543.80307
      1849.645  
  22146267.451   118509159.92708      2649.440    22146271.417    92173812.13007
      2060.672  
  19966631.926   106733114.67609      1689.246    19966636.183    83014676.01908
      1313.858  
  20637555.941   110358286.12605     -1747.944    20637562.258    85834249.43308
     -1359.516  
 20 09 30 07 26  5.0000000  0 15G15G18G20G 8G21G27G24G10G13R 4R13R14
                                R21R 5R20
  21135321.561   111066864.19249     -2401.769    21135321.206    86545608.26748
     -1871.511  
  21389152.244   112400745.02949     -2532.581    21389152.351    87584993.18347
     -1973.444  
  20060727.505   105419842.46949       793.859    20060726.310    82145331.43048
       618.590  
  24646060.854   129515926.63447       363.159    24646064.046   100921514.87645
       282.976  
  24915547.571   130932094.11047      2769.594    24915547.502   102025005.14345
      2158.125  
  24181361.188   127073909.09847     -1460.440    24181363.436    99018636.40645
     -1138.007  
  21045606.808   110595444.04649      1847.210    21045609.094    86178283.22748
      1439.387  
  22168381.959   116495659.53949      2635.488    22168384.023    90775857.43348
      2053.628  
  23668306.903   124377789.53847     -3452.664    23668306.649    96917759.62944
     -2690.391  
  19951778.087   106840868.64709     -1719.117    19951781.380    83098466.29308
     -1337.093  
  21980694.870   117375684.84404     -1611.964    21980700.071    91292220.32905
     -1253.754  
  21324986.529   113674197.42108      2374.687    21324992.744    88413302.05007
      1846.980  
  22143793.265   118495920.06008      2646.391    22143797.241    92163514.46607
      2058.305  
  19965052.526   106724671.63009      1687.758    19965056.737    83008109.21008
      1312.698  
  20639192.600   110367038.04505     -1752.602    20639198.918    85841056.48208
     -1363.132  
 20 09 30 07 26 10.0000000  0 15G15G18G20G 8G21G27G24G10G13R 4R13R14
                                R21R 5R20
  21137607.830   111078878.61649     -2403.797    21137607.498    86554970.15448
     -1873.093  
  21391563.270   112413415.11649     -2535.202    21391563.409    87594865.97247
     -1975.488  
  20059973.535   105415880.33249       791.245    20059972.325    82142244.04748
       616.550  
  24645717.032   129514120.02947       359.991    24645720.190   100920107.12345
       280.508  
  24912913.036   130918249.72447      2768.266    24912912.926   102014217.33744
      2157.093  
  24182752.317   127081219.43647     -1463.219    24182754.611    99024332.75145
     -1140.175  
  21043850.830   110586216.35349      1844.108    21043853.132    86171092.82548
      1436.969  
  22165875.022   116482485.58949      2634.340    22165877.098    90765592.02248
      2052.730  
  23671592.311   124395054.19448     -3453.065    23671592.063    96931212.60144
     -2690.702  
  19953384.421   106849470.62009     -1721.151    19953387.737    83105156.71208
     -1338.680  
  21982206.306   117383756.73404     -1616.421    21982211.692    91298498.46905
     -1257.218  
  21322760.938   113662333.61008      2371.145    21322767.094    88404074.64407
      1844.222  
  22141322.581   118482698.80208      2642.500    22141326.542    92153231.27107
      2055.276  
  19963474.997   106716238.83409      1685.691    19963479.209    83001550.37008
      1311.093  
  20640833.354   110375811.79905     -1757.047    20640839.662    85847880.51108
     -1366.597  
 20 09 30 07 26 15.0000000  0 15G15G18G20G 8G21G27G24G10G13R 4R13R14
                                R21R 5R20
  21139896.049   111090903.32049     -2405.805    21139895.731    86564340.05448
     -1874.651  
  21393976.905   112426098.88649     -2537.992    21393977.066    87604749.42847
     -1977.660  
  20059222.146   105411931.81749       788.430    20059220.956    82139167.28648
       614.359  
  24645376.436   129512330.27746       356.687    24645379.583   100918712.51945
       277.937  
  24910279.898   130904412.55447      2766.792    24910279.807   102003435.12344
      2155.937  
  24184146.329   127088545.01747     -1466.448    24184148.634    99030040.98345
     -1142.691  
  21042098.056   110577005.49149      1840.534    21042100.349    86163915.53548
      1434.183  
  22163369.419   116469318.58849      2632.804    22163371.501    90755332.02148
      2051.530  
  23674878.504   124412323.06348     -3454.086    23674878.131    96944668.84244
     -2691.500  
  19954992.812   106858083.45109     -1723.526    19954996.114    83111855.57908
     -1340.522  
  21983722.174   117391850.88604     -1620.628    21983727.504    91304793.91705
     -1260.492  
  21320538.981   113650489.36208      2367.074    21320545.153    88394862.46107
      1841.059  
  22138855.456   118469496.94108      2638.659    22138859.459    92142963.15707
      2052.292  
  19961899.569   106707817.26709      1683.406    19961903.782    82995000.26908
      1309.315  
  20642478.392   110384608.74905     -1761.897    20642484.737    85854722.58708
     -1370.367  
 20 09 30 07 26 20.0000000  0 15G15G18G20G 8G21G27G24G10G13R 4R13R14
                                R21R 5R20
  21142185.730   111102935.70549     -2407.370    21142185.417    86573715.93648
     -1875.879  
  21396392.660   112438793.76749     -2540.441    21396392.814    87614641.54347
     -1979.569  
  20058472.886   105407994.37049       786.219    20058471.692    82136099.14548
       612.636  
  24645038.542   129510554.56646       353.737    24645041.679   100917328.86145
       275.640  
  24907647.633   130890579.97147      2765.770    24907647.392   101992656.48044
      2155.141  
  24185542.769   127095883.23247     -1469.116    24185545.148    99035759.06846
     -1144.770  
  21040348.001   110567808.95549      1837.613    21040350.316    86156749.40848
      1431.905  
  22160864.668   116456155.99949      2631.995    22160866.744    90745075.46148
      2050.901  
  23678165.012   124429593.65548     -3454.566    23678164.568    96958126.47244
     -2691.870  
  19956602.704   106866704.41109     -1725.101    19956605.996    83118560.77308
     -1341.796  
  21985241.620   117399964.73704     -1624.690    21985247.003    91311104.68205
     -1263.651  
  21318320.183   113638661.94908      2363.690    21318326.346    88385663.36507
      1838.425  
  22136391.533   118456312.05308      2635.019    22136395.542    92132708.25307
      2049.460  
  19960325.755   106699404.33209      1681.608    19960329.967    82988456.87008
      1307.913  
  20644127.281   110393426.03405     -1765.526    20644133.612    85861580.46808
     -1373.191  
 20 09 30 07 26 25.0000000  0 15G15G18G20G 8G21G27G24G10G13R 4R13R14
                                R21R 5R20
  21144477.138   111114977.13549     -2409.261    21144476.854    86583098.86248
     -1877.351  
  21398810.775   112451501.07649     -2542.960    21398810.939    87624543.33247
     -1981.530  
  20057725.971   105404069.33249       783.534    20057724.782    82133040.67248
       610.543  
  24644703.588   129508794.46947       350.272    24644706.762   100915957.36845
       272.941  
  24905016.522   130876753.35447      2764.770    24905016.300   101981882.50545
      2154.366  
  24186941.852   127103235.40447     -1471.664    24186944.239    99041488.04945
     -1146.750  
  21038600.941   110558628.06149      1834.465    21038603.250    86149595.46848
      1429.453  
  22158361.009   116442999.15549      2630.617    22158363.104    90734823.38147
      2049.831  
  23681452.139   124446867.31348     -3455.484    23681451.706    96971586.47044
     -2692.589  
  19958214.427   106875334.99009     -1727.207    19958217.687    83125273.44208
     -1343.386  
  21986764.955   117408099.60304     -1629.655    21986770.418    91317431.80505
     -1267.512  
  21316104.817   113626852.86508      2359.891    21316111.000    88376478.52507
      1835.469  
  22133931.039   118443145.38608      2631.401    22133934.990    92122467.51207
      2046.645  
  19958753.824   106691001.39609      1679.500    19958758.026    82981921.25808
      1306.226  
  20645780.269   110402264.96205     -1770.202    20645786.535    85868455.18708
     -1376.828  
 20 09 30 07 26 30.0000000  0 15G15G18G20G 8G21G27G24G10G13R 4R13R14
                                R21R 5R20
  21146770.476   111127028.74049     -2411.284    21146770.199    86592489.72848
     -1878.926  
  21401231.486   112464221.99749     -2545.538    21401231.620    87634455.74247
     -1983.534  
  20056981.630   105400157.82649       780.972    20056980.447    82129992.74748
       608.546  
  24644371.845   129507051.17947       346.933    24644375.026   100914598.96645
       270.332  
  24902386.741   130862933.91747      2763.144    24902386.656   101971114.11744
      2153.101  
  24188343.801   127110602.75847     -1475.124    24188346.170    99047228.84546
     -1149.449  
  21036857.062   110549464.03949      1831.289    21036859.396    86142454.67548
      1426.976  
  22155858.639   116429849.23449      2629.359    22155860.764    90724576.68748
      2048.851  
  23684740.022   124464145.06948     -3455.948    23684739.501    96985049.63044
     -2692.953  
  19959828.126   106883976.27309     -1729.355    19959831.356    83131994.44108
     -1345.059  
  21988292.363   117416256.49904     -1633.901    21988297.920    91323776.05805
     -1270.815  
  21313893.079   113615063.27608      2356.070    21313899.328    88367308.85207
      1832.500  
  22131474.180   118429998.30108      2627.473    22131478.137    92112242.00607
      2043.590  
  19957183.986   106682609.64609      1677.086    19957188.183    82975394.34208
      1304.394  
  20647437.517   110411126.91605     -1774.625    20647443.766    85875347.82208
     -1380.265  
 20 09 30 07 26 35.0000000  0 15G15G18G20G 8G21G27G24G10G13R 4R13R14
                                R21R 5R20
  21149065.489   111139089.14949     -2412.964    21149065.233    86601887.44648
     -1880.233  
  21403654.525   112476955.15648     -2547.917    21403654.666    87644377.67947
     -1985.394  
  20056239.644   105396258.60249       778.655    20056238.449    82126954.38848
       606.741  
  24644043.025   129505323.21647       344.116    24644046.089   100913252.52445
       268.148  
  24899758.070   130849120.28447      2762.082    24899758.003   101960350.28345
      2152.276  
  24189748.365   127117983.88347     -1477.526    24189750.793    99052980.35645
     -1151.323  
  21035116.137   110540315.48149      1828.257    21035118.485    86135325.93648
      1424.616  
  22153357.346   116416704.88349      2628.434    22153359.472    90714334.34348
      2048.129  
  23688028.422   124481425.53648     -3456.210    23688028.045    96998514.94744
     -2693.152  
  19961443.577   106892626.84609     -1730.940    19961446.767    83138722.66508
     -1346.289  
  21989823.800   117424434.25604     -1637.375    21989829.341    91330136.52505
     -1273.519  
  21311684.774   113603291.79908      2352.507    21311691.037    88358153.26307
      1829.726  
  22129020.687   118416869.25808      2624.198    22129024.654    92102030.53007
      2041.042  
  19955615.960   106674227.65209      1675.395    19955620.158    82968875.01408
      1303.081  
  20649098.853   110420010.35805     -1779.034    20649105.020    85882257.15608
     -1383.698  
 20 09 30 07 26 40.0000000  0 15G15G18G20G 8G21G27G24G10G13R 4R13R14
                                R21R 5R20
  21151362.268   111151158.89549     -2415.050    21151362.036    86611292.43848
     -1881.862  
  21406079.984   112489701.09148     -2550.593    21406080.159    87654309.57447
     -1987.480  
  20055500.087   105392372.17149       775.813    20055498.894    82123926.00248
       604.526  
  24643717.188   129503611.15046       340.563    24643720.263   100911918.44446
       265.375  
  24897130.596   130835312.94446      2760.973    24897130.445   101949591.30845
      2151.406  
  24191155.688   127125379.32347     -1480.757    24191158.060    99058743.03246
     -1153.840  
  21033378.273   110531183.03649      1824.801    21033380.624    86128209.75048
      1421.921  
  22150857.225   116403566.68849      2626.934    22150859.365    90704096.79448
      2046.960  
  23691317.436   124498709.30048     -3457.507    23691317.118    97011982.80944
     -2694.159  
  19963060.854   106901287.29009     -1733.219    19963064.030    83145458.56908
     -1348.058  
  21991359.302   117432633.31804     -1641.714    21991364.770    91336513.57305
     -1276.894  
  21309479.977   113591538.99308      2348.473    21309486.249    88349012.19707
      1826.590  
  22126570.714   118403758.98908      2619.785    22126574.697    92091833.66507
      2037.608  
  19954049.840   106665856.00009      1673.098    19954054.068    82962363.73408
      1301.297  
  20650764.143   110428915.78505     -1783.272    20650770.373    85889183.60208
     -1387.258  
 20 09 30 07 26 45.0000000  0 15G15G18G20G 8G21G27G24G10G13R 4R13R14
                                R21R 5R20
  21153660.809   111163237.84049     -2416.647    21153660.591    86620704.60448
     -1883.105  
  21408507.846   112502459.62148     -2552.890    21408508.021    87664251.29147
     -1989.265  
  20054762.922   105388498.34449       773.543    20054761.754    82120907.44248
       602.761  
  24643394.372   129501914.83547       337.660    24643397.396   100910596.64144
       263.109  
  24894504.327   130821511.89947      2759.753    24894504.263   101938837.25445
      2150.457  
  24192565.669   127132788.91447     -1482.938    24192568.002    99064516.72945
     -1155.538  
  21031643.467   110522066.59949      1821.641    21031645.817    86121106.03748
      1419.460  
  22148358.234   116390434.46649      2626.003    22148360.388    90693863.89948
      2046.237  
  23694607.041   124515996.13548     -3457.605    23694606.684    97025453.06444
     -2694.242  
  19964679.975   106909957.51409     -1734.961    19964683.134    83152202.08008
     -1349.414  
  21992898.736   117440853.49604     -1646.656    21992904.146    91342907.05005
     -1280.734  
  21307278.610   113579804.74808      2345.104    21307284.938    88339885.57307
      1823.972  
  22124124.190   118390667.24008      2616.695    22124128.177    92081651.19507
      2035.207  
  19952485.627   106657494.53909      1671.362    19952489.885    82955860.37908
      1299.948  
  20652433.744   110437843.26905     -1787.578    20652439.865    85896127.20208
     -1390.414  
 20 09 30 07 26 50.0000000  0 15G15G18G20G 8G21G27G24G10G13R 4R13R14
                                R21R 5R20
  21155961.055   111175325.74649     -2418.684    21155960.858    86630123.75548
     -1884.691  
  21410938.056   112515230.52348     -2555.668    21410938.249    87674202.63947
     -1991.434  
  20054028.120   105384636.93149       770.780    20054026.958    82117898.54848
       600.608  
  24643074.541   129500234.01747       334.145    24643077.509   100909286.88045
       260.363  
  24891879.188   130807716.85646      2758.191    24891879.205   101928087.85945
      2149.234  
  24193978.338   127140212.44947     -1486.215    24193980.663    99070301.30946
     -1158.094  
  21029911.655   110512965.90049      1818.456    21029914.030    86114014.59348
      1416.980  
  22145860.340   116377308.00549      2624.465    22145862.521    90683635.48948
      2045.039  
  23697897.193   124533285.87148     -3458.434    23697896.728    97038925.58644
     -2694.886  
  19966300.871   106918637.27809     -1737.062    19966304.017    83158953.00208
     -1351.051  
  21994441.993   117449094.61804     -1651.155    21994447.482    91349316.81405
     -1284.238  
  21305080.710   113568088.86108      2341.254    21305087.069    88330773.22407
      1820.976  
  22121681.094   118377593.80408      2612.530    22121685.085    92071482.96807
      2031.968  
  19950923.299   106649143.03409      1669.148    19950927.556    82949364.76508
      1298.227  
  20654107.225   110446792.18805     -1791.851    20654113.349    85903087.46608
     -1393.668  
 20 09 30 07 26 55.0000000  0 15G15G18G20G 8G21G27G24G10G13R 4R13R14
                                R21R 5R20
  21158263.106   111187423.13749     -2420.234    21158262.914    86639550.28648
     -1885.901  
  21413370.731   112528014.31948     -2558.063    21413370.916    87684164.03647
     -1993.301  
  20053295.776   105380788.44249       768.366    20053294.631    82114899.72848
       598.727  
  24642757.767   129498569.33047       331.417    24642760.684   100907989.72244
       258.242  
  24889255.283   130793928.42147      2757.207    24889255.394   101917343.66745
      2148.477  
  24195393.712   127147650.38047     -1488.819    24195396.054    99076097.09846
     -1160.120  
  21028182.930   110503881.45049      1815.242    21028185.309    86106935.80348
      1414.473  
  22143363.661   116364187.84049      2623.352    22143365.837    90673411.98648
      2044.171  
  23701187.994   124550579.05847     -3458.944    23701187.656    97052400.79344
     -2695.285  
  19967923.637   106927326.99109     -1738.867    19967926.775    83165711.67008
     -1352.456  
  21995989.159   117457357.08704     -1654.245    21995994.790    91355743.17005
     -1286.641  
  21302886.374   113556391.87608      2337.542    21302892.736    88321675.56507
      1818.089  
  22119241.568   118364539.27908      2609.063    22119245.551    92061329.45007
      2029.269  
  19949362.955   106640802.10009      1667.093    19949367.213    82942877.37608
      1296.644  
  20655784.821   110455763.42305     -1796.405    20655791.016    85910065.09708
     -1397.203  
 20 09 30 07 27  0.0000000  0 15G15G18G20G 8G21G27G24G10G13R 4R13R14
                                R21R 5R20
  21160566.964   111199530.02249     -2422.496    21160566.769    86648984.21948
     -1887.664  
  21415805.856   112540811.01748     -2560.776    21415806.047    87694135.49047
     -1995.409  
  20052565.899   105376952.90949       765.499    20052564.761    82111910.99948
       596.491  
  24642444.049   129496920.76246       327.913    24642447.060   100906705.14246
       255.519  
  24886632.685   130780146.54547      2755.644    24886632.683   101906604.54245
      2147.257  
  24196811.880   127155102.74947     -1492.047    24196814.243    99081904.12546
     -1162.637  
  21026457.293   110494813.26249      1811.855    21026459.684    86099869.68948
      1411.836  
  22140868.162   116351073.99749      2621.977    22140870.356    90663193.41048
      2043.097  
  23704479.476   124567875.69247     -3459.895    23704479.137    97065878.70345
     -2696.023  
  19969548.242   106936026.77309     -1741.190    19969551.406    83172478.16608
     -1354.265  
  21997540.559   117465641.13004     -1658.637    21997546.125    91362186.31605
     -1290.054  
  21300695.617   113544713.81708      2333.637    21300701.971    88312592.63907
      1815.051  
  22116805.557   118351503.69608      2605.187    22116809.549    92051190.66907
      2026.258  
  19947804.586   106632471.72209      1664.801    19947808.843    82936398.19208
      1294.840  
  20657466.598   110464756.76505     -1800.800    20657472.792    85917059.90908
     -1400.769  
 20 09 30 07 27  5.0000000  0 15G15G18G20G 8G21G27G24G10G13R 4R13R14
                                R21R 5R20
  21162872.469   111211645.56949     -2424.125    21162872.288    86658424.90548
     -1888.933  
  21418243.286   112553619.76948     -2563.136    21418243.484    87704116.32547
     -1997.254  
  20051838.335   105373129.53649       763.472    20051837.190    82108931.74848
       594.913  
  24642133.200   129495287.36046       325.086    24642136.344   100905432.34545
       253.309  
  24884011.197   130766370.43947      2754.429    24884011.239   101895869.91844
      2146.308  
  24198232.607   127162568.75147     -1494.723    24198234.982    99087721.78445
     -1164.722  
  21024734.586   110485760.37549      1808.835    21024736.985    86092815.49148
      1409.483  
  22138373.721   116337965.68149      2620.918    22138375.936    90652979.14348
      2042.272  
  23707771.411   124585174.92747     -3460.242    23707771.067    97079358.60344
     -2696.297  
  19971174.605   106944735.81109     -1742.848    19971177.787    83179251.86008
     -1355.550  
  21999095.818   117473945.91304     -1662.612    21999101.291    91368645.59005
     -1293.148  
  21298508.258   113533053.89808      2330.128    21298514.608    88303523.81507
      1812.323  
  22114372.969   118338486.26908      2601.445    22114376.924    92041066.00407
      2023.347  
  19946248.009   106624151.01909      1662.953    19946252.275    82929926.53008
      1293.401  
  20659152.382   110473771.56205     -1805.328    20659158.594    85924071.40908
     -1404.073  
 20 09 30 07 27 10.0000000  0 15G15G18G20G 8G21G27G24G10G13R 4R13R14
                                R21R 5R20
  21165179.618   111223769.77849     -2425.645    21165179.448    86667872.33948
     -1890.116  
  21420682.998   112566440.57149     -2565.258    21420683.210    87714106.56347
     -1998.905  
  20051113.093   105369318.33249       761.027    20051111.949    82105961.97948
       593.004  
  24641825.268   129493669.19746       322.210    24641828.482   100904171.45044
       251.073  
  24881390.776   130752600.03346      2753.487    24881390.756   101885139.72945
      2145.569  
  24199655.961   127170048.37147     -1497.417    24199658.297    99093550.05445
     -1166.823  
  21023014.820   110476722.97549      1805.867    21023017.220    86085773.37148
      1407.167  
  22135880.344   116324862.86749      2620.172    22135882.561    90642769.15848
      2041.688  
  23711063.846   124602476.82148     -3460.604    23711063.545    97092840.59544
     -2696.578  
  19972802.673   106953454.00709     -1744.625    19972805.870    83186032.67408
     -1356.934  
  22000655.022   117482271.22304     -1666.840    22000660.308    91375120.82505
     -1296.434  
  21296324.302   113521412.09208      2326.676    21296330.628    88294469.07907
      1809.637  
  22111943.731   118325486.95408      2598.125    22111947.730    92030955.43107
      2020.766  
  19944693.250   106615840.00809      1661.320    19944697.522    82923462.41608
      1292.136  
  20660842.305   110482807.77805     -1810.012    20660848.413    85931099.58008
     -1407.430  
