     2.11           OBSERVATION DATA    M                   RINEX VERSION / TYPE
LEICA GEO OFFICE 8.4                    29-9-20 09:17       PGM / RUN BY / DATE
                                                            OBSERVER / AGENCY
UGL1                                                        MARKER NAME
UGL1                                                        MARKER NUMBER
196020              LEICA GX1230+ GNSS  7.50                REC # / TYPE / VERS
                    LEIAX1203+GNSS                          ANT # / TYPE
 -1194788.5336  3840599.8857  4934482.5893                  APPROX POSITION XYZ
        1.4110        0.0000        0.0000                  ANTENNA: DELTA H/E/N
L1PhaOff:   0.0585  L2PhaOff:   0.0555                      COMMENT
     1     1                                                WAVELENGTH FACT L1/2
     8    C1    L1    D1    S1    P2    L2    D2    S2      # / TYPES OF OBSERV
  2020     9    28     8    55   45.0000000     GPS         TIME OF FIRST OBS
  2020     9    28    10    53   55.0000000     GPS         TIME OF LAST OBS
    18                                                      LEAP SECONDS
    24                                                      # OF SATELLITES
          C1    L1    D1    S1    P2    L2    D2    S2      COMMENT
   G 1   956   955   956   956   954   954   954   954      PRN / # OF OBS
   G 2     0     0     0     0     0     0     0     0      PRN / # OF OBS
   G 3     0     0     0     0     0     0     0     0      PRN / # OF OBS
   G 4     0     0     0     0     0     0     0     0      PRN / # OF OBS
   G 5     0     0     0     0     0     0     0     0      PRN / # OF OBS
   G 6     0     0     0     0     0     0     0     0      PRN / # OF OBS
   G 7     0     0     0     0     0     0     0     0      PRN / # OF OBS
   G 8     0     0     0     0     0     0     0     0      PRN / # OF OBS
   G 9     0     0     0     0     0     0     0     0      PRN / # OF OBS
   G10  1419  1419  1419  1419  1419  1419  1419  1419      PRN / # OF OBS
   G11   892   892   892   892   891   891   891   891      PRN / # OF OBS
   G12  1419  1419  1419  1419  1419  1419  1419  1419      PRN / # OF OBS
   G13     0     0     0     0     0     0     0     0      PRN / # OF OBS
   G14     0     0     0     0     0     0     0     0      PRN / # OF OBS
   G15   256   254   256   256   256   254   256   256      PRN / # OF OBS
   G16     0     0     0     0     0     0     0     0      PRN / # OF OBS
   G17     0     0     0     0     0     0     0     0      PRN / # OF OBS
   G18    19    19    19    19    19    19    19    19      PRN / # OF OBS
   G19     0     0     0     0     0     0     0     0      PRN / # OF OBS
   G20  1282  1282  1282  1282  1282  1282  1282  1282      PRN / # OF OBS
   G21  1419  1419  1419  1419  1419  1419  1419  1419      PRN / # OF OBS
   G22   421   421   421   421   420   420   420   420      PRN / # OF OBS
   G23     0     0     0     0     0     0     0     0      PRN / # OF OBS
   G24  1368  1368  1368  1368  1368  1368  1368  1368      PRN / # OF OBS
   G25  1106  1106  1106  1106  1104  1104  1104  1104      PRN / # OF OBS
   G26     0     0     0     0     0     0     0     0      PRN / # OF OBS
   G27     0     0     0     0     0     0     0     0      PRN / # OF OBS
   G28     0     0     0     0     0     0     0     0      PRN / # OF OBS
   G29     0     0     0     0     0     0     0     0      PRN / # OF OBS
   G30     0     0     0     0     0     0     0     0      PRN / # OF OBS
   G31   889   889   889   889   888   888   888   888      PRN / # OF OBS
   G32  1419  1419  1419  1419  1419  1419  1419  1419      PRN / # OF OBS
   R 1     0     0     0     0     0     0     0     0      PRN / # OF OBS
   R 2   460   460   460   460   460   460   460   460      PRN / # OF OBS
   R 3  1419  1419  1419  1419  1419  1419  1419  1419      PRN / # OF OBS
   R 4  1419  1419  1419  1419  1419  1419  1419  1419      PRN / # OF OBS
   R 5   898   898   898   898   897   897   897   897      PRN / # OF OBS
   R 6     0     0     0     0     0     0     0     0      PRN / # OF OBS
   R 7     0     0     0     0     0     0     0     0      PRN / # OF OBS
   R 8     0     0     0     0     0     0     0     0      PRN / # OF OBS
   R 9     0     0     0     0     0     0     0     0      PRN / # OF OBS
   R10     0     0     0     0     0     0     0     0      PRN / # OF OBS
   R11     0     0     0     0     0     0     0     0      PRN / # OF OBS
   R12   816   816   816   816   816   816   816   816      PRN / # OF OBS
   R13  1419  1419  1419  1419  1419  1419  1419  1419      PRN / # OF OBS
   R14  1419  1419  1419  1419  1419  1419  1419  1419      PRN / # OF OBS
   R15   458   458   458   458   457   457   457   457      PRN / # OF OBS
   R16     0     0     0     0     0     0     0     0      PRN / # OF OBS
   R17     0     0     0     0     0     0     0     0      PRN / # OF OBS
   R18     0     0     0     0     0     0     0     0      PRN / # OF OBS
   R19   628   628   628   628   628   628   628   628      PRN / # OF OBS
   R20  1150  1150  1150  1150  1150  1150  1150  1150      PRN / # OF OBS
   R21   606   606   606   606   585   582   585   585      PRN / # OF OBS
   R22     0     0     0     0     0     0     0     0      PRN / # OF OBS
   R23     0     0     0     0     0     0     0     0      PRN / # OF OBS
   R24     0     0     0     0     0     0     0     0      PRN / # OF OBS
                                                            END OF HEADER
 20 09 28 08 55 45.0000000  0 16G15G11G18G21G20G12G24G10G32R13R14R 2
                                R 3R12R19R 4
  23993464.200   126086502.35307       654.904          41.850    23993462.000  
  98249205.13246       654.904          39.700  
  24086664.620   126576278.51106      -221.085          41.300    24086660.780  
  98630844.82743      -221.085          30.650  
  24529799.780   128904922.90007       735.481          42.000    24529798.200  
 100445370.87145       735.482          38.100  
  23108279.300   121434846.23608      -134.840          46.700    23108274.660  
  94624544.61247      -134.840          42.750  
  20557275.700   108029240.19909       360.095          49.850    20557270.980  
  84178625.71048       360.095          45.600  
  24311422.200   127757393.10207      -631.622          41.600    24311420.080  
  99551207.51146      -631.623          38.950  
  20904196.020   109852329.40509       287.988          49.100    20904194.160  
  85599219.37748       287.988          47.500  
  20480195.320   107624187.48009      -140.916          51.600    20480193.260  
  83863010.86649      -140.916          49.400  
  22253951.520   116945342.83909      -501.415          48.650    22253950.520  
  91126250.70447      -501.415          44.150  
  20346563.600   108649544.54106      -422.466          39.650    20346567.440  
  84505232.44507      -422.466          42.950  
  23382830.800   124643650.49707      -857.497          42.100    23382837.780  
  96945079.32106      -857.497          40.700  
  22014298.720   117472518.35508       587.356          45.100    22014302.920  
  91367531.25607       587.356          43.400  
  19407313.320   103888917.37109        69.105          49.750    19407314.220  
  80802508.03408        69.105          47.350  
  21101816.300   112722150.16408       374.006          47.850    21101820.240  
  87672806.10408       374.005          45.050  
  21680153.500   115974201.17505       440.450          38.400    21680155.380  
  90202158.41907       440.450          42.000  
  20996868.140   112437314.04708      -516.739          48.300    20996869.100  
  87451257.50908      -516.740          45.700  
 20 09 28 08 55 50.0000000  0 16G15G11G18G21G20G12G24G10G32R13R14R 2
                                R 3R12R19R 4
  23996739.340   126103713.12507       655.129          41.950    23996737.100  
  98262616.09846       655.131          39.800  
  24085561.000   126570478.65406      -220.378          40.450    24085557.660  
  98626325.47544      -220.379          32.550  
  24533477.940   128924251.89806       735.684          41.350    24533476.380  
 100460432.42646       735.684          38.700  
  23107606.540   121431310.88708      -134.199          46.650    23107601.920  
  94621789.80347      -134.200          41.950  
  20559077.640   108038709.34209       360.684          49.600    20559072.880  
  84186004.25948       360.685          45.750  
  24308264.900   127740801.50506      -631.367          41.050    24308262.820  
  99538279.00645      -631.367          37.800  
  20905637.640   109859905.11709       288.639          49.250    20905635.780  
  85605122.53148       288.639          47.100  
  20479492.260   107620492.94609      -140.304          51.450    20479490.220  
  83860132.00449      -140.304          49.500  
  22251445.400   116932172.99209      -501.088          48.750    22251444.400  
  91115988.50647      -501.089          44.000  
  20344453.480   108638276.74906      -421.676          39.400    20344457.380  
  84496468.62107      -421.676          42.850  
  23378543.620   124620797.67307      -857.383          42.050    23378550.680  
  96927304.92206      -857.384          40.950  
  22017236.420   117488194.18908       587.701          44.650    22017240.540  
  91379723.57107       587.701          43.350  
  19407660.220   103890774.21509        69.660          49.750    19407661.060  
  80803952.24608        69.660          47.400  
  21103688.480   112732151.06208       374.868          47.450    21103692.340  
  87680584.57808       374.868          45.000  
  21682358.220   115985994.44005       441.358          38.000    21682359.980  
  90211330.96507       441.358          41.950  
  20994285.380   112423483.31308      -516.397          47.750    20994286.320  
  87440500.27208      -516.398          45.750  
 20 09 28 08 55 55.0000000  0 16G15G11G18G21G20G12G24G10G32R13R14R 2
                                R 3R12R19R 4
  24000015.320   126120928.39507       655.231          42.250    24000013.080  
  98276030.60546       655.230          38.950  
  24084460.520   126564697.78206      -219.584          39.050    24084455.940  
  98621820.89344      -219.584          33.800  
  24537156.700   128943584.09106       735.749          41.100    24537155.160  
 100475496.46246       735.749          39.000  
  23106936.800   121427791.58008      -133.641          46.700    23106932.220  
  94619047.48447      -133.642          42.000  
  20560882.560   108048194.30209       361.251          49.400    20560877.820  
  84193395.13148       361.252          45.550  
  24305109.000   127724217.27206      -631.021          40.200    24305107.020  
  99525356.25245      -631.021          37.900  
  20907082.720   109867498.84809       289.319          49.300    20907080.860  
  85611039.73248       289.319          47.100  
  20478792.220   107616814.26109      -139.732          51.350    20478790.180  
  83857265.50249      -139.732          49.450  
  22248940.900   116919011.61409      -500.776          48.750    22248939.860  
  91105732.89947      -500.776          44.000  
  20342347.560   108627031.70206      -420.778          39.000    20342351.600  
  84487722.49207      -420.779          42.950  
  23374257.400   124597949.92207      -857.176          42.050    23374264.560  
  96909534.46106      -857.176          41.450  
  22020175.680   117503878.62507       587.980          44.300    22020179.820  
  91391922.56007       587.981          43.650  
  19408009.920   103892646.05009        70.179          49.750    19408010.720  
  80805408.12408        70.179          47.350  
  21105564.960   112742174.65108       375.670          47.650    21105568.700  
  87688380.72208       375.669          45.250  
  21684567.000   115997809.23105       442.121          38.150    21684568.640  
  90220520.23407       442.122          42.300  
  20991704.260   112409661.53808      -516.103          47.400    20991705.180  
  87429750.01108      -516.103          45.650  
 20 09 28 08 56  0.0000000  0 16G15G11G18G21G20G12G24G10G32R13R14R 2
                                R 3R12R19R 4
  24003291.300   126138143.61307       655.142          42.650    24003288.980  
  98289445.04645       655.143          38.000  
  24083362.820   126558931.25006      -219.236          39.400    24083358.900  
  98617327.48945      -219.236          36.000  
  24540835.200   128962914.96006       735.542          40.650    24540833.700  
 100490559.46745       735.542          37.700  
  23106269.220   121424283.80208      -133.344          46.750    23106264.720  
  94616314.15447      -133.344          42.050  
  20562689.660   108057690.55109       361.605          49.600    20562684.900  
  84200794.80248       361.606          46.250  
  24301953.660   127707635.77006      -631.059          40.850    24301951.720  
  99512435.60945      -631.059          37.750  
  20908530.300   109875105.89009       289.720          49.150    20908528.440  
  85616967.30048       289.720          47.350  
  20478094.340   107613146.89509      -139.396          51.400    20478092.300  
  83854407.82349      -139.397          49.550  
  22246437.120   116905854.16709      -500.736          48.750    22246436.080  
  91095480.35547      -500.737          43.200  
  20340245.060   108615804.61306      -420.212          39.000    20340249.140  
  84478990.31807      -420.212          42.800  
  23369971.280   124575102.61607      -857.242          41.800    23369978.540  
  96891764.35007      -857.243          41.550  
  22023115.620   117519566.81007       588.036          44.300    22023119.800  
  91404124.45607       588.037          43.700  
  19408361.560   103894528.21909        70.478          49.450    19408362.280  
  80806872.03508        70.478          47.350  
  21107444.820   112752216.40608       376.267          47.750    21107448.480  
  87696190.98208       376.266          45.300  
  21686778.820   116009641.07805       442.661          37.650    21686780.540  
  90229722.78007       442.662          42.600  
  20989123.960   112395844.15608      -516.012          47.150    20989124.880  
  87419003.16908      -516.013          45.750  
 20 09 28 08 56  5.0000000  0 16G15G11G18G21G20G12G24G10G32R13R14R 2
                                R 3R12R19R 4
  24006567.460   126155359.68907       655.215          42.450    24006565.000  
  98302860.16946       655.216          39.000  
  24082268.200   126553180.05506      -218.612          39.700    24082265.820  
  98612846.05544      -218.612          32.000  
  24544513.660   128982245.42406       735.642          41.100    24544512.180  
 100505622.14346       735.643          38.550  
  23105604.060   121420788.44108      -132.854          46.750    23105599.600  
  94613590.49647      -132.854          41.750  
  20564499.080   108067198.92009       362.039          49.400    20564494.300  
  84208203.91648       362.039          46.000  
  24298799.040   127691057.95106      -630.876          40.950    24298797.080  
  99499517.83746      -630.876          38.600  
  20909980.600   109882727.24209       290.271          49.100    20909978.740  
  85622906.01548       290.271          47.150  
  20477398.780   107609491.74709      -138.923          51.450    20477396.760  
  83851559.65049      -138.923          49.450  
  22243934.280   116892701.53809      -500.525          48.700    22243933.180  
  91085231.56247      -500.525          43.600  
  20338146.120   108604596.50306      -419.489          38.900    20338150.240  
  84470272.90307      -419.489          42.900  
  23365685.420   124552256.73607      -857.219          41.650    23365692.760  
  96873995.35907      -857.220          41.700  
  22026056.360   117535259.53507       588.225          44.200    22026060.660  
  91416329.89107       588.226          43.300  
  19408715.260   103896421.60009        70.893          49.450    19408715.940  
  80808344.66108        70.893          47.400  
  21109328.300   112762277.14508       376.993          47.700    21109331.840  
  87704015.99508       376.994          45.550  
  21688994.060   116021490.89705       443.296          36.900    21688995.760  
  90238939.30107       443.296          42.250  
  20986544.640   112382032.03608      -515.833          47.300    20986545.560  
  87408260.40708      -515.834          45.850  
 20 09 28 08 56 10.0000000  0 16G15G11G18G21G20G12G24G10G32R13R14R 2
                                R 3R12R19R 4
  24009844.040   126172577.94707       655.408          42.750    24009841.460  
  98316276.99745       655.408          36.300  
  24081176.680   126547445.49806      -217.838          38.750    24081173.920  
  98608377.57543      -217.838          29.200  
  24548192.300   129001576.78106       735.842          40.800    24548190.840  
 100520685.52945       735.843          37.200  
  23104941.500   121417306.84308      -132.124          46.250    23104937.080  
  94610877.57647      -132.124          42.650  
  20566311.040   108076720.76809       362.740          49.350    20566306.280  
  84215623.54048       362.740          45.950  
  24295645.380   127674485.14306      -630.599          41.350    24295643.320  
  99486603.99545      -630.601          37.950  
  20911433.800   109890364.11709       290.999          48.700    20911431.980  
  85628856.82348       290.999          47.050  
  20476705.820   107605850.17009      -138.270          51.600    20476703.780  
  83848722.05949      -138.270          49.600  
  22241432.600   116879555.10809      -500.162          48.650    22241431.440  
  91074987.59647      -500.163          43.650  
  20336051.040   108593408.79705      -418.528          38.350    20336055.160  
  84461571.34807      -418.528          42.850  
  23361400.000   124529413.65706      -856.924          40.800    23361407.500  
  96856228.56607      -856.926          41.750  
  22028998.300   117550958.56007       588.594          43.850    22029002.660  
  91428540.23307       588.595          43.250  
  19409071.340   103898327.68409        71.526          49.300    19409072.000  
  80809827.17508        71.526          47.500  
  21111215.560   112772358.27408       377.905          47.700    21111219.020  
  87711856.86308       377.905          45.650  
  21691212.800   116033359.99905       444.222          36.300    21691214.560  
  90248170.82107       444.222          42.350  
  20983966.580   112368226.60708      -515.413          47.150    20983967.500  
  87397522.85508      -515.414          45.850  
 20 09 28 08 56 15.0000000  0 16G15G11G18G21G20G12G24G10G32R13R14R 2
                                R 3R12R19R 4
  24013120.820   126189797.37407       655.393          42.700    24013118.180  
  98329694.69145       655.394          37.350  
  24080088.320   126541726.56606      -217.397          38.600    24080085.660  
  98603921.25244      -217.396          35.150  
  24551870.860   129020908.00206       735.817          40.400    24551869.440  
 100535748.80945       735.817          38.050  
  23104281.360   121413837.95208      -131.791          46.650    23104276.980  
  94608174.55247      -131.792          42.600  
  20568125.380   108086255.11609       363.080          49.400    20568120.620  
  84223052.90448       363.080          45.900  
  24292492.480   127657916.41806      -630.502          41.300    24292490.380  
  99473693.31745      -630.504          37.800  
  20912889.780   109898015.50109       291.463          48.700    20912888.000  
  85634818.94448       291.463          47.100  
  20476015.240   107602221.15809      -137.903          51.650    20476013.200  
  83845894.25649      -137.903          49.450  
  22238931.880   116866413.85109      -500.051          48.600    22238930.700  
  91064747.66247      -500.052          43.100  
  20333959.600   108582240.46106      -417.994          38.800    20333963.700  
  84452884.86607      -417.994          42.900  
  23357114.980   124506572.33106      -857.019          41.300    23357122.520  
  96838463.11707      -857.021          41.650  
  22031941.180   117566662.53807       588.666          43.300    22031945.600  
  91440754.43207       588.667          43.100  
  19409429.560   103900245.29609        71.846          49.300    19409430.260  
  80811318.65108        71.846          47.600  
  21113106.460   112782458.81308       378.516          47.900    21113109.860  
  87719712.82708       378.516          45.750  
  21693434.880   116045247.24405       444.726          36.950    21693436.760  
  90257416.45407       444.725          42.050  
  20981389.560   112354426.80908      -515.299          47.200    20981390.500  
  87386789.68908      -515.300          45.900  
 20 09 28 08 56 20.0000000  0 16G15G11G18G21G20G12G24G10G32R13R14R 2
                                R 3R12R19R 4
  24016398.320   126207020.62707       655.598          42.700    24016395.600  
  98343115.42445       655.598          37.650  
  24079003.520   126536025.93006      -216.623          39.550    24079001.180  
  98599479.23344      -216.623          32.750  
  24555549.980   129040241.67406       735.906          40.750    24555548.500  
 100550813.99646       735.906          38.600  
  23103624.180   121410384.46408      -131.145          47.350    23103619.800  
  94605483.53646      -131.146          40.900  
  20569942.580   108095804.57109       363.723          49.600    20569937.840  
  84230494.04148       363.723          45.250  
  24289340.780   127641354.36707      -630.224          41.850    24289338.620  
  99460787.84345      -630.225          37.250  
  20914349.060   109905684.17509       292.183          48.650    20914347.300  
  85640794.53648       292.183          46.950  
  20475327.560   107598607.37609      -137.241          51.700    20475325.520  
  83843078.32349      -137.241          49.150  
  22236432.620   116853280.40309      -499.699          48.750    22236431.420  
  91054513.81147      -499.699          43.250  
  20331872.300   108571094.24006      -417.074          39.200    20331876.360  
  84444215.58607      -417.074          42.650  
  23352830.740   124483735.44607      -856.774          41.750    23352838.380  
  96820701.10807      -856.775          42.150  
  22034885.580   117582374.41507       589.023          43.000    22034890.020  
  91452974.78707       589.023          42.900  
  19409790.440   103902177.26709        72.450          49.400    19409791.220  
  80812821.29508        72.450          47.600  
  21115001.480   112792581.22608       379.390          48.050    21115004.800  
  87727585.82108       379.390          45.800  
  21695660.980   116057155.49305       445.593          37.800    21695662.900  
  90266678.43307       445.593          42.000  
  20978814.060   112340635.37808      -514.937          47.050    20978815.080  
  87376063.02708      -514.938          45.950  
 20 09 28 08 56 25.0000000  0 16G15G11G18G21G20G12G24G10G32R13R14R 2
                                R 3R12R19R 4
  24019676.140   126224245.37207       655.468          42.750    24019673.280  
  98356537.27246       655.469          38.600  
  24077921.840   126530341.29506      -216.113          39.300    24077918.560  
  98595049.64144      -216.113          33.300  
  24559229.060   129059575.53106       735.709          41.150    24559227.600  
 100565879.32045       735.709          36.550  
  23102969.520   121406944.07608      -130.761          47.750    23102965.120  
  94602802.72346      -130.761          40.900  
  20571762.220   108105366.81509       364.090          49.600    20571757.500  
  84237945.12948       364.090          45.400  
  24286189.920   127624796.76207      -630.190          41.850    24286187.700  
  99447885.81145      -630.191          37.400  
  20915811.140   109913367.69909       292.645          48.700    20915809.420  
  85646781.68748       292.646          46.850  
  20474642.340   107595006.48109      -136.874          51.600    20474640.300  
  83840272.43949      -136.875          49.300  
  22233934.400   116840152.46809      -499.618          48.750    22233933.200  
  91044284.25347      -499.617          42.900  
  20329788.660   108559967.71606      -416.431          39.550    20329792.720  
  84435561.62507      -416.431          42.600  
  23348546.940   124460900.69107      -856.789          41.900    23348554.680  
  96802940.77207      -856.791          41.850  
  22037830.900   117598091.51907       589.112          43.200    22037835.440  
  91465199.17407       589.113          43.450  
  19410153.580   103904121.15709        72.760          49.450    19410154.360  
  80814333.20308        72.760          47.350  
  21116900.160   112802723.34808       379.995          47.850    21116903.440  
  87735474.13208       379.995          45.650  
  21697890.540   116069082.26705       446.202          37.200    21697892.500  
  90275954.81507       446.202          41.950  
  20976239.660   112326849.91208      -514.831          47.400    20976240.780  
  87365341.01008      -514.831          45.750  
 20 09 28 08 56 30.0000000  0 16G15G11G18G21G20G12G24G10G32R13R14R 2
                                R 3R12R19R 4
  24022953.920   126241470.44007       655.561          42.700    24022951.100  
  98369959.40146       655.561          39.350  
  24076842.880   126524671.45906      -215.443          39.600    24076839.780  
  98590631.56444      -215.441          33.400  
  24562907.960   129078908.37506       735.792          39.850    24562906.520  
 100580943.87445       735.793          36.200  
  23102317.160   121403515.58308      -130.195          47.750    23102312.680  
  94600131.16246      -130.195          41.450  
  20573584.040   108114940.66009       364.631          49.550    20573579.360  
  84245405.26248       364.631          45.750  
  24283039.660   127608242.41207      -629.938          41.550    24283037.460  
  99434986.34446      -629.938          38.550  
  20917275.820   109921064.80409       293.240          48.950    20917274.120  
  85652779.43048       293.240          47.100  
  20473959.340   107591417.31309      -136.327          51.650    20473957.300  
  83837475.67949      -136.327          49.350  
  22231437.000   116827028.85509      -499.364          48.600    22231435.820  
  91034058.07347      -499.365          43.800  
  20327708.460   108548859.70606      -415.630          39.350    20327712.540  
  84426922.06107      -415.630          42.750  
  23344263.360   124438066.96206      -856.684          40.650    23344271.140  
  96785181.23407      -856.685          42.050  
  22040777.080   117613812.95607       589.381          43.950    22040781.700  
  91477426.95807       589.381          42.950  
  19410518.720   103906075.76909        73.277          49.650    19410519.500  
  80815853.46108        73.277          47.300  
  21118802.240   112812883.88308       380.814          48.000    21118805.520  
  87743376.77908       380.814          45.450  
  21700123.380   116081026.27605       446.994          37.300    21700125.320  
  90285244.58507       446.995          41.900  
  20973666.140   112313069.18508      -514.566          47.550    20973667.360  
  87354622.66308      -514.566          45.800  
 20 09 28 08 56 35.0000000  0 16G15G11G18G21G20G12G24G10G32R13R14R 2
                                R 3R12R19R 4
  24026232.460   126258699.05007       655.782          42.400    24026229.560  
  98383384.28846       655.782          38.600  
  24075767.420   126519019.61306      -214.742          39.650    24075764.800  
  98586227.54944      -214.742          33.900  
  24566587.240   129098243.41906       735.971          40.600    24566585.880  
 100596010.12046       735.972          39.250  
  23101667.660   121400102.21708      -129.603          47.600    23101663.120  
  94597471.40246      -129.603          40.900  
  20575408.720   108124529.34209       365.229          49.750    20575404.080  
  84252876.95448       365.229          45.400  
  24279890.680   127591694.53206      -629.679          41.100    24279888.480  
  99422091.90646      -629.679          39.900  
  20918743.720   109928778.76009       293.906          49.150    20918742.020  
  85658790.31348       293.906          46.550  
  20473279.180   107587843.10009      -135.739          51.650    20473277.140  
  83834690.58049      -135.739          49.250  
  22228941.060   116813912.80208      -499.040          47.900    22228939.880  
  91023837.79447      -499.040          43.900  
  20325632.420   108537773.55706      -414.797          39.300    20325636.460  
  84418299.50907      -414.798          42.450  
  23339980.520   124415237.42206      -856.499          40.400    23339988.400  
  96767424.96507      -856.501          42.100  
  22043724.700   117629541.79407       589.664          43.900    22043729.280  
  91489660.49707       589.664          42.300  
  19410886.460   103908044.37509        73.823          49.650    19410887.260  
  80817384.60908        73.822          47.250  
  21120708.400   112823066.08008       381.646          48.100    21120711.660  
  87751296.26908       381.646          45.600  
  21702360.060   116092990.92505       447.707          37.750    21702362.020  
  90294550.41807       447.707          41.800  
  20971094.180   112299296.58008      -514.216          47.200    20971095.440  
  87343910.63608      -514.216          45.650  
 20 09 28 08 56 40.0000000  0 16G15G11G18G21G20G12G24G10G32R13R14R 2
                                R 3R12R19R 4
  24029511.180   126275928.75307       655.911          43.100    24029508.280  
  98396810.00745       655.912          37.200  
  24074694.960   126513383.42206      -214.094          39.650    24074692.300  
  98581835.67744      -214.093          32.150  
  24570266.560   129117578.20306       735.836          39.850    24570265.180  
 100611076.16445       735.837          37.350  
  23101020.600   121396701.61308      -129.094          47.550    23101015.960  
  94594821.56047      -129.093          41.550  
  20577235.760   108134130.44609       365.750          49.750    20577231.120  
  84260358.33048       365.750          45.600  
  24276742.400   127575150.75507      -629.506          41.650    24276740.340  
  99409200.68445      -629.507          38.500  
  20920214.420   109936507.29309       294.500          49.250    20920212.680  
  85664812.55748       294.500          46.050  
  20472601.420   107584281.47909      -135.225          51.600    20472599.380  
  83831915.28749      -135.225          49.250  
  22226446.100   116800801.91408      -498.787          48.150    22226444.940  
  91013621.52847      -498.787          44.100  
  20323559.960   108526706.77106      -414.001          39.400    20323564.040  
  84409692.03207      -414.002          42.900  
  23335697.960   124392409.68406      -856.357          41.150    23335706.000  
  96749670.08707      -856.359          41.950  
  22046673.280   117645275.71307       589.891          43.950    22046677.760  
  91501897.98907       589.891          42.400  
  19411256.360   103910024.58009        74.293          49.600    19411257.180  
  80818924.76708        74.293          47.150  
  21122618.140   112833267.60008       382.397          47.600    21122621.400  
  87759230.76908       382.398          45.550  
  21704600.140   116104973.69305       448.436          38.150    21704602.120  
  90303870.34207       448.437          41.850  
  20968523.300   112285529.72008      -513.989          47.200    20968524.600  
  87333203.08508      -513.989          45.600  
 20 09 28 08 56 45.0000000  0 16G15G11G18G21G20G12G24G10G32R13R14R 2
                                R 3R12R19R 4
  24032790.520   126293161.45707       655.856          43.150    24032787.520  
  98410238.07545       655.857          38.200  
  24073625.820   126507764.75606      -213.594          39.700    24073623.580  
  98577457.51344      -213.595          32.750  
  24573946.160   129136914.66506       735.826          39.700    24573944.840  
 100626143.53245       735.826          38.250  
  23100376.280   121393315.61208      -128.672          47.650    23100371.580  
  94592183.11646      -128.672          41.300  
  20579065.520   108143745.82909       366.141          49.750    20579060.880  
  84267850.83448       366.141          45.750  
  24273595.280   127558612.99807      -629.398          42.000    24273593.320  
  99396314.15146      -629.399          39.850  
  20921688.180   109944251.99909       294.963          49.050    20921686.420  
  85670847.38248       294.963          47.050  
  20471926.400   107580734.28509      -134.813          51.450    20471924.380  
  83829151.23849      -134.813          49.350  
  22223952.500   116787698.08608      -498.664          48.450    22223951.340  
  91003410.75847      -498.664          43.550  
  20321491.460   108515661.27506      -413.403          39.400    20321495.580  
  84401101.08907      -413.403          42.700  
  23331416.160   124369585.70507      -856.437          41.500    23331424.260  
  96731918.12507      -856.438          41.950  
  22049623.200   117661016.56007       590.001          44.200    22049627.520  
  91514140.86407       590.001          42.600  
  19411628.820   103912018.29709        74.638          49.750    19411629.600  
  80820475.42708        74.638          47.200  
  21124531.820   112843490.12208       383.061          47.550    21124535.080  
  87767181.61708       383.061          45.600  
  21706843.920   116116976.44105       449.035          37.550    21706845.960  
  90313205.80807       449.036          41.900  
  20965953.820   112271770.32408      -513.859          47.550    20965955.140  
  87322501.33708      -513.859          45.600  
 20 09 28 08 56 50.0000000  0 16G15G11G18G21G20G12G24G10G32R13R14R 2
                                R 3R12R19R 4
  24036069.880   126310394.72907       656.059          43.100    24036066.900  
  98423666.58445       656.060          37.850  
  24072559.540   126502161.18306      -212.772          38.850    24072557.540  
  98573091.11245      -212.772          35.700  
  24577625.580   129156250.35306       736.063          40.400    24577624.320  
 100641210.28945       736.065          37.300  
  23099734.320   121389941.82708      -127.979          47.550    23099729.540  
  94589554.20047      -127.979          41.750  
  20580897.540   108153373.08609       366.801          49.750    20580892.900  
  84275352.58448       366.801          45.800  
  24270448.860   127542078.79907      -629.033          42.950    24270447.020  
  99383430.37645      -629.034          37.750  
  20923164.600   109952010.67809       295.726          49.000    20923162.820  
  85676893.10648       295.726          46.900  
  20471253.660   107577199.13409      -134.143          51.600    20471251.680  
  83826396.57849      -134.143          49.400  
  22221459.760   116774598.88609      -498.270          48.550    22221458.620  
  90993203.59047      -498.270          43.750  
  20319426.620   108504634.69406      -412.512          39.400    20319430.660  
  84392524.85607      -412.512          42.850  
  23327134.640   124346763.06307      -856.087          41.600    23327142.780  
  96714167.19807      -856.088          42.050  
  22052573.940   117676761.83108       590.358          44.550    22052578.120  
  91526387.17807       590.359          42.700  
  19412003.320   103914023.00009        75.269          49.700    19412004.080  
  80822034.63908        75.269          47.150  
  21126448.980   112853731.38008       383.964          47.800    21126452.280  
  87775147.04208       383.964          45.650  
  21709091.000   116128996.69105       449.858          37.800    21709093.040  
  90322554.88307       449.858          41.700  
  20963385.300   112258016.03808      -513.433          47.850    20963386.640  
  87311803.55908      -513.433          45.450  
 20 09 28 08 56 55.0000000  0 16G15G11G18G21G20G12G24G10G32R13R14R 2
                                R 3R12R19R 4
  24039350.060   126327631.90207       656.078          43.150    24039347.000  
  98437098.12945       656.079          38.200  
  24071496.840   126496576.05806      -212.252          38.950    24071494.560  
  98568739.06945      -212.252          36.300  
  24581305.540   129175588.55506       735.979          39.800    24581304.240  
 100656279.00445       735.979          38.350  
  23099095.280   121386583.56508      -127.531          47.550    23099090.440  
  94586937.37547      -127.531          41.500  
  20582732.440   108163015.51609       367.254          49.750    20582727.820  
  84282866.15848       367.254          45.850  
  24267303.840   127525551.56307      -628.894          43.750    24267302.020  
  99370552.04346      -628.895          38.600  
  20924644.320   109959786.64609       296.226          48.700    20924642.500  
  85682952.30848       296.225          47.250  
  20470583.860   107573679.39209      -133.688          51.500    20470581.900  
  83823653.92749      -133.688          49.300  
  22218968.560   116761507.65208      -498.127          48.050    22218967.440  
  90983002.63748      -498.127          44.600  
  20317365.920   108493630.44606      -411.768          39.300    20317369.900  
  84383965.98107      -411.768          42.650  
  23322854.020   124323945.19006      -856.021          41.400    23322862.200  
  96696419.98407      -856.022          42.400  
  22055526.100   117692514.93007       590.557          43.800    22055530.200  
  91538639.57207       590.558          42.750  
  19412380.520   103916042.17109        75.685          49.400    19412381.260  
  80823605.11308        75.685          47.000  
  21128370.260   112863994.67608       384.656          47.400    21128373.600  
  87783129.60508       384.656          45.550  
  21711341.900   116141037.84705       450.510          37.200    21711344.020  
  90331920.24306       450.509          41.400  
  20960818.420   112244270.36208      -513.259          47.600    20960819.720  
  87301112.47508      -513.259          45.400  
 20 09 28 08 57  0.0000000  0 16G15G11G18G21G20G12G24G10G32R13R14R 2
                                R 3R12R19R 4
  24042630.060   126344868.32607       655.904          43.550    24042626.960  
  98450529.08945       655.905          38.250  
  24070436.680   126491004.74306      -211.771          39.750    24070433.760  
  98564397.77444      -211.772          32.500  
  24584985.080   129194924.67606       735.830          39.250    24584983.840  
 100671346.10145       735.831          37.550  
  23098458.300   121383236.19908      -127.207          46.850    23098453.460  
  94584329.03046      -127.207          41.200  
  20584569.360   108172668.51209       367.563          49.750    20584564.760  
  84290387.97148       367.564          45.700  
  24264159.260   127509026.64407      -628.898          43.800    24264157.500  
  99357675.48146      -628.898          38.950  
  20926126.420   109967575.14709       296.634          48.750    20926124.560  
  85689021.27848       296.634          46.600  
  20469916.100   107570170.38409      -133.384          51.450    20469914.160  
  83820919.63749      -133.385          49.400  
  22216477.980   116748419.76008      -498.073          48.350    22216476.880  
  90972804.28647      -498.074          43.850  
  20315308.420   108482643.75206      -411.181          38.900    20315312.440  
  84375420.75707      -411.180          42.700  
  23318573.420   124301127.34506      -856.113          41.150    23318581.640  
  96678672.79307      -856.114          42.250  
  22058478.800   117708271.23707       590.576          43.250    22058482.900  
  91550894.46007       590.577          43.000  
  19412759.520   103918071.00409        75.965          49.250    19412760.220  
  80825183.09408        75.964          47.000  
  21130294.780   112874275.28508       385.209          47.350    21130298.140  
  87791125.62608       385.209          45.400  
  21713595.960   116153095.28305       451.064          37.150    21713598.040  
  90341298.24307       451.064          41.550  
  20958252.260   112230528.47508      -513.193          47.600    20958253.480  
  87290424.34308      -513.193          45.300  
 20 09 28 08 57  5.0000000  0 16G15G11G18G21G20G12G24G10G32R13R14R 2
                                R 3R12R19R 4
  24045910.460   126362106.65807       656.149          43.650    24045907.300  
  98463961.55145       656.150          37.750  
  24069379.720   126485449.85006      -211.002          40.650    24069376.520  
  98560069.33344      -211.003          34.000  
  24588664.680   129214261.30206       736.033          39.400    24588663.560  
 100686413.59545       736.033          35.600  
  23097823.880   121379902.38608      -126.554          47.200    23097819.060  
  94581731.26047      -126.553          42.250  
  20586408.780   108182334.68709       368.192          49.750    20586404.200  
  84297920.05548       368.192          45.800  
  24261015.660   127492506.67807      -628.578          44.200    24261013.880  
  99344802.81346      -628.579          38.850  
  20927611.420   109975378.90609       297.332          48.950    20927609.540  
  85695102.13048       297.332          47.100  
  20469250.900   107566674.75809      -132.721          51.450    20469248.980  
  83818195.77349      -132.721          49.250  
  22213988.560   116735337.83209      -497.713          48.900    22213987.460  
  90962610.58047      -497.713          43.250  
  20313254.820   108471677.28406      -410.306          38.550    20313258.760  
  84366891.27607      -410.306          42.650  
  23314293.360   124278312.16606      -855.873          40.850    23314301.560  
  96660927.67807      -855.874          42.150  
  22061432.580   117724033.44507       590.942          43.100    22061436.740  
  91563153.94107       590.943          43.000  
  19413140.840   103920112.22909        76.563          49.450    19413141.540  
  80826770.72008        76.563          46.900  
  21132223.100   112884575.94408       386.094          47.150    21132226.440  
  87799137.25208       386.094          45.450  
  21715853.440   116165171.41805       451.928          37.250    21715855.540  
  90350690.77407       451.929          41.700  
  20955687.340   112216793.07008      -512.830          47.750    20955688.460  
  87279741.26308      -512.831          45.000  
 20 09 28 08 57 10.0000000  0 16G15G11G18G21G20G12G24G10G32R13R14R 2
                                R 3R12R19R 4
  24049191.340   126379347.56007       656.111          43.550    24049188.140  
  98477395.99345       656.112          38.150  
  24068325.960   126479912.08306      -210.485          40.900    24068322.780  
  98555754.16844      -210.486          34.900  
  24592344.460   129233599.05406       735.905          40.000    24592343.420  
 100701481.93145       735.907          38.050  
  23097192.180   121376582.83308      -126.131          46.950    23097187.380  
  94579144.59347      -126.131          41.900  
  20588250.860   108192014.73009       368.592          49.600    20588246.240  
  84305462.93848       368.593          45.400  
  24257873.200   127475992.41907      -628.469          44.200    24257871.360  
  99331934.56946      -628.470          39.600  
  20929099.440   109983198.61709       297.838          49.050    20929097.580  
  85701195.40948       297.838          46.700  
  20468588.360   107563193.22409      -132.304          51.450    20468586.460  
  83815482.88749      -132.304          49.350  
  22211500.360   116722262.57608      -497.605          48.450    22211499.320  
  90952422.07347      -497.605          43.850  
  20311205.080   108460731.91306      -409.640          39.300    20311209.020  
  84358378.21107      -409.639          42.600  
  23310013.920   124255500.44406      -855.935          40.800    23310022.140  
  96643185.24407      -855.936          42.350  
  22064387.580   117739802.00607       591.042          43.300    22064391.740  
  91575418.35707       591.043          43.100  
  19413524.620   103922166.62209        76.916          49.450    19413525.300  
  80828368.58608        76.916          47.100  
  21134155.240   112894897.13708       386.737          47.050    21134158.560  
  87807164.85508       386.736          45.300  
  21718114.640   116177267.07505       452.479          37.900    21718116.680  
  90360098.50706       452.479          40.950  
  20953123.740   112203064.90708      -512.662          47.700    20953124.800  
  87269063.80508      -512.663          44.900  
 20 09 28 08 57 15.0000000  0 16G15G11G18G21G20G12G24G10G32R13R14R 2
                                R 3R12R19R 4
  24052472.420   126396589.68107       656.146          43.200    24052469.180  
  98490831.41046       656.146          38.700  
  24067275.240   126474390.17305      -209.793          37.150    24067271.900  
  98551451.37942      -209.793          27.300  
  24596024.220   129252936.69906       735.950          39.250    24596023.320  
 100716550.22246       735.951          39.100  
  23096562.900   121373276.13908      -125.704          46.350    23096558.180  
  94576567.95646      -125.704          41.350  
  20590095.300   108201707.33109       369.051          49.600    20590090.680  
  84313015.60848       369.052          45.300  
  24254731.540   127459482.51607      -628.334          44.500    24254729.640  
  99319069.71446      -628.334          39.350  
  20930590.220   109991032.86609       298.371          49.000    20930588.400  
  85707300.01248       298.371          47.250  
  20467928.260   107559724.42509      -131.843          51.350    20467926.380  
  83812779.93049      -131.843          49.300  
  22209013.200   116709192.65408      -497.402          48.150    22209012.180  
  90942237.73547      -497.402          44.100  
  20309159.040   108449806.24006      -408.936          39.550    20309163.020  
  84349880.46007      -408.935          42.750  
  23305734.880   124232690.78006      -855.812          40.350    23305743.080  
  96625444.42707      -855.813          42.650  
  22067343.560   117755575.77507       591.202          43.600    22067347.760  
  91587686.82307       591.202          43.400  
  19413910.560   103924232.68809        77.333          49.350    19413911.280  
  80829975.52408        77.334          47.300  
  21136090.980   112905237.67308       387.441          47.100    21136094.300  
  87815207.50208       387.441          45.300  
  21720379.140   116189380.89905       453.180          38.250    21720381.260  
  90369520.37606       453.180          41.250  
  20950561.200   112189342.53108      -512.485          47.350    20950562.260  
  87258390.85208      -512.485          45.000  
 20 09 28 08 57 20.0000000  0 15G15G11G21G20G12G24G10G32R13R14R 2R 3
                                R12R19R 4
  24055754.020   126413834.59207       656.451          43.400    24055750.800  
  98504269.00545       656.451          36.900  
  24066227.960   126468885.71305      -209.044          36.400    24066224.060  
  98547162.26941      -209.045          22.850  
  23095936.380   121369983.99006      -124.938          40.900    23095931.720  
  94574002.69945      -124.940          36.600  
  20591942.420   108211414.01409       369.797          49.000    20591937.780  
  84320579.24747       369.797          43.250  
  24251591.000   127442978.49107      -627.912          44.100    24251589.000  
  99306209.46445      -627.914          36.100  
  20932084.060   109998883.26408       299.192          47.350    20932082.340  
  85713417.21148       299.192          45.900  
  20467270.880   107556269.97509      -131.107          50.900    20467269.000  
  83810088.13548      -131.106          47.050  
  22206527.320   116696129.56108      -496.928          46.950    22206526.320  
  90932058.70946      -496.928          40.250  
  20307117.000   108438901.74006      -407.929          38.750    20307120.980  
  84341399.18407      -407.929          41.650  
  23301456.540   124209884.86807      -855.500          42.650    23301464.720  
  96607706.50407      -855.501          43.600  
  22070300.840   117771356.22807       591.671          41.950    22070305.080  
  91599960.52907       591.670          43.950  
  19414299.000   103926312.12409        78.032          48.700    19414299.800  
  80831592.86908        78.032          46.800  
  21138030.580   112915599.07908       388.425          45.900    21138034.000  
  87823266.36908       388.425          45.300  
  21722647.380   116201514.43404       454.086          35.350    21722649.500  
  90378957.54106       454.087          38.600  
  20948000.000   112175627.69207      -511.987          42.950    20948001.120  
  87247723.80107      -511.989          43.000  
 20 09 28 08 57 25.0000000  0 15G15G11G21G20G12G24G10G32R13R14R 2R 3
                                R12R19R 4
  24059036.040   126431081.63107       656.492          43.950    24059032.820  
  98517708.21245       656.493          37.850  
  24065183.720   126463397.83704      -208.478          34.000                  
                                                
  23095312.460   121366705.66307      -124.460          41.500    23095307.920  
  94571448.16245      -124.459          38.200  
  20593792.080   108221134.17509       370.234          49.000    20593787.420  
  84328153.39047       370.234          42.900  
  24248451.480   127426479.81907      -627.784          43.300    24248449.400  
  99293353.38445      -627.785          37.600  
  20933580.860   110006749.06708       299.722          47.800    20933579.200  
  85719546.40248       299.722          46.400  
  20466616.120   107552829.21409      -130.646          51.100    20466614.220  
  83807407.02948      -130.646          46.950  
  22204042.700   116683072.83108      -496.767          47.550    22204041.640  
  90921884.64046      -496.767          40.550  
  20305078.800   108428017.74306      -407.189          39.050    20305082.780  
  84332933.86806      -407.190          41.400  
  23297178.800   124187081.96807      -855.447          43.100    23297186.920  
  96589970.93007      -855.448          42.850  
  22073259.160   117787142.86007       591.826          42.050    22073263.580  
  91612238.98507       591.827          44.200  
  19414689.800   103928404.15809        78.445          49.100    19414690.660  
  80833219.99808        78.445          46.800  
  21139973.940   112925980.70408       389.115          46.250    21139977.460  
  87831340.95408       389.116          44.950  
  21724919.100   116213667.04905       454.787          36.200    21724921.300  
  90388409.57006       454.788          38.900  
  20945440.120   112161919.61307      -511.813          43.650    20945441.200  
  87237061.95307      -511.813          42.850  
 20 09 28 08 57 30.0000000  0 15G15G11G21G20G12G24G10G32R13R14R 2R 3
                                R12R19R 4
  24062318.200   126448329.42007       656.479          44.150    24062314.980  
  98531148.04345       656.480          36.800  
  24064142.320   126457925.31405      -208.090          36.050    24064138.420  
  98538622.64842      -208.083          27.450  
  23094690.960   121363439.75507      -124.035          41.500    23094686.460  
  94568903.28545      -124.035          37.600  
  20595644.060   108230866.38509       370.636          48.950    20595639.380  
  84335736.94047       370.635          42.700  
  24245312.700   127409985.05607      -627.644          42.800    24245310.520  
  99280500.34045      -627.644          36.950  
  20935080.340   110014628.84308       300.193          47.850    20935078.720  
  85725686.47348       300.193          46.450  
  20465963.700   107549400.73709      -130.242          50.950    20465961.780  
  83804735.50448      -130.243          47.150  
  22201559.020   116670020.96608      -496.632          47.400    22201557.940  
  90911714.36346      -496.632          40.200  
  20303044.180   108417152.97806      -406.509          39.400    20303048.140  
  84324483.50506      -406.509          41.050  
  23292901.400   124164280.77407      -855.412          42.800    23292909.420  
  96572236.71607      -855.414          41.800  
  22076218.360   117802934.21907       591.998          42.550    22076222.960  
  91624521.14007       591.999          44.500  
  19415082.720   103930507.61509        78.825          48.750    19415083.640  
  80834856.03108        78.825          46.500  
  21141920.860   112936381.07708       389.773          46.050    21141924.460  
  87839430.11208       389.773          44.850  
  21727194.340   116225837.32405       455.394          35.950    21727196.440  
  90397875.36105       455.393          38.500  
  20942881.200   112148216.87307      -511.614          43.150    20942882.300  
  87226404.30007      -511.615          42.300  
 20 09 28 08 57 35.0000000  0 15G15G11G21G20G12G24G10G32R13R14R 2R 3
                                R12R19R 4
  24065600.800   126465579.49407       656.420          43.850    24065597.580  
  98544589.66745       656.420          36.700  
  24063104.160   126452469.76004      -207.424          35.000    24063100.100  
  98534371.55344      -207.421          34.500  
  23094072.200   121360187.85507      -123.659          43.200    23094067.740  
  94566369.34144      -123.659          34.200  
  20597498.620   108240612.16109       371.045          49.200    20597493.920  
  84343331.04547       371.045          43.150  
  24242174.940   127393495.76407      -627.600          43.000    24242172.680  
  99267651.54344      -627.600          34.850  
  20936582.800   110022524.30508       300.653          47.650    20936581.240  
  85731838.79148       300.653          46.200  
  20465313.940   107545986.13309      -129.826          50.750    20465312.000  
  83802074.76848      -129.826          47.150  
  22199076.560   116656975.52408      -496.484          47.200    22199075.460  
  90901549.09047      -496.484          41.550  
  20301013.540   108406309.12606      -405.888          39.050    20301017.420  
  84316049.38806      -405.888          41.250  
  23288624.600   124141482.79407      -855.443          43.600    23288632.500  
  96554504.96407      -855.444          43.000  
  22079178.700   117818731.47307       592.068          42.550    22079183.460  
  91636807.88007       592.069          44.200  
  19415478.060   103932623.85009        79.174          48.700    19415478.980  
  80836501.99108        79.174          46.800  
  21143871.560   112946801.71808       390.412          45.450    21143875.240  
  87847535.06408       390.412          45.000  
  21729473.020   116238026.66604       455.930          35.250    21729475.140  
  90407355.95406       455.930          38.950  
  20940323.580   112134521.10807      -511.520          43.550    20940324.720  
  87215752.07207      -511.521          41.800  
 20 09 28 08 57 40.0000000  0 15G15G11G21G20G12G24G10G32R13R14R 2R 3
                                R12R19R 4
  24068883.960   126482832.38207       656.639          43.550    24068880.740  
  98558033.46445       656.639          37.650  
  24062069.300   126447031.52805      -206.729          38.500    24062065.160  
  98530134.02344      -206.730          33.700  
  23093456.180   121356950.43608      -122.983          47.600    23093451.720  
  94563846.68047      -122.983          42.250  
  20599355.880   108250372.08309       371.664          49.600    20599351.160  
  84350936.16948       371.664          45.300  
  24239038.300   127377012.56207      -627.293          43.750    24239035.980  
  99254807.48446      -627.292          39.700  
  20938088.320   110030435.79509       301.343          48.650    20938086.760  
  85738003.58948       301.343          47.250  
  20464666.920   107542585.92609      -129.200          51.100    20464664.960  
  83799425.25549      -129.200          49.050  
  22196595.420   116643937.09309      -496.162          48.700    22196594.320  
  90891389.27647      -496.163          43.300  
  20298986.880   108395486.78106      -404.967          39.300    20298990.760  
  84307632.02107      -404.968          42.600  
  23284348.660   124118688.79606      -855.211          41.300    23284356.360  
  96536776.32607      -855.212          42.450  
  22082140.380   117834535.82407       592.443          43.250    22082145.280  
  91649100.15307       592.443          44.350  
  19415875.820   103934753.42209        79.787          49.150    19415876.820  
  80838158.32608        79.787          47.400  
  21145826.220   112957243.25208       391.274          47.150    21145829.920  
  87855656.25508       391.274          45.350  
  21731755.360   116250235.76405       456.701          37.250    21731757.500  
  90416851.89207       456.702          41.650  
  20937767.320   112120832.95308      -511.142          48.200    20937768.560  
  87205105.70008      -511.140          45.200  
 20 09 28 08 57 45.0000000  0 15G15G11G21G20G12G24G10G32R13R14R 2R 3
                                R12R19R 4
  24072167.180   126500085.59707       656.608          44.250    24072163.960  
  98571477.52745       656.608          36.450  
  24061037.360   126441608.32706      -206.059          40.200    24061033.180  
  98525908.04744      -206.057          32.300  
  23092842.400   121353725.16808      -122.557          47.200    23092837.960  
  94561333.45247      -122.556          42.100  
  20601215.360   108260143.63809       372.093          49.700    20601210.620  
  84358550.36248       372.094          45.600  
  24235902.340   127360532.95507      -627.083          44.100    24235900.000  
  99241966.22945      -627.083          38.200  
  20939596.440   110038360.99309       301.895          48.750    20939594.920  
  85744179.06848       301.896          47.400  
  20464022.160   107539197.67309      -128.714          51.450    20464020.180  
  83796785.06149      -128.713          49.300  
  22194115.180   116630903.14609      -496.017          49.000    22194114.100  
  90881232.97747      -496.018          43.600  
  20296963.740   108384683.23106      -404.319          39.650    20296967.580  
  84299229.27807      -404.319          42.750  
  23280072.840   124095896.09907      -855.138          41.650    23280080.440  
  96519048.70507      -855.140          42.450  
  22085102.840   117850344.25407       592.563          43.100    22085107.880  
  91661395.58807       592.563          44.350  
  19416275.700   103936893.95509        80.151          49.250    19416276.700  
  80839823.17608        80.151          47.400  
  21147784.300   112967703.10308       391.939          47.150    21147788.080  
  87863791.69808       391.939          46.050  
  21734041.020   116262461.95005       457.437          37.500    21734043.040  
  90426361.12307       457.438          41.750  
  20935212.060   112107149.81508      -510.974          47.400    20935213.320  
  87194463.21108      -510.973          45.500  
 20 09 28 08 57 50.0000000  0 15G15G11G21G20G12G24G10G32R13R14R 2R 3
                                R12R19R 4
  24075450.820   126517340.90208       656.894          45.150    24075447.620  
  98584923.21044       656.894          34.400  
  24060008.580   126436201.95706      -205.317          39.650    24060004.280  
  98521695.30143      -205.316          31.400  
  23092231.260   121350513.73408      -121.787          47.000    23092226.860  
  94558831.04446      -121.787          40.650  
  20603077.400   108269928.67708       372.823          46.700    20603072.640  
  84366175.07146       372.822          41.400  
  24232767.360   127344058.64406      -626.760          41.050    24232764.980  
  99229129.13143      -626.760          29.350  
  20941107.520   110046301.63208       302.659          48.500    20941106.000  
  85750366.58148       302.659          45.300  
  20463380.000   107535823.14709      -128.017          50.950    20463378.020  
  83794155.56448      -128.017          47.650  
  22191636.160   116617875.50108      -495.551          47.800    22191635.040  
  90871081.59347      -495.553          43.200  
  20294944.420   108373900.19905      -403.344          36.250    20294948.260  
  84290842.49205      -403.344          37.350  
  23275797.620   124073106.83205      -854.839          37.250    23275805.160  
  96501323.74105      -854.841          36.800  
  22088066.440   117866158.67707       592.987          43.550    22088071.580  
  91673695.68707       592.988          42.600  
  19416677.920   103939047.15609        80.848          48.600    19416678.920  
  80841497.88808        80.848          45.900  
  21149746.160   112978183.11908       392.909          47.800    21149749.980  
  87871942.80808       392.909          44.600  
  21736330.040   116274707.10205       458.335          36.450    21736332.100  
  90435885.16106       458.334          40.550  
  20932658.100   112093473.48308      -510.483          46.200    20932659.380  
  87183826.07907      -510.483          44.000  
 20 09 28 08 57 55.0000000  0 15G15G11G21G20G12G24G10G32R13R14R 2R 3
                                R12R19R 4
  24078735.220   126534599.86807       656.931          44.500    24078731.980  
  98598371.73244       656.931          35.350  
  24058983.280   126430813.87406      -204.688          38.650    24058978.920  
  98517496.80044      -204.687          34.300  
  23091623.040   121347317.64308      -121.355          46.600    23091618.640  
  94556340.57947      -121.355          41.500  
  20604942.200   108279728.58508       373.266          47.100    20604937.480  
  84373811.37647       373.266          42.350  
  24229633.800   127327591.31306      -626.653          38.700    24229631.220  
  99216297.38742      -626.652          26.500  
  20942621.800   110054259.23808       303.175          48.400    20942620.280  
  85756567.31347       303.176          44.150  
  20462740.740   107532463.83409      -127.560          51.000    20462738.740  
  83791537.91548      -127.560          47.650  
  22189158.600   116604855.62208      -495.370          48.000    22189157.420  
  90860936.23547      -495.370          42.700  
  20292929.240   108363139.36205      -402.592          35.550    20292933.060  
  84282473.00205      -402.593          37.200  
  23271523.260   124050321.93306      -854.836          39.200    23271530.700  
  96483602.19005      -854.837          37.500  
  22091031.560   117881980.75207       593.184          43.400    22091036.700  
  91686001.73707       593.184          41.750  
  19417082.820   103941214.58309        81.257          48.700    19417083.800  
  80843183.67408        81.257          45.400  
  21151712.100   112988684.79408       393.592          47.800    21151715.920  
  87880110.79107       393.592          43.850  
  21738623.060   116286972.73705       459.004          37.050    21738624.980  
  90445425.10406       459.004          40.750  
  20930105.680   112079805.53208      -510.303          46.550    20930106.980  
  87173195.44807      -510.303          44.350  
 20 09 28 08 58  0.0000000  0 15G15G11G21G20G12G24G10G32R13R14R 2R 3
                                R12R19R 4
  24082019.640   126551859.21808       656.907          45.000    24082016.440  
  98611820.57244       656.907          34.950  
  24057960.780   126425440.75806      -204.276          38.900    24057956.860  
  98513309.91944      -204.276          32.400  
  23091017.120   121344133.63308      -120.994          46.950    23091012.740  
  94553859.53446      -120.994          41.350  
  20606809.200   108289540.10408       373.583          47.500    20606804.540  
  84381456.70347       373.583          42.350  
  24226500.960   127311127.64406      -626.480          41.000    24226498.180  
  99203468.61943      -626.481          28.050  
  20944138.680   110062230.44908       303.643          48.450    20944137.140  
  85762778.64048       303.643          45.250  
  20462103.780   107529116.46809      -127.202          51.100    20462101.740  
  83788929.57448      -127.202          48.250  
  22186681.900   116591840.24708      -495.271          48.000    22186680.660  
  90850794.39147      -495.271          42.800  
  20290917.560   108352397.43905      -401.973          36.650    20290921.380  
  84274118.15505      -401.973          38.350  
  23267249.120   124027538.28506      -854.876          38.700    23267256.520  
  96465881.59305      -854.877          37.550  
  22093997.460   117897807.16808       593.263          44.700    22094002.620  
  91698311.15907       593.264          42.500  
  19417489.760   103943392.94009        81.581          48.950    19417490.720  
  80844877.95308        81.581          45.800  
  21153681.460   112999204.81708       394.238          48.250    21153685.300  
  87888293.03207       394.238          44.250  
  21740919.200   116299255.46005       459.493          37.400    21740921.120  
  90454978.33106       459.493          41.100  
  20927554.240   112066142.66008      -510.209          47.300    20927555.540  
  87162568.78407      -510.209          44.500  
 20 09 28 08 58  5.0000000  0 15G15G11G21G20G12G24G10G32R13R14R 2R 3
                                R12R19R 4
  24085304.360   126569120.22507       657.054          43.800    24085301.200  
  98625270.72445       657.054          36.350  
  24056941.420   126420084.06706      -203.558          39.950    24056937.600  
  98509135.92144      -203.560          32.500  
  23090413.800   121340963.02808      -120.357          47.200    23090409.380  
  94551388.94846      -120.358          40.650  
  20608678.760   108299364.70009       374.214          49.650    20608674.100  
  84389112.17747       374.216          43.900  
  24223369.000   127294669.02807      -626.238          44.050    24223366.160  
  99190643.78344      -626.240          35.100  
  20945658.420   110070216.55009       304.274          48.800    20945656.820  
  85769001.58448       304.274          46.000  
  20461469.340   107525782.44509      -126.574          51.600    20461467.320  
  83786331.64548      -126.575          48.150  
  22184206.300   116578830.80009      -494.939          48.700    22184205.040  
  90840657.14547      -494.939          42.550  
  20288909.740   108341675.80306      -401.121          39.250    20288913.480  
  84265779.09007      -401.120          43.200  
  23262975.520   124004757.40507      -854.604          43.450    23262982.820  
  96448163.12307      -854.604          43.750  
  22096964.500   117913639.16808       593.586          45.550    22096969.540  
  91710624.93907       593.586          44.400  
  19417898.980   103945583.55409        82.141          49.550    19417899.920  
  80846581.76108        82.141          47.900  
  21155654.540   113009744.45608       395.044          47.550    21155658.360  
  87896490.53708       395.044          46.400  
  21743218.860   116311556.72105       460.389          37.500    21743220.720  
  90464545.95307       460.390          43.000  
  20925004.020   112052486.26708      -509.878          47.750    20925005.320  
  87151947.15208      -509.878          46.200  
 20 09 28 08 58 10.0000000  0 15G15G11G21G20G12G24G10G32R13R14R 2R 3
                                R12R19R 4
  24088589.360   126586382.71407       657.026          43.950    24088586.180  
  98638722.01045       657.026          36.650  
  24055925.120   126414743.57606      -202.938          39.650    24055921.220  
  98504974.49244      -202.938          35.250  
  23089813.000   121337805.71908      -119.882          47.350    23089808.540  
  94548928.71346      -119.882          39.700  
  20610550.740   108309202.09009       374.683          49.450    20610546.080  
  84396777.68647       374.683          44.250  
  24220237.980   127278215.21207      -626.126          44.300    24220235.060  
  99177822.64245      -626.127          36.350  
  20947180.940   110078217.42809       304.803          48.750    20947179.300  
  85775236.03848       304.803          45.700  
  20460837.400   107522461.58309      -126.117          51.650    20460835.400  
  83783743.96648      -126.117          48.400  
  22181731.780   116565827.08909      -494.774          48.800    22181730.540  
  90830524.39347      -494.775          42.400  
  20286905.680   108330974.30406      -400.454          39.750    20286909.380  
  84257455.71407      -400.454          43.200  
  23258702.440   123981979.46307      -854.522          43.000    23258709.680  
  96430446.96707      -854.523          43.350  
  22099932.440   117929476.44108       593.681          45.750    22099937.440  
  91722942.81307       593.681          44.050  
  19418310.460   103947786.27009        82.530          49.550    19418311.400  
  80848295.00008        82.529          47.850  
  21157631.280   113020303.61108       395.711          47.700    21157635.060  
  87904703.20708       395.711          45.850  
  21745521.780   116323876.17305       460.914          37.550    21745523.700  
  90474127.74307       460.915          42.700  
  20922454.940   112038836.13408      -509.675          47.600    20922456.280  
  87141330.38808      -509.676          46.150  
 20 09 28 08 58 15.0000000  0 15G15G11G21G20G12G24G10G32R13R14R 2R 3
                                R12R19R 4
  24091874.500   126603645.94707       656.942          44.000    24091871.280  
  98652173.86145       656.943          37.100  
  24054911.780   126409418.46806      -202.539          38.600    24054907.980  
  98500825.07144      -202.539          32.300  
  23089214.580   121334660.89308      -119.519          47.300    23089210.060  
  94546478.19946      -119.519          40.650  
  20612425.020   108319051.50309       375.035          49.300    20612420.360  
  84404452.54947       375.036          44.300  
  24217107.740   127261765.50407      -626.024          44.250    24217104.720  
  99165004.68145      -626.024          37.400  
  20948706.140   110086232.30609       305.264          48.800    20948704.460  
  85781481.40248       305.264          46.450  
  20460207.840   107519153.10509      -125.741          51.600    20460205.840  
  83781165.92949      -125.741          48.750  
  22179258.180   116552828.25709      -494.691          48.650    22179256.960  
  90820395.44547      -494.691          42.550  
  20284905.200   108320292.20206      -399.797          39.900    20284908.960  
  84249147.40507      -399.797          43.550  
  23254429.680   123959203.21307      -854.573          43.250    23254436.860  
  96412732.13007      -854.574          43.100  
  22102901.380   117945318.54008       593.791          45.600    22102906.220  
  91735264.43507       593.792          43.700  
  19418724.020   103950000.16209        82.859          49.650    19418724.980  
  80850016.92108        82.859          47.750  
  21159611.500   113030881.42808       396.317          47.900    21159615.260  
  87912930.39008       396.317          45.850  
  21747827.860   116336213.26405       461.488          37.350    21747829.960  
  90483723.26007       461.488          41.950  
  20919906.880   112025191.44008      -509.573          47.600    20919908.260  
  87130717.85008      -509.573          46.100  
 20 09 28 08 58 20.0000000  0 15G15G11G21G20G12G24G10G32R13R14R 2R 3
                                R12R19R 4
  24095160.200   126620912.23107       657.093          43.400    24095156.960  
  98665628.10445       657.093          36.100  
  24053901.800   126404111.15806      -201.839          38.950    24053898.060  
  98496689.53144      -201.841          32.150  
  23088618.980   121331530.88108      -118.930          47.050    23088614.400  
  94544039.23046      -118.931          41.200  
  20614302.020   108328915.25209       375.575          49.350    20614297.360  
  84412138.57748       375.576          44.850  
  24213978.720   127245322.24007      -625.787          43.950    24213975.640  
  99152191.76545      -625.787          37.200  
  20950234.440   110094263.55809       305.874          48.550    20950232.760  
  85787739.52548       305.874          46.700  
  20459581.060   107515859.32009      -125.175          51.450    20459579.080  
  83778599.34349      -125.175          48.950  
  22176785.960   116539836.71308      -494.401          48.500    22176784.740  
  90810272.17147      -494.402          43.100  
  20282908.960   108309631.93006      -398.965          39.750    20282912.680  
  84240856.10107      -398.966          43.400  
  23250157.660   123936431.26307      -854.424          43.550    23250164.840  
  96395020.62807      -854.425          42.900  
  22105871.580   117961167.62608       594.045          45.450    22105876.280  
  91747591.49307       594.046          43.400  
  19419140.180   103952227.85609        83.389          49.600    19419141.140  
  80851749.56608        83.389          47.750  
  21161595.700   113041480.28408       397.114          47.950    21161599.420  
  87921173.93408       397.115          45.550  
  21750137.820   116348570.22005       462.193          37.550    21750139.920  
  90493334.21507       462.194          41.850  
  20917360.300   112011554.61708      -509.267          47.900    20917361.720  
  87120111.43608      -509.267          45.850  
 20 09 28 08 58 25.0000000  0 15G15G11G21G20G12G24G10G32R13R14R 2R 3
                                R12R19R 4
  24098446.360   126638180.90807       657.271          43.000    24098443.040  
  98679084.20645       657.271          37.200  
  24052895.080   126398820.97605      -200.933          38.500    24052891.420  
  98492567.30244      -200.934          34.900  
  23088026.100   121328415.08308      -118.267          47.400    23088021.480  
  94541611.33946      -118.267          41.350  
  20616181.660   108338792.70609       376.179          49.700    20616177.000  
  84419835.29248       376.179          44.700  
  24210850.740   127228884.78407      -625.447          43.650    24210847.660  
  99139383.37045      -625.448          38.050  
  20951765.680   110102310.37308       306.548          48.400    20951764.040  
  85794009.76848       306.548          46.350  
  20458956.960   107512579.62009      -124.540          51.550    20458955.000  
  83776043.72749      -124.540          48.950  
  22174315.020   116526851.78909      -494.032          48.800    22174313.760  
  90800154.06247      -494.033          43.250  
  20280916.660   108298992.69206      -398.021          39.600    20280920.340  
  84232581.15407      -398.022          43.250  
  23245886.320   123913662.89407      -854.189          43.400    23245893.500  
  96377311.91707      -854.191          42.650  
  22108842.940   117977023.04208       594.379          45.250    22108847.500  
  91759923.47607       594.379          43.450  
  19419558.740   103954468.48309        83.973          49.600    19419559.740  
  80853492.27408        83.973          47.700  
  21163583.680   113052099.41408       397.995          47.600    21163587.360  
  87929433.26608       397.994          45.400  
  21752451.320   116360946.23005       463.076          37.650    21752453.480  
  90502959.99907       463.077          42.400  
  20914815.080   111997924.99108      -508.886          47.550    20914816.500  
  87109510.61208      -508.886          45.700  
 20 09 28 08 58 30.0000000  0 15G15G11G21G20G12G24G10G32R13R14R 2R 3
                                R12R19R 4
  24101733.220   126655453.38207       657.384          42.700    24101729.880  
  98692543.26645       657.385          37.350  
  24051891.900   126393549.30606      -200.354          39.550    24051888.340  
  98488459.53544      -200.354          35.300  
  23087436.180   121325314.89908      -117.761          47.450    23087431.520  
  94539195.61047      -117.761          41.600  
  20618064.200   108348685.32609       376.734          49.750    20618059.500  
  84427543.83448       376.733          45.000  
  24207724.160   127212454.58907      -625.243          43.900    24207721.100  
  99126580.63945      -625.244          38.400  
  20953300.160   110110374.30408       307.155          48.450    20953298.560  
  85800293.35048       307.155          46.400  
  20458335.820   107509315.42109      -123.994          51.600    20458333.860  
  83773500.19949      -123.995          49.250  
  22171845.600   116513874.91009      -493.799          48.750    22171844.340  
  90790042.21447      -493.799          43.600  
  20278928.500   108288375.98306      -397.243          39.600    20278932.180  
  84224323.72207      -397.244          42.900  
  23241615.920   123890899.61107      -854.004          43.300    23241623.100  
  96359607.16207      -854.005          42.550  
  22111815.700   117992886.19508       594.637          44.600    22111820.180  
  91772261.48007       594.637          43.250  
  19419980.020   103956723.66809        84.468          49.600    19419981.040  
  80855246.30708        84.469          47.600  
  21165575.740   113062740.40108       398.762          47.450    21165579.400  
  87937709.60508       398.762          45.100  
  21754768.800   116373342.87505       463.771          37.400    21754770.940  
  90512601.83407       463.771          42.250  
  20912271.480   111984304.02708      -508.637          47.700    20912272.880  
  87098916.54108      -508.637          45.650  
 20 09 28 08 58 35.0000000  0 15G15G11G21G20G12G24G10G32R13R14R 2R 3
                                R12R19R 4
  24105019.980   126672725.61407       657.319          42.000    24105016.680  
  98706002.13446       657.320          39.950  
  24050891.500   126388292.13206      -199.933          39.050    24050887.900  
  98484362.99544      -199.932          35.200  
  23086848.460   121322226.23908      -117.411          47.650    23086843.740  
  94536788.85646      -117.411          41.400  
  20619948.840   108358588.99409       377.044          49.450    20619944.100  
  84435260.97848       377.043          45.350  
  24204598.180   127196027.62207      -625.180          43.700    24204595.200  
  99113780.42346      -625.181          38.550  
  20954837.120   110118451.24909       307.551          48.600    20954835.560  
  85806587.07048       307.551          46.850  
  20457716.840   107506062.65909      -123.652          51.450    20457714.900  
  83770965.57649      -123.652          49.300  
  22169376.960   116500902.02709      -493.729          48.600    22169375.700  
  90779933.48147      -493.730          43.750  
  20276943.820   108277777.76706      -396.680          39.650    20276947.420  
  84216080.65707      -396.679          42.800  
  23237345.760   123868137.27907      -854.077          43.250    23237352.900  
  96341903.14107      -854.078          42.550  
  22114789.080   118008752.99807       594.658          44.450    22114793.520  
  91784602.30607       594.659          43.450  
  19420403.240   103958989.13909        84.756          49.450    19420404.240  
  80857008.33208        84.756          47.400  
  21167571.100   113073399.02908       399.315          47.700    21167574.680  
  87945999.66008       399.315          44.850  
  21757089.180   116385755.93405       464.292          37.550    21757091.460  
  90522256.43207       464.292          42.100  
  20909728.680   111970687.64108      -508.541          48.000    20909730.100  
  87088326.02508      -508.541          45.600  
 20 09 28 08 58 40.0000000  0 15G15G11G21G20G12G24G10G32R13R14R 2R 3
                                R12R19R 4
  24108306.960   126689999.08907       657.272          42.050    24108303.740  
  98719461.96945       657.273          38.100  
  24049894.140   126383050.98806      -199.230          39.250    24049890.460  
  98480279.03043      -199.232          31.000  
  23086263.220   121319150.60808      -116.970          47.850    23086258.480  
  94534392.26946      -116.970          40.900  
  20621835.860   108368505.21709       377.467          49.650    20621831.080  
  84442987.89948       377.467          45.050  
  24201473.060   127179605.36007      -625.130          42.850    24201470.200  
  99100983.86846      -625.130          38.750  
  20956376.840   110126542.65009       308.048          49.000    20956375.300  
  85812892.05448       308.048          46.300  
  20457100.320   107502822.86709      -123.219          51.500    20457098.420  
  83768441.06249      -123.219          49.250  
  22166909.380   116487934.65409      -493.582          48.650    22166908.120  
  90769829.04747      -493.582          43.900  
  20274962.880   108267199.53506      -396.005          39.800    20274966.460  
  84207853.14507      -396.005          43.000  
  23233076.060   123845377.50107      -854.031          43.250    23233083.200  
  96324201.11407      -854.032          42.650  
  22117763.460   118024624.97908       594.843          44.600    22117767.860  
  91796947.17007       594.844          43.750  
  19420828.660   103961266.47009        85.152          49.300    19420829.640  
  80858779.58908        85.152          47.400  
  21169570.020   113084076.81308       399.984          47.750    21169573.560  
  87954304.60008       399.984          45.000  
  21759413.080   116398186.96505       464.941          37.650    21759415.340  
  90531925.00007       464.942          42.050  
  20907187.040   111957077.32208      -508.367          47.900    20907188.500  
  87077740.22208      -508.367          45.700  
 20 09 28 08 58 45.0000000  0 15G15G11G21G20G12G24G10G32R13R14R 2R 3
                                R12R19R 4
  24111594.480   126707275.38307       657.472          42.200    24111591.360  
  98732924.01045       657.472          37.800  
  24048900.100   126377827.35906      -198.629          40.400    24048896.380  
  98476208.64944      -198.630          32.850  
  23085680.760   121316089.62108      -116.331          47.650    23085676.020  
  94532007.09047      -116.332          41.700  
  20623725.560   108378435.62409       378.127          49.450    20623720.760  
  84450725.87048       378.128          45.600  
  24198349.120   127163189.46707      -624.702          42.950    24198346.360  
  99088192.26546      -624.702          39.000  
  20957919.620   110134650.13709       308.774          48.950    20957918.100  
  85819209.57448       308.774          46.650  
  20456486.580   107499597.63109      -122.549          51.500    20456484.700  
  83765927.89349      -122.549          49.450  
  22164443.140   116474974.38609      -493.198          48.850    22164441.880  
  90759730.14947      -493.199          43.850  
  20272986.020   108256642.85506      -395.043          39.850    20272989.540  
  84199642.39607      -395.043          43.100  
  23228807.140   123822621.79207      -853.805          43.400    23228814.280  
  96306502.24407      -853.806          42.650  
  22120739.100   118040503.89507       595.184          44.050    22120743.520  
  91809297.42807       595.184          44.050  
  19421256.580   103963557.31209        85.756          49.600    19421257.560  
  80860561.35708        85.756          47.250  
  21171572.800   113094775.37608       400.864          47.700    21171576.320  
  87962625.69908       400.864          44.950  
  21761740.700   116410637.53905       465.773          38.200    21761742.860  
  90541608.76207       465.774          42.000  
  20904646.860   111943474.70108      -507.967          47.700    20904648.320  
  87067160.39908      -507.967          45.750  
 20 09 28 08 58 50.0000000  0 15G15G11G21G20G12G24G10G32R13R14R 2R 3
                                R12R19R 4
  24114882.400   126724553.65407       657.604          42.200    24114879.360  
  98746387.59545       657.604          38.500  
  24047909.280   126372620.56506      -197.871          39.700    24047905.540  
  98472151.40144      -197.871          34.750  
  23085100.940   121313042.48108      -115.724          47.350    23085096.160  
  94529632.69347      -115.724          41.950  
  20625617.800   108388379.28609       378.654          49.450    20625612.960  
  84458474.17848       378.654          45.800  
  24195226.240   127146779.06607      -624.457          42.600    24195223.580  
  99075404.97146      -624.459          38.750  
  20959465.340   110142772.86409       309.381          49.050    20959463.780  
  85825538.97848       309.380          46.850  
  20455875.440   107496386.10509      -121.987          51.500    20455873.580  
  83763425.41249      -121.987          49.450  
  22161978.080   116462020.36609      -492.940          49.100    22161976.820  
  90749636.11647      -492.941          43.300  
  20271012.980   108246106.99806      -394.268          39.600    20271016.540  
  84191447.85707      -394.268          42.900  
  23224538.900   123799869.45307      -853.616          43.600    23224545.980  
  96288805.99707      -853.617          42.250  
  22123715.860   118056388.57507       595.426          44.250    22123720.320  
  91821652.15907       595.427          44.400  
  19421686.880   103965860.83809        86.287          49.650    19421687.860  
  80862352.99208        86.287          47.150  
  21173579.340   113105493.76608       401.641          47.250    21173582.780  
  87970962.22608       401.641          44.900  
  21764071.760   116423106.83606       466.539          38.800    21764073.900  
  90551307.09807       466.539          41.850  
  20902107.960   111929878.94008      -507.681          47.550    20902109.420  
  87056585.92408      -507.681          45.450  
 20 09 28 08 58 55.0000000  0 15G15G11G21G20G12G24G10G32R13R14R 2R 3
                                R12R19R 4
  24118170.580   126741833.45607       657.602          42.450    24118167.580  
  98759852.35345       657.603          38.250  
  24046921.580   126367430.03006      -197.275          40.200    24046917.900  
  98468106.83444      -197.275          35.250  
  23084523.620   121310008.67008      -115.281          47.700    23084518.860  
  94527268.67946      -115.281          41.100  
  20627512.480   108398335.77609       379.119          49.700    20627507.600  
  84466232.48448       379.119          45.600  
  24192104.300   127130373.73407      -624.369          42.550    24192101.740  
  99062621.58646      -624.369          40.750  
  20961013.860   110150910.29409       309.927          49.150    20961012.280  
  85831879.83648       309.927          46.650  
  20455266.840   107493187.86709      -121.516          51.500    20455264.980  
  83760933.28049      -121.516          49.400  
  22159514.120   116449072.19509      -492.717          48.950    22159512.860  
  90739546.63447      -492.717          43.450  
  20269043.800   108235591.44906      -393.504          39.350    20269047.300  
  84183269.09907      -393.505          42.750  
  23220271.180   123777120.06607      -853.543          43.750    23220278.240  
  96271112.04007      -853.543          41.900  
  22126693.660   118072278.76308       595.593          44.900    22126698.160  
  91834011.17907       595.594          44.250  
  19422119.440   103968176.57709        86.697          49.400    19422120.420  
  80864154.11808        86.698          47.000  
  21175589.520   113116231.64708       402.335          47.250    21175592.920  
  87979313.91608       402.335          44.900  
  21766406.160   116435594.27005       467.151          38.250    21766408.320  
  90561019.56107       467.151          41.700  
  20899570.240   111916289.60508      -507.491          47.550    20899571.680  
  87046016.45008      -507.491          45.250  
 20 09 28 08 59  0.0000000  0 15G15G11G21G20G12G24G10G32R13R14R 2R 3
                                R12R19R 4
  24121459.100   126759115.03107       657.825          42.650    24121456.200  
  98773318.50045       657.826          37.600  
  24045936.980   126362256.07206      -196.510          40.050    24045933.240  
  98464075.19344      -196.511          34.800  
  23083948.880   121306988.47208      -114.628          47.650    23083944.140  
  94524915.28247      -114.628          41.600  
  20629409.640   108408305.35309       379.735          49.700    20629404.760  
  84474000.99248       379.735          44.850  
  24188983.440   127113973.73207      -623.989          42.300    24188980.940  
  99049842.36745      -623.989          38.400  
  20962565.240   110159062.70909       310.628          49.100    20962563.640  
  85838232.36248       310.628          46.300  
  20454660.800   107490003.16009      -120.883          51.550    20454658.940  
  83758451.68949      -120.883          49.300  
  22157051.320   116436130.06509      -492.391          48.850    22157050.040  
  90729461.86147      -492.391          43.800  
  20267078.360   108225096.39506      -392.590          39.600    20267081.860  
  84175106.28507      -392.590          42.550  
  23216004.020   123754373.65707      -853.322          43.800    23216011.040  
  96253420.40507      -853.322          41.750  
  22129672.560   118088174.65408       595.950          45.700    22129677.100  
  91846374.63607       595.951          44.450  
  19422554.360   103970504.72909        87.278          49.400    19422555.300  
  80865964.90208        87.278          46.900  
  21177603.380   113126989.15008       403.193          47.350    21177606.720  
  87987680.86108       403.193          44.850  
  21768744.080   116448100.22605       468.001          38.000    21768746.220  
  90570746.40707       468.002          41.800  
  20897033.760   111902706.89108      -507.122          47.700    20897035.180  
  87035452.13108      -507.123          45.250  
 20 09 28 08 59  5.0000000  0 15G15G11G21G20G12G24G10G32R13R14R 2R 3
                                R12R19R 4
  24124747.920   126776397.97107       657.842          42.400    24124745.040  
  98786785.72146       657.843          38.950  
  24044955.500   126357098.24906      -195.866          40.350    24044951.740  
  98460056.11645      -195.866          36.700  
  23083376.680   121303981.46508      -114.149          47.300    23083371.920  
  94522572.17247      -114.150          41.900  
  20631309.220   108418287.60809       380.223          49.600    20631304.340  
  84481779.37648       380.223          45.750  
  24185863.520   127097578.67107      -623.843          41.950    24185861.080  
  99037067.01246      -623.844          39.700  
  20964119.420   110167229.89409       311.164          49.000    20964117.780  
  85844596.40348       311.164          46.900  
  20454057.240   107486831.57809      -120.409          51.500    20454055.400  
  83755980.32849      -120.409          49.300  
  22154589.560   116423193.60209      -492.203          48.650    22154588.320  
  90719381.51347      -492.204          44.100  
  20265116.700   108214621.46906      -391.938          39.900    20265120.200  
  84166959.13407      -391.938          42.350  
  23211737.420   123731630.05907      -853.229          43.600    23211744.380  
  96235730.95007      -853.229          41.700  
  22132652.480   118104075.97908       596.097          46.100    22132657.040  
  91858742.33008       596.097          44.650  
  19422991.540   103972844.91609        87.707          49.450    19422992.400  
  80867785.05308        87.706          46.950  
  21179620.800   113137765.88808       403.893          47.350    21179624.120  
  87996062.77208       403.893          44.950  
  21771085.300   116460624.06205       468.587          38.250    21771087.460  
  90580487.15607       468.587          41.600  
  20894498.440   111889130.38908      -506.902          47.900    20894499.820  
  87024892.63608      -506.903          45.150  
 20 09 28 08 59 10.0000000  0 15G15G11G21G20G12G24G10G32R13R14R 2R 3
                                R12R19R 4
  24128036.920   126793681.76407       657.830          42.450    24128034.040  
  98800253.58146       657.831          39.700  
  24043977.040   126351956.03206      -195.375          40.600    24043973.320  
  98456049.19645      -195.376          35.550  
  23082806.920   121300987.17708      -113.693          47.350    23082802.100  
  94520238.96146      -113.693          40.750  
  20633211.100   108428281.97609       380.597          49.650    20633206.200  
  84489567.19248       380.597          45.900  
  24182744.480   127081188.06007      -623.715          42.600    24182742.080  
  99024295.10846      -623.715          39.050  
  20965676.280   110175411.05109       311.623          49.050    20965674.620  
  85850971.33348       311.623          46.850  
  20453456.100   107483672.61909      -119.989          51.600    20453454.260  
  83753518.79749      -119.989          49.200  
  22152128.780   116410262.29709      -492.072          48.850    22152127.560  
  90709305.17147      -492.072          43.600  
  20263158.840   108204166.23006      -391.214          39.800    20263162.240  
  84158827.27607      -391.213          42.550  
  23207471.180   123708888.74307      -853.209          43.100    23207478.160  
  96218043.28107      -853.209          41.700  
  22135633.300   118119981.80608       596.263          45.700    22135637.820  
  91871113.53007       596.263          44.250  
  19423430.860   103975196.52609        88.065          49.400    19423431.660  
  80869614.08908        88.065          46.900  
  21181641.740   113148561.36508       404.536          47.150    21181645.020  
  88004459.24908       404.536          44.900  
  21773429.780   116473165.43806       469.208          38.550    21773431.920  
  90590241.55506       469.208          41.000  
  20891964.240   111875559.71908      -506.760          47.700    20891965.560  
  87014337.67008      -506.760          45.000  
 20 09 28 08 59 15.0000000  0 15G15G11G21G20G12G24G10G32R13R14R 2R 3
                                R12R19R 4
  24131326.300   126810967.53607       658.024          42.400    24131323.460  
  98813722.99145       658.025          37.650  
  24043001.700   126346830.65406      -194.639          40.000    24042997.920  
  98452055.41544      -194.640          32.500  
  23082239.800   121298006.76508      -113.102          47.650    23082234.960  
  94517916.55647      -113.102          42.750  
  20635115.480   108438289.67909       381.220          49.600    20635110.620  
  84497365.39948       381.220          45.450  
  24179626.520   127064803.13007      -623.432          43.200    24179624.100  
  99011527.63445      -623.432          38.150  
  20967236.060   110183607.49809       312.296          48.900    20967234.340  
  85857358.18548       312.296          47.350  
  20452857.580   107480527.45909      -119.385          51.450    20452855.740  
  83751068.02549      -119.385          49.300  
  22149669.180   116397337.31709      -491.713          48.700    22149668.000  
  90699233.77447      -491.713          43.700  
  20261204.820   108193731.86406      -390.354          39.850    20261208.180  
  84150711.65707      -390.354          42.400  
  23203205.500   123686150.70307      -852.973          42.750    23203212.520  
  96200358.14907      -852.973          41.700  
  22138615.280   118135893.88608       596.536          45.350    22138619.780  
  91883489.59307       596.536          44.400  
  19423872.560   103977560.88709        88.645          49.600    19423873.320  
  80871453.03308        88.645          47.150  
  21183666.380   113159376.67408       405.384          47.000    21183669.640  
  88012871.14708       405.384          44.950  
  21775777.720   116485725.46205       470.010          38.100    21775779.840  
  90600010.46506       470.010          41.050  
  20889431.300   111861996.00708      -506.403          47.450    20889432.620  
  87003788.11908      -506.403          45.100  
 20 09 28 08 59 20.0000000  0 15G15G11G21G20G12G24G10G32R13R14R 2R 3
                                R12R19R 4
  24134616.100   126828255.37507       657.861          42.400    24134613.260  
  98827194.03345       657.861          37.150  
  24042029.560   126341722.13106      -194.217          39.650    24042025.840  
  98448074.75443      -194.217          31.050  
  23081675.320   121295040.26608      -112.754          48.100    23081670.460  
  94515605.00046      -112.754          41.000  
  20637022.420   108448310.71409       381.566          49.750    20637017.580  
  84505173.99448       381.566          45.450  
  24176509.640   127048423.87307      -623.347          43.000    24176507.200  
  98998764.57246      -623.347          38.950  
  20968798.780   110191819.30809       312.717          48.850    20968797.020  
  85863757.00248       312.717          47.400  
  20452261.720   107477396.15209      -118.999          51.500    20452259.880  
  83748628.04849      -118.999          49.300  
  22147210.820   116384418.71609      -491.630          49.050    22147209.660  
  90689167.34747      -491.631          43.250  
  20259254.720   108183318.43606      -389.727          39.800    20259258.040  
  84142612.32207      -389.727          42.600  
  23198940.480   123663416.26607      -853.016          42.600    23198947.560  
  96182675.82607      -853.017          41.850  
  22141598.400   118151811.94608       596.637          44.950    22141602.860  
  91895870.29608       596.637          44.550  
  19424316.620   103979938.00109        88.948          49.600    19424317.380  
  80873301.90008        88.948          47.200  
  21185694.700   113170211.86308       405.930          47.150    21185697.980  
  88021298.51208       405.930          44.950  
  21778129.160   116498304.13705       470.499          37.750    21778131.220  
  90609793.86806       470.499          41.400  
  20886899.680   111848439.28308      -506.310          47.450    20886900.980  
  86993244.01108      -506.310          45.000  
 20 09 28 08 59 25.0000000  0 15G15G11G21G20G12G24G10G32R13R14R 2R 3
                                R12R19R 4
  24137906.240   126845545.11007       658.077          42.100    24137903.400  
  98840666.54745       658.077          38.050  
  24041060.540   126336630.38006      -193.431          39.400    24041056.780  
  98444107.14644      -193.432          33.650  
  23081113.500   121292087.56208      -112.076          47.950    23081108.600  
  94513304.20647      -112.077          41.600  
  20638931.880   108458344.92509       382.188          49.850    20638927.080  
  84512992.86248       382.188          45.300  
  24173393.800   127032050.12807      -623.011          43.250    24173391.380  
  98986005.83546      -623.012          40.000  
  20970364.340   110200046.18509       313.439          48.850    20970362.560  
  85870167.56448       313.439          47.550  
  20451668.440   107474278.53409      -118.320          51.450    20451666.620  
  83746198.74349      -118.320          49.350  
  22144753.680   116371506.34309      -491.219          49.150    22144752.480  
  90679105.77147      -491.220          43.300  
  20257308.480   108172925.74106      -388.812          39.400    20257311.820  
  84134529.12207      -388.812          42.600  
  23194676.120   123640685.24107      -852.722          42.100    23194683.240  
  96164996.16407      -852.723          41.900  
  22144582.600   118167735.83008       597.000          45.450    22144587.040  
  91908255.52807       597.001          44.350  
  19424763.000   103982327.61809        89.588          49.500    19424763.780  
  80875160.49708        89.588          47.250  
  21187726.740   113181066.88308       406.857          47.400    21187730.060  
  88029741.30708       406.857          45.050  
  21780484.040   116510901.21305       471.378          37.800    21780486.060  
  90619591.58806       471.379          41.100  
  20884369.320   111834889.38208      -505.884          47.450    20884370.600  
  86982705.20708      -505.885          44.850  
 20 09 28 08 59 30.0000000  0 15G15G11G21G20G12G24G10G32R13R14R 2R 3
                                R12R19R 4
  24141196.560   126862835.64807       658.079          42.300    24141193.680  
  98854139.69445       658.079          38.350  
  24040094.540   126331554.31306      -192.864          40.800    24040090.760  
  98440151.77144      -192.863          34.650  
  23080554.080   121289147.57708      -111.634          47.550    23080549.140  
  94511013.29847      -111.634          41.850  
  20640843.680   108468391.30009       382.603          49.950    20640838.900  
  84520821.20048       382.603          45.800  
  24170278.880   127015680.91307      -622.876          43.750    24170276.400  
  98973250.60145      -622.877          37.800  
  20971932.540   110208287.00209       313.925          48.750    20971930.760  
  85876588.97048       313.926          47.750  
  20451077.560   107471173.55609      -117.920          51.450    20451075.760  
  83743779.27449      -117.920          49.450  
  22142297.500   116358599.13709      -491.110          49.000    22142296.300  
  90669048.20847      -491.111          43.550  
  20255365.960   108162552.76306      -388.104          39.100    20255369.280  
  84126461.25907      -388.104          42.400  
  23190412.140   123617956.45707      -852.739          42.550    23190419.320  
  96147318.23307      -852.740          41.950  
  22147567.740   118183664.53008       597.116          45.850    22147572.120  
  91920644.50307       597.117          44.450  
  19425211.540   103984728.77609        89.929          49.400    19425212.360  
  80877028.06208        89.929          47.300  
  21189762.260   113191940.43408       407.459          47.550    21189765.580  
  88038198.49908       407.460          45.050  
  21782842.240   116523515.70705       472.004          37.950    21782844.180  
  90629402.85307       472.005          41.550  
  20881840.060   111821345.28608      -505.718          47.300    20881841.300  
  86972170.90508      -505.718          45.000  
 20 09 28 08 59 35.0000000  0 15G15G11G21G20G12G24G10G32R13R14R 2R 3
                                R12R19R 4
  24144487.220   126880128.00707       658.261          42.250    24144484.320  
  98867614.24546       658.261          38.700  
  24039131.760   126326494.88306      -192.162          41.200    24039128.060  
  98436209.35844      -192.163          32.200  
  23079997.220   121286221.31808      -111.022          47.650    23079992.300  
  94508733.09247      -111.021          41.700  
  20642757.980   108478450.80209       383.163          50.000    20642753.220  
  84528659.77048       383.164          45.750  
  24167165.000   126999317.20107      -622.616          43.750    24167162.520  
  98960499.68046      -622.617          38.800  
  20973503.600   110216542.93109       314.567          48.750    20973501.820  
  85883022.15548       314.567          47.500  
  20450489.300   107468082.26109      -117.313          51.500    20450487.500  
  83741370.46849      -117.313          49.450  
  22139842.520   116345698.09909      -490.811          48.750    22139841.300  
  90658995.45747      -490.812          43.850  
  20253427.260   108152200.57306      -387.271          39.050    20253430.640  
  84118409.56007      -387.271          42.650  
  23186148.900   123595231.02407      -852.531          42.650    23186156.040  
  96129642.92107      -852.532          42.350  
  22150553.960   118199598.71608       597.370          45.950    22150558.200  
  91933037.74407       597.370          44.400  
  19425662.440   103987142.47409        90.475          49.300    19425663.260  
  80878905.37808        90.475          47.250  
  21191801.440   113202833.64808       408.299          47.100    21191804.800  
  88046670.99208       408.299          45.000  
  21785203.920   116536148.67705       472.778          38.000    21785205.780  
  90639228.49607       472.778          41.900  
  20879312.060   111807808.00608      -505.398          47.700    20879313.280  
  86961641.91208      -505.398          44.800  
 20 09 28 08 59 40.0000000  0 15G15G11G21G20G12G24G10G32R13R14R 2R 3
                                R12R19R 4
  24147778.640   126897424.25407       658.398          42.250    24147775.700  
  98881091.82045       658.399          37.800  
  24038172.580   126321454.21906      -191.476          40.600    24038168.900  
  98432281.60745      -191.477          36.450  
  23079443.340   121283310.84108      -110.411          47.400    23079438.440  
  94506465.19047      -110.411          41.500  
  20644675.140   108488525.53209       383.766          49.950    20644670.440  
  84536510.20048       383.767          45.800  
  24164052.580   126982961.16007      -622.332          43.850    24164050.080  
  98947754.74646      -622.334          39.050  
  20975077.900   110224815.97509       315.226          48.700    20975076.160  
  85889468.69148       315.226          47.600  
  20449904.040   107465006.70909      -116.715          51.550    20449902.240  
  83738973.93549      -116.715          49.750  
  22137389.100   116332805.36809      -490.479          49.000    22137387.900  
  90648949.19247      -490.479          43.400  
  20251492.900   108141871.32206      -386.396          39.050    20251496.340  
  84110375.70207      -386.396          42.700  
  23181886.660   123572511.12807      -852.299          43.000    23181893.800  
  96111971.91207      -852.300          42.250  
  22153541.640   118215541.03608       597.699          45.150    22153545.820  
  91945437.33507       597.699          44.500  
  19426116.080   103989570.86109        91.052          49.300    19426116.920  
  80880794.12708        91.052          47.200  
  21193844.700   113213748.63208       409.117          46.750    21193848.120  
  88055160.42508       409.117          45.000  
  21787569.380   116548802.28805       473.596          37.950    21787571.320  
  90649070.18307       473.597          41.950  
  20876785.740   111794279.54808      -505.061          47.550    20876786.880  
  86951119.78508      -505.062          44.750  
 20 09 28 08 59 45.0000000  0 15G15G11G21G20G12G24G10G32R13R14R 2R 3
                                R12R19R 4
  24151070.300   126914721.94207       658.319          41.750    24151067.300  
  98894570.53346       658.320          38.550  
  24037216.500   126316429.89006      -190.993          40.850    24037212.820  
  98428366.56343      -190.994          31.100  
  23078892.000   121280413.70508      -110.029          47.050    23078887.120  
  94504207.70047      -110.030          42.050  
  20646594.720   108498612.99809       384.071          49.900    20646590.060  
  84544370.56148       384.071          45.500  
  24160941.160   126966610.31407      -622.255          44.150    24160938.640  
  98935013.83246      -622.255          38.800  
  20976654.980   110233103.64209       315.623          48.700    20976653.260  
  85895926.60948       315.623          47.050  
  20449321.300   107461944.43709      -116.374          51.500    20449319.520  
  83736587.75149      -116.374          49.600  
  22134936.800   116319918.43709      -490.406          48.950    22134935.580  
  90638907.42847      -490.406          43.850  
  20249562.380   108131562.52706      -385.788          38.850    20249565.860  
  84102357.75507      -385.788          42.550  
  23177624.960   123549794.14707      -852.344          43.200    23177632.100  
  96094303.16507      -852.345          42.700  
  22156530.300   118231488.81607       597.786          43.800    22156534.480  
  91957841.15908       597.786          44.700  
  19426572.000   103992011.39909        91.352          49.550    19426572.820  
  80882692.33008        91.351          47.100  
  21195891.580   113224682.86608       409.679          46.750    21195895.060  
  88063664.82908       409.679          44.950  
  21789938.120   116561473.79205       474.021          37.750    21789940.180  
  90658925.79107       474.021          41.950  
  20874260.580   111780757.56208      -504.979          47.650    20874261.720  
  86940602.68708      -504.979          44.800  
 20 09 28 08 59 50.0000000  0 15G15G11G21G20G12G24G10G32R13R14R 2R 3
                                R12R19R 4
  24154362.000   126932019.99207       658.252          41.950    24154358.980  
  98908049.53245       658.253          37.800  
  24036263.300   126311420.80007      -190.402          41.550    24036259.540  
  98424463.36744      -190.402          33.550  
  23078342.960   121277528.85108      -109.634          46.900    23078338.120  
  94501959.76447      -109.634          41.900  
  20648516.520   108508712.13309       384.486          49.700    20648511.900  
  84552240.00848       384.487          45.550  
  24157830.480   126950263.57507      -622.130          44.200    24157827.940  
  98922276.12345      -622.130          38.400  
  20978234.620   110241404.77509       316.105          48.800    20978232.940  
  85902395.02448       316.105          46.950  
  20448740.880   107458894.39109      -115.939          51.600    20448739.120  
  83734211.09749      -115.940          49.450  
  22132485.380   116307036.24309      -490.272          48.800    22132484.140  
  90628869.35747      -490.272          43.700  
  20247635.440   108121272.94906      -385.120          39.050    20247638.960  
  84094354.76407      -385.121          42.600  
  23173363.660   123527079.16407      -852.313          43.250    23173370.760  
  96076635.97107      -852.313          42.700  
  22159519.620   118247440.81607       597.877          43.200    22159523.920  
  91970248.23608       597.879          44.750  
  19427029.980   103994462.95309        91.728          49.700    19427030.760  
  80884599.09708        91.728          47.050  
  21197941.860   113235635.22708       410.323          47.050    21197945.380  
  88072183.32008       410.323          45.100  
  21792310.140   116574162.11905       474.637          38.400    21792312.200  
  90668794.47807       474.638          41.800  
  20871736.420   111767240.96908      -504.823          47.850    20871737.560  
  86930089.78908      -504.824          45.000  
 20 09 28 08 59 55.0000000  0 15G15G11G21G20G12G24G10G32R13R14R 2R 3
                                R12R19R 4
  24157653.840   126949318.87806       658.355          41.400    24157650.780  
  98921529.17745       658.355          37.650  
  24035313.140   126306427.41607      -189.826          41.700    24035309.380  
  98420572.41244      -189.826          34.500  
  23077796.400   121274656.76408      -109.096          47.200    23077791.560  
  94499721.78646      -109.096          40.400  
  20650440.620   108518823.42109       385.026          49.650    20650436.020  
  84560118.91948       385.026          45.050  
  24154720.700   126933921.47107      -621.893          44.000    24154718.120  
  98909542.05145      -621.894          37.400  
  20979816.920   110249719.97209       316.710          48.800    20979815.260  
  85908874.39948       316.710          46.700  
  20448162.880   107455857.04909      -115.382          51.500    20448161.140  
  83731844.34549      -115.383          49.550  
  22130034.960   116294159.27509      -490.005          48.600    22130033.700  
  90618835.36647      -490.005          44.200  
  20245712.180   108111003.19206      -384.318          40.000    20245715.760  
  84086367.19807      -384.319          42.300  
  23169102.820   123504366.56607      -852.128          43.900    23169109.880  
  96058970.64607      -852.130          42.650  
  22162509.880   118263397.74507       598.146          43.000    22162514.280  
  91982659.15508       598.146          44.550  
  19427490.120   103996926.08409        92.212          49.450    19427490.860  
  80886514.87508        92.212          47.000  
  21199995.660   113246606.19408       411.096          47.450    21199999.180  
  88080716.30408       411.096          44.750  
  21794685.380   116586867.88106       475.331          38.750    21794687.460  
  90678676.73007       475.332          41.850  
  20869213.380   111753730.22808      -504.514          47.950    20869214.520  
  86919581.44608      -504.514          44.650  
 20 09 28 09 00  0.0000000  0 15G15G11G21G20G12G24G10G32R13R14R 2R 3
                                R12R19R 4
  24160946.220   126966620.65107       658.507          41.500    24160943.160  
  98935011.06845       658.507          37.600  
  24034366.380   126301451.81406      -189.045          41.200    24034362.420  
  98416695.30345      -189.044          35.750  
  23077252.620   121271799.50408      -108.466          47.150    23077247.800  
  94497495.34647      -108.467          42.050  
  20652367.400   108528948.88109       385.626          49.650    20652362.840  
  84568008.87648       385.627          45.450  
  24151612.160   126917586.03107      -621.621          43.750    24151609.560  
  98896813.15746      -621.622          39.100  
  20981402.280   110258051.34009       317.374          48.600    20981400.680  
  85915366.36748       317.374          46.750  
  20447587.720   107452834.49709      -114.742          51.350    20447585.980  
  83729489.10449      -114.742          49.600  
  22127585.900   116281289.57308      -489.694          48.350    22127584.680  
  90608807.02847      -489.694          43.900  
  20243793.060   108100755.30006      -383.416          40.000    20243796.640  
  84078396.61107      -383.416          42.100  
  23164842.860   123481658.54707      -851.915          43.700    23164849.880  
  96041308.86807      -851.916          42.750  
  22165501.420   118279361.36007       598.448          43.200    22165505.880  
  91995075.28507       598.449          44.450  
  19427952.800   103999402.83309        92.787          49.400    19427953.540  
  80888441.23108        92.787          47.050  
  21202053.340   113257597.87908       411.889          47.800    21202056.840  
  88089265.39308       411.889          44.700  
  21797064.360   116599592.92606       476.083          38.650    21797066.320  
  90688573.98807       476.083          41.850  
  20866691.800   111740227.38608      -504.165          47.950    20866692.940  
  86909079.23108      -504.165          44.800  
 20 09 28 09 00  5.0000000  0 15G15G11G21G20G12G24G10G32R13R14R 2R 3
                                R12R19R 4
  24164239.040   126983924.86807       658.577          41.650    24164236.040  
  98948494.83445       658.578          37.550  
  24033422.940   126296493.56506      -188.421          41.250    24033418.960  
  98412831.78943      -188.422          29.300  
  23076711.640   121268956.65308      -107.952          47.250    23076706.800  
  94495280.14047      -107.952          42.000  
  20654296.840   108539088.12009       386.118          49.600    20654292.260  
  84575909.58048       386.118          45.700  
  24148504.820   126901256.91707      -621.397          43.700    24148502.140  
  98884089.18045      -621.397          38.250  
  20982990.580   110266398.19408       317.916          48.450    20982989.020  
  85921870.41348       317.916          46.950  
  20447015.280   107449826.29909      -114.264          51.400    20447013.540  
  83727145.05249      -114.264          49.700  
  22125138.160   116268426.75108      -489.480          48.300    22125136.960  
  90598784.05748      -489.480          44.650  
  20241878.020   108090529.02606      -382.646          39.400    20241881.540  
  84070442.84707      -382.646          42.000  
  23160583.660   123458954.74307      -851.788          43.700    23160590.680  
  96023650.37207      -851.789          43.100  
  22168494.200   118295331.67707       598.639          43.700    22168498.740  
  92007496.63107       598.639          44.250  
  19428417.960   104001892.86009        93.226          49.550    19428418.700  
  80890377.91708        93.226          47.050  
  21204114.840   113268609.77808       412.621          47.800    21204118.260  
  88097830.21308       412.621          44.650  
  21799446.700   116612336.99405       476.818          38.050    21799448.760  
  90698486.03907       476.818          41.800  
  20864171.640   111726732.11908      -503.933          48.050    20864172.780  
  86898582.91808      -503.933          44.850  
 20 09 28 09 00 10.0000000  0 15G15G11G21G20G12G24G10G32R13R14R 2R 3
                                R12R19R 4
  24167532.080   127001229.84207       658.489          41.500    24167529.000  
  98961979.25246       658.489          38.700  
  24032482.460   126291550.99607      -187.976          41.750    24032478.540  
  98408980.39644      -187.975          35.300  
  23076173.080   121266126.47808      -107.639          47.450    23076168.220  
  94493074.81047      -107.639          42.750  
  20656228.580   108549239.44309       386.445          49.450    20656223.960  
  84583819.70748       386.444          45.550  
  24145398.340   126884932.44907      -621.311          43.800    24145395.620  
  98871368.85446      -621.313          40.300  
  20984581.520   110274759.08108       318.354          48.450    20984580.020  
  85928385.39548       318.354          47.100  
  20446445.240   107446830.76909      -113.871          51.450    20446443.520  
  83724810.88049      -113.871          49.700  
  22122691.440   116255569.11208      -489.411          48.500    22122690.240  
  90588765.13548      -489.412          44.700  
  20239966.620   108080322.58506      -382.060          39.650    20239970.140  
  84062504.51307      -382.060          41.800  
  23156324.940   123436253.24107      -851.842          43.800    23156331.940  
  96005993.67107      -851.843          43.050  
  22171487.900   118311306.34307       598.734          43.800    22171492.400  
  92019921.36507       598.734          44.350  
  19428885.280   104004394.34809        93.564          49.500    19428886.000  
  80892323.52708        93.563          47.100  
  21206179.760   113279640.23608       413.195          47.650    21206183.160  
  88106409.47308       413.194          44.550  
  21801832.340   116625098.41505       477.287          37.950    21801834.460  
  90708411.57807       477.287          41.750  
  20861652.540   111713242.69108      -503.833          48.100    20861653.740  
  86888091.15808      -503.834          45.000  
 20 09 28 09 00 15.0000000  0 15G15G11G21G20G12G24G10G32R13R14R 2R 3
                                R12R19R 4
  24170825.220   127018535.50107       658.559          41.600    24170822.160  
  98975464.17145       658.560          38.050  
  24031544.920   126286624.08507      -187.280          41.850    24031540.900  
  98405141.26544      -187.280          33.400  
  23075636.900   121263308.99808      -107.068          47.150    23075632.040  
  94490879.37446      -107.068          41.350  
  20658162.600   108559402.79409       386.946          49.450    20658157.960  
  84591739.20048       386.946          45.950  
  24142292.740   126868612.53707      -621.065          43.550    24142289.980  
  98858652.02346      -621.066          39.350  
  20986175.140   110283133.84208       318.926          48.500    20986173.660  
  85934911.18548       318.926          46.800  
  20445877.640   107443847.87409      -113.371          51.650    20445875.900  
  83722486.54549      -113.371          49.700  
  22120245.680   116242716.61909      -489.134          48.900    22120244.500  
  90578750.21247      -489.134          44.350  
  20238059.020   108070135.87806      -381.253          39.550    20238062.440  
  84054581.52207      -381.254          42.050  
  23152066.700   123413554.22007      -851.654          44.050    23152073.660  
  95988338.88607      -851.655          43.200  
  22174482.480   118327285.82507       598.928          44.050    22174486.940  
  92032349.84007       598.928          44.250  
  19429354.740   104006907.28109        94.024          49.700    19429355.440  
  80894278.02708        94.024          47.350  
  21208248.120   113290689.13008       413.971          47.450    21208251.520  
  88115003.05908       413.971          44.550  
  21804221.160   116637877.06105       478.024          37.950    21804223.360  
  90718350.52207       478.024          42.000  
  20859134.540   111699759.00908      -503.570          48.050    20859135.760  
  86877603.85008      -503.570          45.100  
 20 09 28 09 00 20.0000000  0 15G15G11G21G20G12G24G10G32R13R14R 2R 3
                                R12R19R 4
  24174118.780   127035843.12307       658.771          41.500    24174115.700  
  98988950.62845       658.771          36.050  
  24030610.620   126281714.05106      -186.525          41.250    24030606.640  
  98401315.25245      -186.525          35.800  
  23075103.400   121260505.38208      -106.497          47.400    23075098.500  
  94488694.72746      -106.496          41.400  
  20660099.160   108569579.38109       387.553          49.500    20660094.500  
  84599669.00648       387.553          45.200  
  24139188.220   126852298.46907      -620.809          43.600    24139185.460  
  98845939.78145      -620.810          37.850  
  20987771.660   110291523.73709       319.569          48.750    20987770.180  
  85941448.76948       319.569          46.600  
  20445312.660   107440878.84709      -112.756          51.800    20445310.920  
  83720173.01949      -112.756          49.250  
  22117801.180   116229870.50609      -488.790          49.150    22117799.980  
  90568740.26247      -488.791          44.050  
  20236155.320   108059970.20806      -380.352          39.600    20236158.720  
  84046674.88307      -380.352          42.300  
  23147809.100   123390858.78907      -851.483          44.150    23147816.080  
  95970686.90707      -851.484          43.600  
  22177478.200   118343271.20607       599.208          44.150    22177482.580  
  92044782.91007       599.208          44.500  
  19429826.540   104009432.99709        94.589          49.400    19429827.280  
  80896242.47708        94.588          47.500  
  21210320.160   113301757.65208       414.759          46.900    21210323.560  
  88123611.90708       414.759          44.700  
  21806613.580   116650674.10305       478.791          38.000    21806615.700  
  90728303.77707       478.791          42.300  
  20856617.860   111686282.39108      -503.213          47.700    20856619.100  
  86867122.03908      -503.214          45.300  
 20 09 28 09 00 25.0000000  0 15G15G11G21G20G12G24G10G32R13R14R 2R 3
                                R12R19R 4
  24177412.440   127053151.48906       658.735          40.900    24177409.440  
  99002437.66045       658.735          37.800  
  24029679.280   126276819.71606      -185.909          40.700    24029675.300  
  98397501.49944      -185.908          33.000  
  23074572.300   121257714.50908      -105.909          47.250    23074567.420  
  94486520.02946      -105.909          41.250  
  20662038.000   108579768.04609       388.019          49.650    20662033.300  
  84607608.22748       388.019          45.250  
  24136084.560   126835989.11907      -620.667          43.300    24136081.840  
  98833231.20346      -620.667          38.700  
  20989370.840   110299927.50909       320.126          48.850    20989369.360  
  85947997.16948       320.126          46.250  
  20444750.120   107437922.54309      -112.255          51.750    20444748.340  
  83717869.41449      -112.256          49.150  
  22115357.620   116217029.61209      -488.564          48.950    22115356.440  
  90558734.37847      -488.565          43.700  
  20234255.320   108049824.35906      -379.640          39.100    20234258.720  
  84038783.68007      -379.640          42.600  
  23143552.100   123368165.93107      -851.353          44.000    23143559.000  
  95953036.92507      -851.354          43.850  
  22180474.720   118359261.18107       599.425          43.900    22180479.140  
  92057219.55008       599.426          44.700  
  19430300.500   104011970.18809        95.029          49.450    19430301.280  
  80898215.84508        95.029          47.550  
  21212395.680   113312844.73108       415.453          46.600    21212399.080  
  88132235.19708       415.452          44.950  
  21809009.120   116663488.24905       479.385          37.750    21809011.220  
  90738270.34407       479.385          41.900  
  20854102.280   111672811.61708      -502.962          47.550    20854103.520  
  86856644.78308      -502.962          45.350  
 20 09 28 09 00 30.0000000  0 15G15G11G21G20G12G24G10G32R13R14R 2R 3
                                R12R19R 4
  24180707.100   127070465.00006       659.004          41.150    24180704.140  
  99015928.69145       659.005          38.500  
  24028751.740   126271945.46806      -185.168          40.700    24028747.720  
  98393703.39444      -185.168          34.350  
  23074044.440   121254940.77208      -105.297          47.050    23074039.580  
  94484358.67447      -105.296          41.550  
  20663979.980   108589973.17209       388.641          49.600    20663975.260  
  84615560.27248       388.641          44.950  
  24132982.620   126819688.85807      -620.235          43.450    24132979.920  
  98820529.70345      -620.236          37.950  
  20990973.560   110308349.74609       320.832          48.800    20990972.040  
  85954559.94548       320.833          46.400  
  20444190.840   107434983.35409      -111.583          51.600    20444189.020  
  83715579.13949      -111.583          49.400  
  22112915.920   116204198.31809      -488.223          48.800    22112914.720  
  90548735.97247      -488.223          43.950  
  20232359.820   108039702.84506      -378.700          39.850    20232363.320  
  84030911.40607      -378.701          42.400  
  23139296.320   123345480.04207      -851.088          43.800    23139303.220  
  95935392.36307      -851.089          43.750  
  22183472.960   118375260.53007       599.762          42.850    22183477.440  
  92069663.47908       599.762          44.900  
  19430777.480   104014523.42709        95.651          49.550    19430778.260  
  80900201.68508        95.652          47.450  
  21214475.500   113323954.75608       416.360          46.750    21214478.880  
  88140876.32008       416.360          44.850  
  21811408.540   116676323.99905       480.247          37.800    21811410.700  
  90748253.69307       480.248          41.600  
  20851588.620   111659351.19108      -502.599          47.700    20851589.880  
  86846175.56808      -502.599          45.100  
 20 09 28 09 00 35.0000000  0 15G15G11G21G20G12G24G10G32R13R14R 2R 3
                                R12R19R 4
  24184002.080   127087779.91106       659.007          41.100    24183999.080  
  99029420.80746       659.008          38.850  
  24027827.280   126267087.52707      -184.621          41.550    24027823.260  
  98389917.99144      -184.622          33.400  
  23073519.140   121252180.37308      -104.813          46.950    23073514.300  
  94482207.70947      -104.813          41.550  
  20665924.360   108600190.92609       389.130          49.600    20665919.640  
  84623522.15048       389.130          45.050  
  24129881.720   126803393.86607      -620.069          43.550    24129879.020  
  98807832.30045      -620.069          38.400  
  20992579.020   110316786.42409       321.362          48.850    20992577.500  
  85961133.98648       321.361          46.800  
  20443634.080   107432057.46109      -111.111          51.450    20443632.220  
  83713299.21849      -111.111          49.350  
  22110475.320   116191372.83609      -487.996          48.700    22110474.100  
  90538742.10847      -487.997          43.800  
  20230468.200   108029601.86206      -377.943          39.350    20230471.740  
  84023055.09007      -377.943          42.650  
  23135041.140   123322797.29007      -851.002          43.450    23135048.000  
  95917750.24407      -851.003          43.700  
  22186472.100   118391265.11907       599.930          41.700    22186476.720  
  92082111.47808       599.931          45.250  
  19431256.700   104017088.75309        96.079          49.300    19431257.520  
  80902196.94308        96.079          47.450  
  21216558.800   113335083.77408       417.032          46.250    21216562.240  
  88149532.21408       417.032          44.850  
  21813811.500   116689177.62905       480.914          38.100    21813813.520  
  90758250.95206       480.915          41.400  
  20849076.200   111645897.22408      -502.366          47.300    20849077.460  
  86835711.36708      -502.367          45.200  
 20 09 28 09 00 40.0000000  0 15G15G11G21G20G12G24G10G32R13R14R 2R 3
                                R12R19R 4
  24187297.020   127105094.72407       659.229          41.500    24187294.000  
  99042912.84545       659.230          37.150  
  24026905.660   126262244.45407      -183.785          41.900    24026901.600  
  98386144.16744      -183.785          32.600  
  23072996.080   121249431.83408      -104.086          47.050    23072991.260  
  94480066.00146      -104.086          41.450  
  20667870.880   108610419.89009       389.754          49.600    20667866.140  
  84631492.75948       389.755          45.250  
  24126781.540   126787102.74107      -619.679          43.450    24126778.900  
  98795137.93546      -619.679          38.700  
  20994187.000   110325236.18509       322.104          48.750    20994185.440  
  85967718.21548       322.104          46.850  
  20443079.560   107429143.44109      -110.438          51.400    20443077.680  
  83711028.54549      -110.438          49.400  
  22108035.580   116178551.71609      -487.617          49.000    22108034.320  
  90528751.63447      -487.618          44.000  
  20228580.140   108019519.93806      -376.967          38.750    20228583.760  
  84015213.59407      -376.967          42.900  
  23130786.300   123300116.26807      -850.707          43.300    23130793.120  
  95900109.46707      -850.707          43.950  
  22189472.020   118407273.61607       600.292          41.750    22189476.760  
  92094562.49208       600.293          45.600  
  19431737.900   104019664.66509        96.693          49.200    19431738.720  
  80904200.43408        96.693          47.450  
  21218645.440   113346230.41708       417.895          46.600    21218648.880  
  88158201.82208       417.896          45.000  
  21816217.440   116702047.55005       481.739          37.850    21816219.360  
  90768260.89307       481.739          41.700  
  20846564.680   111632448.25308      -501.962          47.650    20846565.960  
  86825251.06008      -501.962          45.600  
 20 09 28 09 00 45.0000000  0 15G15G11G21G20G12G24G10G32R13R14R 2R 3
                                R12R19R 4
  24190592.200   127122411.18807       658.971          41.600    24190589.180  
  99056406.17945       658.971          37.150  
  24025987.180   126257418.01706      -183.430          41.250    24025983.200  
  98382383.31744      -183.432          34.900  
  23072475.640   121246696.97008      -103.921          47.200    23072470.860  
  94477934.94047      -103.921          41.650  
  20669819.860   108620661.81509       389.957          49.700    20669815.120  
  84639473.47948       389.957          45.050  
  24123682.480   126770817.27307      -619.779          43.400    24123679.880  
  98782447.95045      -619.779          38.150  
  20995797.780   110333700.74409       322.341          48.800    20995796.200  
  85974313.97848       322.341          47.100  
  20442527.660   107426243.07109      -110.187          51.550    20442525.740  
  83708768.51949      -110.187          49.350  
  22105597.000   116165736.75309      -487.669          49.100    22105595.700  
  90518765.95447      -487.670          43.750  
  20226696.040   108009458.86906      -376.471          38.600    20226699.680  
  84007388.32407      -376.472          42.600  
  23126532.040   123277438.71107      -850.892          43.050    23126538.880  
  95882471.38407      -850.893          43.800  
  22192473.000   118423287.69807       600.208          42.650    22192477.840  
  92107017.86608       600.208          45.650  
  19432221.480   104022253.16709        96.870          49.100    19432222.260  
  80906213.72008        96.869          47.350  
  21220735.700   113357396.41708       418.358          46.750    21220739.140  
  88166886.49608       418.358          44.900  
  21818626.720   116714935.53105       482.137          37.500    21818628.600  
  90778284.86707       482.137          41.600  
  20844054.420   111619006.08008      -501.983          47.550    20844055.760  
  86814796.03808      -501.983          45.400  
 20 09 28 09 00 50.0000000  0 15G15G11G21G20G12G24G10G32R13R14R 2R 3
                                R12R19R 4
  24193887.700   127139728.94507       659.137          41.700    24193884.640  
  99069900.53045       659.137          38.300  
  24025071.820   126252607.84407      -182.816          42.800    24025067.880  
  98378635.11245      -182.815          36.400  
  23071957.720   121243975.36608      -103.417          47.000    23071952.960  
  94475814.19947      -103.417          41.600  
  20671771.200   108630916.30409       390.431          49.600    20671766.500  
  84647463.99348       390.431          44.950  
  24120584.400   126754537.10207      -619.589          43.350    24120581.880  
  98769762.10346      -619.589          40.300  
  20997411.300   110342179.67309       322.912          48.650    20997409.700  
  85980920.94148       322.912          47.300  
  20441978.260   107423355.91809      -109.728          51.600    20441976.320  
  83706518.79349      -109.729          49.300  
  22103159.500   116152927.52009      -487.485          49.100    22103158.180  
  90508784.73347      -487.485          43.750  
  20224815.760   107999418.19606      -375.783          38.650    20224819.380  
  83999578.91607      -375.783          42.300  
  23122278.400   123254764.21107      -850.761          42.750    23122285.200  
  95864835.68507      -850.762          43.550  
  22195474.980   118439306.80107       600.455          42.750    22195479.860  
  92119477.16708       600.455          45.500  
  19432707.280   104024853.67109        97.295          49.100    19432708.020  
  80908236.33408        97.295          47.250  
  21222829.540   113368581.29908       419.044          47.050    21222832.960  
  88175585.85108       419.044          45.000  
  21821039.240   116727841.13505       482.753          38.250    21821041.100  
  90788322.54907       482.753          41.550  
  20841545.380   111605570.31708      -501.776          47.600    20841546.720  
  86804345.99408      -501.776          45.400  
 20 09 28 09 00 55.0000000  0 15G15G11G21G20G12G24G10G32R13R14R 2R 3
                                R12R19R 4
  24197183.620   127157049.04807       659.252          41.750    24197180.560  
  99083396.70646       659.252          38.650  
  24024159.720   126247815.03607      -182.090          41.550    24024155.800  
  98374900.44844      -182.090          35.400  
  23071442.520   121241268.15008      -102.732          47.250    23071437.820  
  94473704.67646      -102.732          41.050  
  20673725.180   108641184.50209       391.082          49.450    20673720.480  
  84655465.18148       391.083          44.950  
  24117487.560   126738263.35807      -619.223          43.700    24117485.120  
  98757081.27446      -619.224          41.300  
  20999027.780   110350674.10609       323.578          48.700    20999026.140  
  85987539.98548       323.578          46.750  
  20441431.600   107420483.19009      -109.044          51.550    20441429.640  
  83704280.30449      -109.044          49.300  
  22100723.280   116140125.16309      -487.109          48.900    22100721.980  
  90498808.88347      -487.109          43.700  
  20222939.440   107989399.12306      -374.814          39.250    20222943.060  
  83991786.29907      -374.814          42.100  
  23118025.500   123232094.03707      -850.511          42.900    23118032.320  
  95847203.35007      -850.513          43.750  
  22198478.140   118455332.49207       600.799          42.350    22198483.080  
  92131941.56808       600.800          45.350  
  19433195.540   104027467.32509        97.918          49.200    19433196.240  
  80910269.17608        97.918          47.300  
  21224927.180   113379786.34008       419.903          47.050    21224930.560  
  88184300.87208       419.903          45.350  
  21823455.360   116740765.45605       483.560          37.950    21823457.100  
  90798374.79707       483.560          41.600  
  20839037.740   111592142.11708      -501.383          47.350    20839039.120  
  86793901.84508      -501.383          45.550  
 20 09 28 09 01  0.0000000  0 15G15G11G21G20G12G24G10G32R13R14R 2R 3
                                R12R19R 4
  24200480.020   127174371.79107       659.292          42.200    24200477.000  
  99096894.94445       659.293          38.400  
  24023251.080   126243039.95906      -181.433          41.400    24023247.120  
  98371179.62343      -181.435          28.800  
  23070930.100   121238575.58808      -102.261          47.200    23070925.480  
  94471606.59046      -102.262          41.250  
  20675681.800   108651466.69609       391.555          49.300    20675677.140  
  84663477.27548       391.555          45.250  
  24114392.000   126721996.34907      -618.984          44.000    24114389.620  
  98744405.68846      -618.984          40.250  
  21000647.220   110359184.24809       324.133          48.650    21000645.580  
  85994171.26548       324.133          46.700  
  20440887.720   107417625.10209      -108.562          51.500    20440885.740  
  83702053.22249      -108.562          49.250  
  22098288.400   116127329.97709      -486.891          48.750    22098287.140  
  90488838.61247      -486.891          44.050  
  20221067.300   107979401.93906      -374.092          39.200    20221070.860  
  83984010.70907      -374.093          42.400  
  23113773.420   123209428.42307      -850.360          42.750    23113780.300  
  95829574.56807      -850.361          43.800  
  22201482.540   118471364.76707       600.965          42.400    22201487.540  
  92144411.08808       600.967          45.400  
  19433686.300   104030094.56509        98.355          49.050    19433687.000  
  80912312.58908        98.355          47.300  
  21227028.620   113391011.69508       420.620          46.950    21227032.000  
  88193031.70608       420.620          45.450  
  21825874.900   116753708.90105       484.208          37.650    21825876.680  
  90808441.92707       484.208          41.950  
  20836531.580   111578721.78208      -501.142          47.600    20836532.980  
  86783463.82308      -501.142          45.700  
 20 09 28 09 01  5.0000000  0 15G15G11G21G20G12G24G10G32R13R14R 2R 3
                                R12R19R 4
  24203776.480   127191694.54307       659.354          41.800    24203773.460  
  99110393.17145       659.354          37.100  
  24022345.260   126238279.85807      -180.787          41.950    24022341.420  
  98367470.46644      -180.788          35.150  
  23070420.000   121235895.08108      -101.673          47.400    23070415.440  
  94469517.88447      -101.673          41.650  
  20677640.540   108661760.15409       392.067          49.350    20677635.940  
  84671498.13748       392.068          44.950  
  24111297.260   126705733.41207      -618.781          44.350    24111294.940  
  98731733.28446      -618.782          40.800  
  21002269.160   110367707.61609       324.742          49.000    21002267.500  
  86000812.84548       324.742          46.700  
  20440346.140   107414779.05109      -107.991          51.600    20440344.140  
  83699835.51849      -107.991          49.200  
  22095854.380   116114539.29409      -486.636          48.850    22095853.140  
  90478871.85947      -486.636          43.750  
  20219198.780   107969424.01806      -373.226          39.150    20219202.320  
  83976250.10207      -373.226          42.600  
  23109521.720   123186764.80307      -850.211          42.600    23109528.640  
  95811947.32207      -850.212          43.650  
  22204487.720   118487401.04507       601.192          43.000    22204492.720  
  92156883.72408       601.193          45.400  
  19434179.080   104032732.58109        98.852          49.100    19434179.800  
  80914364.37108        98.852          47.400  
  21229133.360   113402254.65408       421.367          46.950    21229136.740  
  88201776.23008       421.367          45.400  
  21828297.560   116766668.59505       484.926          37.700    21828299.360  
  90818521.68007       484.926          41.850  
  20834026.360   111565306.65408      -500.850          47.650    20834027.820  
  86773029.83108      -500.850          45.550  
 20 09 28 09 01 10.0000000  0 15G15G11G21G20G12G24G10G32R13R14R 2R 3
                                R12R19R 4
  24207073.200   127209018.78707       659.452          42.000    24207070.180  
  99123892.56045       659.452          36.000  
  24021442.580   126233536.28507      -180.182          41.650    24021438.700  
  98363774.16343      -180.181          29.750  
  23069912.460   121233228.07708      -101.208          47.600    23069907.960  
  94467439.70546      -101.208          40.800  
  20679601.740   108672066.39009       392.542          49.400    20679597.200  
  84679528.96648       392.542          45.000  
  24108203.620   126689476.04808      -618.598          44.900    24108201.320  
  98719065.22046      -618.598          40.350  
  21003893.840   110376245.47409       325.252          49.100    21003892.180  
  86007465.72248       325.252          46.400  
  20439807.140   107411946.53709      -107.487          51.600    20439805.100  
  83697628.36849      -107.487          49.050  
  22093421.520   116101754.63609      -486.429          49.000    22093420.300  
  90468909.80047      -486.429          43.450  
  20217334.140   107959466.79706      -372.516          39.050    20217337.660  
  83968505.61007      -372.517          42.400  
  23105270.720   123164104.52507      -850.102          42.600    23105277.620  
  95794322.68407      -850.103          43.700  
  22207493.980   118503442.84007       601.397          43.700    22207498.960  
  92169360.67008       601.397          45.100  
  19434674.180   104035382.90309        99.296          49.050    19434674.880  
  80916425.73108        99.296          47.350  
  21231241.680   113413516.76808       422.055          46.600    21231245.040  
  88210535.64208       422.055          45.200  
  21830723.560   116779646.12905       485.556          37.400    21830725.420  
  90828615.31607       485.556          41.900  
  20831522.400   111551898.22508      -500.635          47.650    20831523.880  
  86762601.05908      -500.635          45.450  
 20 09 28 09 01 15.0000000  0 15G15G11G21G20G12G24G10G32R13R14R 2R 3
                                R12R19R 4
  24210370.020   127226343.70106       659.323          40.950    24210367.060  
  99137392.48045       659.324          38.000  
  24020542.900   126228808.42407      -179.677          41.850    24020538.980  
  98360090.10744      -179.678          32.050  
  23069407.360   121230573.80108      -100.808          47.300    23069402.880  
  94465371.43646      -100.807          41.400  
  20681565.200   108682384.60809       392.885          49.150    20681560.740  
  84687569.12748       392.886          45.100  
  24105110.920   126673223.50508      -618.534          44.950    24105108.620  
  98706400.90546      -618.534          40.800  
  21005521.180   110384797.19609       325.661          48.950    21005519.480  
  86014129.39948       325.661          47.000  
  20439270.540   107409126.73509      -107.135          51.450    20439268.500  
  83695431.12249      -107.135          49.350  
  22090989.660   116088975.17509      -486.342          49.000    22090988.440  
  90458951.79147      -486.342          43.600  
  20215473.160   107949529.49506      -371.869          39.450    20215476.740  
  83960776.61407      -371.870          42.750  
  23101020.160   123141446.91507      -850.111          42.400    23101027.100  
  95776700.13407      -850.113          43.700  
  22210501.120   118519489.07007       601.451          43.800    22210506.040  
  92181841.07508       601.451          45.000  
  19435171.420   104038044.64709        99.604          49.200    19435172.100  
  80918495.97808        99.604          47.350  
  21233353.400   113424797.19508       422.614          46.650    21233356.720  
  88219309.30108       422.614          45.100  
  21833152.720   116792640.70805       486.104          37.600    21833154.640  
  90838722.20007       486.104          41.900  
  20829019.560   111538495.71408      -500.505          47.800    20829021.060  
  86752176.89608      -500.506          45.400  
 20 09 28 09 01 20.0000000  0 15G15G11G21G20G12G24G10G32R13R14R 2R 3
                                R12R19R 4
  24213667.380   127243671.70206       659.623          40.200    24213664.500  
  99150894.79245       659.624          37.600  
  24019646.680   126224098.65407      -178.869          42.200    24019642.660  
  98356420.13844      -178.869          31.900  
  23068905.120   121227934.61708      -100.133          47.050    23068900.700  
  94463314.92746      -100.133          41.400  
  20683531.400   108692717.16609       393.547          49.150    20683527.000  
  84695620.46548       393.547          44.950  
  24102019.640   126656978.14908      -618.123          45.400    24102017.260  
  98693742.20146      -618.123          39.950  
  21007151.600   110393365.10809       326.407          48.950    21007149.880  
  86020805.70048       326.407          46.750  
  20438736.820   107406322.04109      -106.428          51.450    20438734.780  
  83693245.65049      -106.428          49.250  
  22088559.220   116076203.30809      -485.926          48.750    22088558.020  
  90448999.69147      -485.927          43.650  
  20213616.480   107939614.65506      -370.878          39.450    20213620.000  
  83953065.07107      -370.878          42.650  
  23096770.580   123118794.38707      -849.789          42.900    23096777.520  
  95759081.51807      -849.790          43.800  
  22213509.540   118535542.54107       601.836          43.750    22213514.480  
  92194327.08908       601.837          44.800  
  19435671.280   104040720.38809       100.256          49.550    19435671.940  
  80920577.10808       100.256          47.500  
  21235468.980   113436098.31308       423.519          46.550    21235472.300  
  88228099.05908       423.519          45.350  
  21835585.420   116805654.65705       486.928          37.650    21835587.420  
  90848844.15507       486.929          41.900  
  20826518.280   111525101.51608      -500.072          47.750    20826519.780  
  86741759.19508      -500.072          45.450  
 20 09 28 09 01 25.0000000  0 15G15G11G21G20G12G24G10G32R13R14R 2R 3
                                R12R19R 4
  24216965.100   127261001.56106       659.670          39.800    24216962.320  
  99164398.56446       659.671          38.550  
  24018753.720   126219405.82807      -178.249          42.350    24018749.620  
  98352763.37444      -178.248          33.950  
  23068405.540   121225309.41708       -99.602          47.150    23068401.140  
  94461269.31846       -99.602          41.350  
  20685500.100   108703062.96209       394.042          49.150    20685495.780  
  84703682.12348       394.043          45.000  
  24098929.460   126640738.86208      -617.907          44.950    24098927.060  
  98681088.22146      -617.908          40.150  
  21008784.940   110401948.22309       327.010          49.100    21008783.180  
  86027493.84648       327.010          46.850  
  20438205.780   107403531.32309      -105.904          51.600    20438203.720  
  83691071.06549      -105.904          49.300  
  22086130.000   116063437.90708      -485.671          48.500    22086128.800  
  90439052.63747      -485.671          43.950  
  20211763.620   107929720.91906      -370.117          38.800    20211767.240  
  83945369.94507      -370.117          42.650  
  23092521.760   123096145.82807      -849.670          43.000    23092528.700  
  95741465.99107      -849.670          43.900  
  22216519.060   118551601.77507       602.061          44.150    22216523.960  
  92206817.57707       602.062          44.500  
  19436173.500   104043408.87309       100.715          49.650    19436174.200  
  80922668.15108       100.715          47.550  
  21237588.180   113447418.94508       424.254          46.450    21237591.540  
  88236904.00308       424.253          45.650  
  21838021.620   116818686.68705       487.604          37.450    21838023.640  
  90858980.17607       487.604          42.000  
  20824018.340   111511714.49308      -499.820          47.550    20824019.840  
  86731347.06408      -499.821          45.350  
 20 09 28 09 01 30.0000000  0 15G15G11G21G20G12G24G10G32R13R14R 2R 3
                                R12R19R 4
  24220263.320   127278334.07606       659.552          39.650    24220260.640  
  99177904.39446       659.553          39.500  
  24017864.100   126214730.71207      -177.658          41.850    24017859.920  
  98349120.43144      -177.657          32.400  
  23067908.780   121222698.94608       -99.127          47.300    23067904.360  
  94459235.18746       -99.127          41.050  
  20687471.480   108713422.72909       394.479          49.050    20687467.180  
  84711754.66248       394.479          45.150  
  24095840.580   126624506.40208      -617.712          44.750    24095838.160  
  98668439.55946      -617.713          40.350  
  21010421.240   110410547.00109       327.470          49.050    21010419.460  
  86034194.19648       327.470          46.800  
  20437677.540   107400755.34509      -105.430          51.600    20437675.480  
  83688907.96949      -105.430          49.250  
  22083702.140   116050679.72708      -485.460          48.400    22083700.980  
  90429111.21547      -485.461          44.000  
  20209914.820   107919849.21705      -369.390          38.500    20209918.580  
  83937691.97207      -369.390          42.650  
  23088273.820   123073502.00007      -849.571          42.800    23088280.760  
  95723854.14707      -849.572          43.900  
  22219529.940   118567667.95607       602.220          43.900    22219534.720  
  92219313.49007       602.220          44.300  
  19436678.240   104046110.83109       101.140          49.650    19436678.960  
  80924769.67908       101.140          47.600  
  21239711.220   113458759.90208       424.920          46.900    21239714.600  
  88245724.74608       424.920          45.850  
  21840461.360   116831737.77105       488.270          37.400    21840463.440  
  90869131.00707       488.270          42.200  
  20821519.880   111498335.34308      -499.610          47.850    20821521.380  
  86720941.06508      -499.610          45.500  
 20 09 28 09 01 35.0000000  0 15G15G11G21G20G12G24G10G32R13R14R 2R 3
                                R12R19R 4
  24223561.680   127295667.02506       659.643          40.900    24223559.060  
  99191410.57546       659.644          39.100  
  24016977.420   126210071.10407      -176.915          41.850    24016973.120  
  98345489.53444      -176.914          33.200  
  23067414.400   121220100.95108       -98.616          47.100    23067409.940  
  94457210.78446       -98.616          41.300  
  20689445.080   108723794.21609       394.957          49.100    20689440.820  
  84719836.33448       394.957          44.800  
  24092752.560   126608278.54208      -617.526          44.550    24092750.140  
  98655794.48246      -617.526          40.800  
  21012060.120   110419159.16109       328.028          49.100    21012058.300  
  86040904.97048       328.028          47.200  
  20437151.700   107397991.89609      -104.932          51.650    20437149.600  
  83686754.62449      -104.932          49.300  
  22081275.260   116037926.53109      -485.237          48.600    22081274.080  
  90419173.65947      -485.237          43.950  
  20208069.780   107909997.38106      -368.579          39.600    20208073.680  
  83930029.43807      -368.580          42.750  
  23084026.380   123050860.67807      -849.435          42.900    23084033.320  
  95706244.24607      -849.436          43.650  
  22222541.600   118583738.18307       602.396          43.750    22222546.260  
  92231812.53907       602.396          44.150  
  19437185.080   104048824.13009       101.605          49.400    19437185.860  
  80926880.02608       101.604          47.550  
  21241837.660   113470118.86408       425.634          47.600    21241841.040  
  88254559.47308       425.634          45.900  
  21842904.300   116844805.61005       488.899          38.250    21842906.360  
  90879294.87507       488.900          41.900  
  20819022.480   111484961.89808      -499.358          47.800    20819023.980  
  86710539.49808      -499.358          45.300  
 20 09 28 09 01 40.0000000  0 15G15G11G21G20G12G24G10G32R13R14R 2R 3
                                R12R19R 4
  24226860.100   127313000.01306       659.783          40.800    24226857.440  
  99204916.80045       659.784          37.200  
  24016093.620   126205426.53007      -176.308          41.900    24016089.280  
  98341870.40844      -176.309          34.550  
  23066922.340   121217515.04808       -98.061          47.100    23066917.800  
  94455195.80346       -98.061          40.900  
  20691420.840   108734177.02609       395.491          49.150    20691416.600  
  84727926.84048       395.491          44.850  
  24089665.300   126592054.92107      -617.212          43.850    24089662.880  
  98643152.71546      -617.213          40.500  
  21013701.460   110427784.38209       328.654          49.050    21013699.640  
  86047625.92848       328.653          46.950  
  20436628.140   107395240.53009      -104.356          51.650    20436626.040  
  83684610.70749      -104.356          49.300  
  22078849.240   116025177.91509      -484.988          48.600    22078848.080  
  90409239.67947      -484.988          43.950  
  20206228.500   107900164.88306      -367.788          39.600    20206232.340  
  83922381.93607      -367.788          42.750  
  23079779.360   123028221.40707      -849.300          42.900    23079786.240  
  95688635.95407      -849.302          43.750  
  22225553.920   118599812.49707       602.672          43.800    22225558.540  
  92244314.77707       602.672          44.100  
  19437693.980   104051548.34309       102.104          49.200    19437694.800  
  80928998.85908       102.104          47.650  
  21243967.440   113481495.40908       426.412          47.600    21243970.780  
  88263407.89908       426.412          46.050  
  21845350.220   116857889.60605       489.609          38.500    21845352.280  
  90889471.31807       489.609          42.300  
  20816526.080   111471593.78108      -499.055          47.850    20816527.580  
  86700142.08108      -499.056          45.350  
 20 09 28 09 01 45.0000000  0 15G15G11G21G20G12G24G10G32R13R14R 2R 3
                                R12R19R 4
  24230158.860   127330334.70706       659.941          40.700    24230156.140  
  99218424.33745       659.941          37.050  
  24015213.000   126200798.83007      -175.634          42.950    24015208.520  
  98338264.40043      -175.633          29.800  
  23066432.920   121214943.00008       -97.458          47.500    23066428.320  
  94453191.60746       -97.458          40.350  
  20693399.100   108744572.92309       396.060          49.250    20693394.860  
  84736027.53348       396.061          44.900  
  24086579.160   126575837.29007      -616.981          43.350    24086576.800  
  98630515.61946      -616.982          40.700  
  21015345.660   110436424.55909       329.300          49.300    21015343.800  
  86054358.53348       329.300          46.850  
  20436107.220   107392503.04309      -103.771          51.650    20436105.120  
  83682477.60249      -103.771          49.250  
  22076424.440   116012435.66008      -484.673          48.350    22076423.280  
  90399310.64947      -484.673          44.200  
  20204391.140   107890353.51706      -366.878          39.300    20204394.980  
  83914750.86007      -366.877          42.850  
  23075533.000   123005586.02007      -849.008          43.200    23075539.860  
  95671030.67807      -849.010          43.850  
  22228567.280   118615892.50707       602.951          43.800    22228571.900  
  92256821.43707       602.952          44.150  
  19438205.200   104054285.15509       102.667          49.250    19438206.080  
  80931127.48708       102.667          47.650  
  21246100.820   113492891.27508       427.210          46.950    21246104.140  
  88272271.35908       427.210          46.250  
  21847799.520   116870991.57505       490.358          37.850    21847801.560  
  90899661.73307       490.358          42.300  
  20814030.980   111458232.71208      -498.714          47.550    20814032.480  
  86689750.13608      -498.714          45.300  
 20 09 28 09 01 50.0000000  0 15G15G11G21G20G12G24G10G32R13R14R 2R 3
                                R12R19R 4
  24233458.560   127347674.43507       659.927          41.600    24233455.820  
  99231935.79745       659.927          37.750  
  24014336.200   126196191.24707      -175.083          42.550    24014331.720  
  98334674.08444      -175.083          33.650  
  23065946.780   121212388.05208       -96.957          47.350    23065942.080  
  94451200.72846       -96.957          41.200  
  20695380.460   108754985.12709       396.535          49.450    20695376.240  
  84744140.93848       396.535          44.700  
  24083494.760   126559628.98207      -616.747          43.200    24083492.480  
  98617885.77546      -616.747          40.950  
  21016993.320   110445082.87309       329.817          49.250    21016991.440  
  86061105.27448       329.817          47.100  
  20435589.580   107389782.70509      -103.247          51.650    20435587.460  
  83680357.86049      -103.247          49.400  
  22074001.460   115999702.99808      -484.497          48.500    22074000.320  
  90389389.09447      -484.497          44.250  
  20202558.320   107880566.54506      -366.133          39.400    20202562.200  
  83907138.77207      -366.133          42.950  
  23071287.980   122982957.85107      -848.908          43.700    23071294.880  
  95653431.00707      -848.909          43.900  
  22231582.480   118631981.67507       603.148          43.850    22231587.000  
  92269335.22707       603.148          44.200  
  19438719.400   104057037.92509       103.091          49.300    19438720.300  
  80933268.53008       103.091          47.650  
  21248238.420   113504309.83308       427.901          46.800    21248241.780  
  88281152.45708       427.901          46.350  
  21850252.740   116884115.02805       491.045          37.950    21850254.860  
  90909868.84607       491.046          42.200  
  20811537.760   111444881.98508      -498.475          47.250    20811539.320  
  86679366.25008      -498.475          45.100  
 20 09 28 09 01 55.0000000  0 15G15G11G21G20G12G24G10G32R13R14R 2R 3
                                R12R19R 4
  24236758.480   127365015.20307       659.868          41.600    24236755.680  
  99245448.08046       659.869          39.400  
  24013462.500   126191599.79907      -174.596          42.400    24013458.020  
  98331096.33444      -174.597          34.350  
  23065463.120   121209846.19608       -96.643          47.600    23065458.340  
  94449220.06646       -96.643          40.800  
  20697364.180   108765409.65109       396.860          49.650    20697359.960  
  84752263.94448       396.860          44.650  
  24080411.380   126543425.99507      -616.690          42.700    24080409.160  
  98605260.06247      -616.690          42.100  
  21018643.640   110453755.16109       330.182          49.150    21018641.740  
  86067862.90548       330.182          47.200  
  20435074.420   107387075.52109      -102.908          51.750    20435072.300  
  83678248.37049      -102.908          49.200  
  22071579.580   115986975.98009      -484.417          48.600    22071578.420  
  90379471.93947      -484.417          44.000  
  20200729.300   107870800.01206      -365.495          39.650    20200733.260  
  83899542.58507      -365.495          43.050  
  23067043.640   122960332.84807      -848.927          43.700    23067050.500  
  95635833.80507      -848.928          43.700  
  22234598.500   118648075.61307       603.174          43.400    22234603.000  
  92281852.72607       603.175          44.350  
  19439235.840   104059802.59209       103.388          49.300    19439236.740  
  80935418.82608       103.387          47.500  
  21250379.460   113515746.91608       428.424          46.550    21250382.860  
  88290047.96008       428.424          46.400  
  21852709.220   116897255.56105       491.436          38.200    21852711.340  
  90920089.24807       491.437          42.300  
  20809045.760   111431537.62308      -498.415          47.350    20809047.320  
  86668987.30608      -498.414          45.000  
 20 09 28 09 02  0.0000000  0 15G15G11G21G20G12G24G10G32R13R14R 2R 3
                                R12R19R 4
  24240057.980   127382353.96106       659.820          41.350    24240055.100  
  99258958.80345       659.820          38.500  
  24012591.300   126187021.49907      -174.063          42.700    24012586.760  
  98327528.83244      -174.064          35.400  
  23064981.400   121207314.51708       -96.168          47.400    23064976.540  
  94447247.33946       -96.169          40.800  
  20699349.680   108775843.53009       397.306          49.750    20699345.460  
  84760394.23347       397.306          44.400  
  24077328.420   126527225.34607      -616.541          41.950    24077326.240  
  98592636.18246      -616.541          40.350  
  21020296.100   110462438.61109       330.683          49.150    21020294.160  
  86074629.23548       330.682          47.350  
  20434561.200   107384378.53509      -102.450          51.750    20434559.100  
  83676146.82249      -102.451          49.250  
  22069158.200   115974251.64209      -484.196          48.850    22069157.040  
  90369556.87347      -484.197          44.300  
  20198903.640   107861050.89106      -364.831          39.550    20198907.640  
  83891959.94707      -364.831          43.100  
  23062799.280   122937707.98907      -848.866          43.800    23062806.160  
  95618236.71307      -848.867          43.750  
  22237614.940   118664172.03707       603.302          43.350    22237619.480  
  92294372.15507       603.302          44.200  
  19439753.920   104062576.08909       103.789          49.250    19439754.820  
  80937575.99708       103.789          47.600  
  21252523.360   113527199.50108       429.063          46.300    21252526.860  
  88298955.52508       429.063          46.450  
  21855168.440   116910410.32605       492.123          38.100    21855170.500  
  90930320.72707       492.124          42.250  
  20806554.440   111418196.57008      -498.200          47.350    20806555.960  
  86658610.92508      -498.200          45.050  
 20 09 28 09 02  5.0000000  0 15G15G11G21G20G12G24G10G32R13R14R 2R 3
                                R12R19R 4
  24243357.940   127399695.10506       660.193          41.150    24243355.000  
  99272471.36245       660.193          37.950  
  24011723.380   126182460.62507      -173.123          42.650    24011718.840  
  98323974.91245      -173.123          36.350  
  23064502.440   121204797.25508       -95.446          47.450    23064497.520  
  94445285.83647       -95.446          41.850  
  20701337.780   108786290.98909       397.936          49.900    20701333.540  
  84768535.09848       397.937          44.550  
  24074246.700   126511031.32607      -616.135          41.800    24074244.600  
  98580017.45546      -616.135          41.250  
  21021951.500   110471137.52609       331.441          49.100    21021949.520  
  86081407.60948       331.440          47.300  
  20434050.720   107381695.99109      -101.755          51.700    20434048.640  
  83674056.52749      -101.755          49.300  
  22066738.160   115961534.21209      -483.785          48.800    22066736.980  
  90359647.19147      -483.785          44.200  
  20197081.980   107851323.51806      -363.862          39.300    20197086.040  
  83884394.22007      -363.863          42.900  
  23058555.800   122915087.75407      -848.558          44.150    23058562.660  
  95600643.22007      -848.560          43.750  
  22240632.480   118680274.24407       603.682          42.850    22240637.060  
  92306896.07107       603.683          44.250  
  19440274.520   104065362.86909       104.432          49.350    19440275.400  
  80939743.49008       104.432          47.550  
  21254671.000   113538671.98808       429.982          46.750    21254674.580  
  88307878.57408       429.982          46.400  
  21857631.060   116923583.64505       492.964          37.500    21857633.120  
  90940566.64807       492.964          42.150  
  20804064.560   111404863.23108      -497.764          47.300    20804066.020  
  86648240.54608      -497.764          45.150  
 20 09 28 09 02 10.0000000  0 15G15G11G21G20G12G24G10G32R13R14R 2R 3
                                R12R19R 4
  24246658.560   127417039.83306       660.259          40.950    24246655.600  
  99285986.72645       660.259          37.800  
  24010859.040   126177918.50807      -172.486          41.650    24010854.540  
  98320435.58844      -172.486          33.600  
  23064026.460   121202295.78508       -94.889          47.250    23064021.520  
  94443336.63647       -94.889          42.000  
  20703328.740   108796753.43409       398.474          49.750    20703324.500  
  84776687.64248       398.475          45.100  
  24071166.520   126494845.33307      -615.813          41.500    24071164.480  
  98567404.98946      -615.812          40.400  
  21023610.080   110479853.17609       332.021          49.000    21023608.080  
  86088199.03648       332.021          47.650  
  20433543.260   107379029.28909      -101.194          51.500    20433541.220  
  83671978.57549      -101.194          49.600  
  22064319.680   115948825.06609      -483.533          48.900    22064318.500  
  90349743.96747      -483.533          44.350  
  20195264.720   107841619.27006      -363.005          39.200    20195268.740  
  83876846.47607      -363.006          42.400  
  23054313.440   122892473.40907      -848.369          44.400    23054320.320  
  95583054.30607      -848.370          43.650  
  22243651.480   118696384.28307       603.936          42.900    22243656.120  
  92319426.08507       603.937          44.050  
  19440797.840   104068164.25609       104.933          49.550    19440798.720  
  80941922.34808       104.933          47.550  
  21256822.620   113550165.79108       430.718          47.100    21256826.280  
  88316818.19008       430.719          46.300  
  21860097.360   116936776.74305       493.613          36.850    21860099.420  
  90950827.93507       493.613          42.350  
  20801576.340   111391538.92408      -497.469          47.700    20801577.760  
  86637877.20408      -497.469          45.300  
 20 09 28 09 02 15.0000000  0 15G15G11G21G20G12G24G10G32R13R14R 2R 3
                                R12R19R 4
  24249959.200   127434384.78006       660.157          40.750    24249956.160  
  99299502.25046       660.158          38.900  
  24009997.640   126173391.77607      -171.979          42.000    24009993.180  
  98316908.26645      -171.979          37.100  
  23063552.820   121199806.65608       -94.503          47.400    23063547.880  
  94441397.04146       -94.503          41.400  
  20705321.900   108807227.36909       398.871          49.600    20705317.660  
  84784849.14348       398.872          45.000  
  24068087.200   126478663.91007      -615.722          42.050    24068085.220  
  98554796.11246      -615.722          41.050  
  21025271.160   110488582.10509       332.479          49.100    21025269.160  
  86095000.80148       332.479          47.200  
  20433038.160   107376374.97109      -100.770          51.450    20433036.120  
  83669910.27749      -100.770          49.450  
  22061902.140   115936120.76609      -483.426          49.200    22061900.960  
  90339844.52247      -483.427          44.400  
  20193451.080   107831934.67706      -362.328          39.000    20193455.040  
  83869314.02307      -362.328          42.000  
  23050071.540   122869861.51607      -848.322          44.150    23050078.420  
  95565467.29707      -848.323          43.950  
  22246671.240   118712498.28507       604.018          43.100    22246675.920  
  92331959.17907       604.019          44.100  
  19441323.260   104070976.67209       105.285          49.450    19441324.120  
  80944109.78808       105.285          47.600  
  21258977.560   113561677.21608       431.328          47.150    21258981.280  
  88325771.51908       431.328          46.150  
  21862566.720   116949986.29005       494.195          37.000    21862568.800  
  90961102.01707       494.196          42.200  
  20799089.160   111378220.25508      -497.321          47.900    20799090.580  
  86627518.24508      -497.321          45.250  
 20 09 28 09 02 20.0000000  0 15G15G11G21G20G12G24G10G32R13R14R 2R 3
                                R12R19R 4
  24253260.320   127451732.24006       660.191          40.050    24253257.200  
  99313019.74245       660.192          36.600  
  24009139.580   126168882.71407      -171.354          43.700    24009135.120  
  98313394.71245      -171.354          36.100  
  23063081.920   121197332.09908       -94.021          47.050    23063077.020  
  94439468.83347       -94.021          42.250  
  20707317.640   108817715.07409       399.283          49.450    20707313.420  
  84793021.36948       399.283          45.300  
  24065009.180   126462489.33907      -615.543          42.800    24065007.280  
  98542192.55846      -615.544          40.850  
  21026935.180   110497326.51309       332.969          49.250    21026933.180  
  86101814.62048       332.969          46.450  
  20432535.820   107373735.29609      -100.295          51.650    20432533.840  
  83667853.38749      -100.295          49.450  
  22059485.980   115923423.60909      -483.209          49.300    22059484.780  
  90329950.63847      -483.210          44.250  
  20191641.540   107822272.15806      -361.541          39.100    20191645.440  
  83861798.73007      -361.541          41.900  
  23045830.500   122847254.37907      -848.226          44.100    23045837.440  
  95547883.97807      -848.226          43.800  
  22249692.240   118728619.09107       604.189          43.600    22249696.980  
  92344497.57107       604.190          43.700  
  19441851.180   104073802.56209       105.714          49.550    19441852.020  
  80946307.69808       105.714          47.600  
  21261136.300   113573208.63908       431.991          47.150    21261140.000  
  88334740.39908       431.991          46.300  
  21865039.640   116963214.40505       494.828          36.850    21865041.660  
  90971390.55207       494.828          42.450  
  20796603.480   111364909.46508      -497.101          47.850    20796604.860  
  86617165.40708      -497.101          45.350  
 20 09 28 09 02 25.0000000  0 15G15G11G21G20G12G24G10G32R13R14R 2R 3
                                R12R19R 4
  24256561.480   127469079.97106       660.269          39.300    24256558.280  
  99326537.44045       660.270          37.600  
  24008284.460   126164389.06507      -170.706          43.350    24008280.040  
  98309893.15945      -170.705          37.000  
  23062613.380   121194869.95708       -93.384          47.150    23062608.540  
  94437550.28547       -93.384          41.950  
  20709315.600   108828214.35709       399.892          49.300    20709311.380  
  84801202.62648       399.892          45.300  
  24061932.140   126446319.48407      -615.240          42.950    24061930.260  
  98529592.69246      -615.241          40.700  
  21028601.720   110506084.22909       333.650          48.800    21028599.740  
  86108638.81448       333.650          47.100  
  20432035.880   107371108.08809       -99.667          51.600    20432033.920  
  83665806.22149       -99.667          49.400  
  22057070.740   115910731.27709      -482.870          49.150    22057069.500  
  90320060.52447      -482.871          44.100  
  20189835.800   107812629.42506      -360.664          38.900    20189839.540  
  83854298.83607      -360.664          42.100  
  23041589.980   122824649.81607      -848.003          43.950    23041596.920  
  95530302.67407      -848.004          43.900  
  22252714.060   118744744.02407       604.526          43.750    22252718.760  
  92357039.17107       604.527          43.400  
  19442381.160   104076639.59409       106.292          49.300    19442382.000  
  80948514.27908       106.292          47.500  
  21263298.360   113584757.82008       432.809          46.800    21263302.060  
  88343723.09808       432.808          46.300  
  21867515.480   116976458.94805       495.561          36.900    21867517.580  
  90981691.86307       495.561          42.300  
  20794118.820   111351604.22408      -496.731          47.550    20794120.200  
  86606816.89608      -496.732          45.350  
 20 09 28 09 02 30.0000000  0 15G15G11G21G20G12G24G10G32R13R14R 2R 3
                                R12R19R 4
  24259863.140   127486430.69506       660.306          39.200    24259860.000  
  99340057.46945       660.307          37.800  
  24007432.860   126159913.62707      -170.026          42.900    24007428.420  
  98306405.80444      -170.026          34.200  
  23062147.720   121192422.98708       -92.909          47.150    23062142.940  
  94435643.55146       -92.909          41.350  
  20711316.280   108838727.95409       400.361          49.400    20711312.060  
  84809395.03548       400.361          45.450  
  24058856.560   126430157.11807      -615.019          43.400    24058854.640  
  98516998.64946      -615.019          40.200  
  21030271.300   110514858.01308       334.146          48.450    21030269.340  
  86115475.53348       334.146          47.300  
  20431538.840   107368496.12009       -99.171          51.650    20431536.880  
  83663770.91749       -99.171          49.350  
  22054656.960   115898046.71709      -482.663          49.050    22054655.680  
  90310176.45547      -482.664          44.200  
  20188034.240   107803009.27306      -359.959          39.650    20188037.940  
  83846816.50107      -359.960          42.400  
  23037350.480   122802050.63707      -847.866          43.900    23037357.400  
  95512725.55807      -847.868          43.400  
  22255737.200   118760876.02807       604.679          43.850    22255741.860  
  92369586.27507       604.680          43.000  
  19442913.740   104079490.63309       106.724          49.450    19442914.600  
  80950731.76208       106.724          47.250  
  21265464.280   113596327.56308       433.486          47.250    21265467.980  
  88352721.79408       433.485          46.200  
  21869994.920   116989722.67305       496.216          37.350    21869997.080  
  90992008.08407       496.216          41.900  
  20791635.720   111338307.50508      -496.519          47.850    20791637.120  
  86596475.01008      -496.519          45.250  
 20 09 28 09 02 35.0000000  0 15G15G11G21G20G12G24G10G32R13R14R 2R 3
                                R12R19R 4
  24263164.860   127503782.02405       660.459          38.300    24263161.760  
  99353577.98445       660.460          37.700  
  24006584.240   126155453.90207      -169.265          42.000    24006579.740  
  98302930.71844      -169.265          35.400  
  23061684.480   121189988.73408       -92.281          47.050    23061679.740  
  94433746.74147       -92.282          41.650  
  20713319.220   108849253.42709       400.933          49.350    20713314.980  
  84817596.70748       400.933          45.650  
  24055781.940   126413999.77907      -614.743          43.650    24055780.000  
  98504408.52646      -614.744          40.550  
  21031943.440   110523645.45908       334.814          47.950    21031941.540  
  86122322.89848       334.814          47.500  
  20431044.220   107365896.94009       -98.548          51.650    20431042.280  
  83661745.58849       -98.548          49.400  
  22052244.180   115885367.41209      -482.332          49.100    22052242.860  
  90300296.48947      -482.333          44.250  
  20186236.500   107793409.20706      -359.020          39.800    20186240.140  
  83839349.79707      -359.021          42.700  
  23033111.460   122779454.29307      -847.649          43.500    23033118.380  
  95495150.65507      -847.650          43.100  
  22258761.200   118777012.38307       604.968          44.050    22258765.760  
  92382136.76507       604.969          42.950  
  19443448.480   104082353.17609       107.282          49.450    19443449.340  
  80952958.19408       107.282          47.300  
  21267633.580   113607915.34708       434.303          47.450    21267637.280  
  88361734.51508       434.303          46.250  
  21872477.460   117003003.04505       496.994          37.650    21872479.620  
  91002337.26607       496.994          41.550  
  20789153.740   111325016.71908      -496.159          47.700    20789155.160  
  86586137.74508      -496.160          45.300  
 20 09 28 09 02 40.0000000  0 15G15G11G21G20G12G24G10G32R13R14R 2R 3
                                R12R19R 4
  24266467.240   127521136.01406       660.439          38.750    24266464.080  
  99367100.57845       660.440          37.550  
  24005739.040   126151012.06707      -168.815          42.150    24005734.480  
  98299469.53245      -168.815          36.250  
  23061224.060   121187569.40708       -91.867          47.100    23061219.360  
  94431861.55547       -91.868          41.600  
  20715324.820   108859792.95809       401.354          49.400    20715320.580  
  84825809.31648       401.354          45.300  
  24052708.720   126397849.73607      -614.539          43.550    24052706.720  
  98491824.09046      -614.540          40.850  
  21033618.560   110532448.57608       335.291          47.900    21033616.700  
  86129182.46148       335.291          47.450  
  20430552.460   107363312.71609       -98.125          51.600    20430550.540  
  83659731.90749       -98.125          49.400  
  22049832.820   115872695.52009      -482.178          49.100    22049831.440  
  90290422.29447      -482.178          44.350  
  20184442.960   107783831.49306      -358.301          39.750    20184446.560  
  83831900.46707      -358.301          42.900  
  23028873.360   122756863.12607      -847.555          42.550    23028880.300  
  95477579.77007      -847.556          42.850  
  22261786.540   118793155.94807       605.141          44.000    22261791.000  
  92394692.85807       605.141          42.600  
  19443985.780   104085229.56709       107.657          49.550    19443986.660  
  80955195.38308       107.657          47.250  
  21269806.680   113619523.41408       434.935          47.200    21269810.380  
  88370763.01608       434.935          46.150  
  21874963.660   117016302.29605       497.538          37.600    21874965.720  
  91012681.11907       497.539          41.750  
  20786673.280   111311734.14008      -495.978          47.550    20786674.740  
  86575806.84808      -495.978          45.150  
 20 09 28 09 02 45.0000000  0 15G15G11G21G20G12G24G10G32R13R14R 2R 3
                                R12R19R 4
  24269769.560   127538490.11206       660.391          39.000    24269766.440  
  99380623.24745       660.390          37.400  
  24004896.740   126146585.56207      -168.088          42.550    24004892.160  
  98296020.31745      -168.088          36.800  
  23060766.020   121185162.34608       -91.304          46.850    23060761.280  
  94429985.92347       -91.304          41.600  
  20717332.600   108870343.89209       401.848          49.450    20717328.360  
  84834030.82148       401.848          45.400  
  24049636.380   126381704.20707      -614.273          43.250    24049634.320  
  98479243.15847      -614.273          41.650  
  21035296.180   110541264.85008       335.864          48.250    21035294.360  
  86136052.28148       335.864          47.600  
  20430063.060   107360740.84109       -97.568          51.400    20430061.120  
  83657727.85349       -97.569          49.700  
  22047422.380   115860028.43009      -481.910          48.750    22047420.960  
  90280551.84048      -481.910          44.600  
  20182653.060   107774273.34306      -357.546          39.550    20182656.660  
  83824466.36507      -357.547          43.050  
  23024635.760   122734274.43207      -847.384          42.650    23024642.680  
  95460010.81307      -847.385          42.650  
  22264812.520   118809303.27408       605.339          44.550    22264816.940  
  92407251.87507       605.340          42.650  
  19444525.120   104088116.74909       108.172          49.500    19444526.020  
  80957440.96108       108.173          47.350  
  21271983.040   113631149.02608       435.670          46.950    21271986.780  
  88379805.16708       435.670          46.200  
  21877452.780   117029617.70905       498.170          37.100    21877454.840  
  91023037.54107       498.171          41.650  
  20784193.920   111298457.16708      -495.689          47.650    20784195.360  
  86565480.31508      -495.690          45.150  
 20 09 28 09 02 50.0000000  0 15G15G11G21G20G12G24G10G32R13R14R 2R 3
                                R12R19R 4
  24273072.200   127555845.97505       660.443          38.250    24273069.140  
  99394147.29745       660.443          37.800  
  24004057.580   126142175.94307      -167.486          42.400    24004053.060  
  98292584.26544      -167.487          33.700  
  23060310.600   121182769.19808       -90.842          46.850    23060305.880  
  94428121.14347       -90.842          42.100  
  20719342.860   108880907.82709       402.316          49.450    20719338.620  
  84842262.45948       402.315          45.650  
  24046565.200   126365564.90807      -614.107          43.650    24046563.140  
  98466667.10146      -614.108          40.200  
  21036976.660   110550095.95008       336.365          48.350    21036974.840  
  86142933.66448       336.365          47.400  
  20429576.320   107358182.93709       -97.039          51.550    20429574.360  
  83655734.68549       -97.039          49.600  
  22045013.140   115847367.75709      -481.700          48.800    22045011.680  
  90270686.39548      -481.701          44.850  
  20180867.120   107764736.50206      -356.769          39.400    20180870.780  
  83817048.84407      -356.770          43.200  
  23020398.820   122711689.82907      -847.251          42.450    23020405.820  
  95442445.03307      -847.252          42.400  
  22267839.620   118825456.34208       605.553          44.550    22267843.980  
  92419815.36907       605.553          42.900  
  19445066.880   104091016.73709       108.604          49.300    19445067.760  
  80959696.50108       108.604          47.350  
  21274162.960   113642793.76008       436.337          46.600    21274166.740  
  88388862.17208       436.337          46.300  
  21879945.320   117042950.96405       498.820          37.650    21879947.320  
  91033407.83907       498.820          42.050  
  20781715.920   111285187.35408      -495.438          47.650    20781717.300  
  86555159.35408      -495.438          45.000  
 20 09 28 09 02 55.0000000  0 15G15G11G21G20G12G24G10G32R13R14R 2R 3
                                R12R19R 4
  24276375.140   127573203.09405       660.758          38.500    24276372.040  
  99407672.29645       660.759          35.600  
  24003221.600   126137782.75507      -166.785          42.750    24003217.080  
  98289160.98345      -166.785          36.300  
  23059857.740   121180389.42308       -90.246          46.950    23059853.000  
  94426266.76747       -90.246          41.550  
  20721355.500   108891484.25309       402.814          49.350    20721351.240  
  84850503.82448       402.814          45.350  
  24043495.160   126349431.34707      -613.903          43.750    24043493.020  
  98454095.49146      -613.903          40.850  
  21038659.880   110558941.30209       336.984          48.550    21038658.060  
  86149826.15248       336.984          47.650  
  20429092.140   107355638.48309       -96.534          51.500    20429090.140  
  83653751.98949       -96.534          49.650  
  22042605.060   115834712.99309      -481.470          49.050    22042603.560  
  90260825.55048      -481.471          44.550  
  20179085.200   107755220.50206      -355.978          39.400    20179088.820  
  83809647.51907      -355.979          43.150  
  23016162.620   122689108.92307      -847.097          42.200    23016169.620  
  95424882.12707      -847.098          42.350  
  22270867.740   118841614.73908       605.760          44.800    22270872.040  
  92432383.00207       605.760          43.000  
  19445610.940   104093928.88909       109.075          49.600    19445611.760  
  80961961.51008       109.075          47.350  
  21276346.380   113654457.14408       437.087          46.850    21276350.180  
  88397933.68508       437.087          46.100  
  21882441.080   117056301.42905       499.558          37.250    21882443.020  
  91043791.53607       499.558          41.700  
  20779239.100   111271924.16008      -495.183          47.600    20779240.480  
  86544843.54008      -495.183          45.050  
 20 09 28 09 03  0.0000000  0 15G15G11G21G20G12G24G10G32R13R14R 2R 3
                                R12R19R 4
  24279678.280   127590561.45705       660.578          38.300    24279675.240  
  99421198.29145       660.578          36.950  
  24002388.740   126133406.11107      -166.193          41.500    24002384.320  
  98285750.63245      -166.194          37.050  
  23059407.460   121178023.17308       -89.755          47.050    23059402.680  
  94424422.93347       -89.755          41.750  
  20723370.560   108902073.29709       403.239          49.400    20723366.260  
  84858755.02348       403.239          45.200  
  24040426.200   126333303.65907      -613.686          43.700    24040424.000  
  98441528.48447      -613.687          41.750  
  21040345.820   110567800.95309       337.455          48.700    21040344.000  
  86156729.78448       337.454          47.400  
  20428610.540   107353107.60809       -96.085          51.500    20428608.540  
  83651779.88149       -96.085          49.800  
  22040198.120   115822064.29409      -481.244          49.050    22040196.560  
  90250969.42348      -481.244          44.850  
  20177307.020   107745725.38706      -355.290          38.900    20177310.760  
  83802262.43607      -355.290          43.150  
  23011927.160   122666531.77507      -847.036          42.050    23011934.100  
  95407322.15207      -847.038          42.600  
  22273896.820   118857778.21008       605.919          44.750    22273901.060  
  92444954.58707       605.919          43.200  
  19446157.280   104096853.23809       109.498          49.750    19446158.060  
  80964236.01008       109.498          47.550  
  21278533.280   113666139.26708       437.737          46.850    21278537.140  
  88407019.78708       437.736          46.200  
  21884940.100   117069669.33005       500.109          37.350    21884942.000  
  91054188.78107       500.109          42.050  
  20776763.600   111258667.83008      -494.971          47.650    20776764.960  
  86534533.06208      -494.971          45.050  
 20 09 28 09 03  5.0000000  0 15G15G11G21G20G12G24G10G32R13R14R 2R 3
                                R12R19R 4
  24282981.920   127607922.36805       660.770          38.350    24282978.920  
  99434726.25145       660.770          37.850  
  24001559.240   126129047.19306      -165.499          41.250    24001554.900  
  98282354.09144      -165.499          32.350  
  23058959.960   121175671.58608       -89.232          47.000    23058955.140  
  94422590.54147       -89.232          41.950  
  20725388.220   108912676.10909       403.769          49.600    20725383.880  
  84867016.94448       403.770          45.050  
  24037358.580   126317183.02807      -613.419          43.900    24037356.340  
  98428966.96446      -613.419          40.000  
  21042034.700   110576676.06909       338.041          48.800    21042032.900  
  86163645.45748       338.041          47.100  
  20428131.740   107350591.51309       -95.502          51.600    20428129.720  
  83649819.28749       -95.501          49.650  
  22037792.520   115809422.78009      -481.008          49.050    22037790.940  
  90241118.89348      -481.008          44.550  
  20175533.020   107736252.45206      -354.413          39.250    20175536.780  
  83794894.61207      -354.414          43.050  
  23007692.620   122643959.60907      -846.803          42.300    23007699.540  
  95389766.04707      -846.804          42.900  
  22276927.120   118873948.45508       606.140          44.650    22276931.360  
  92457531.43007       606.141          43.550  
  19446706.120   104099791.08809       110.015          49.800    19446706.900  
  80966521.00808       110.014          47.550  
  21280723.960   113677841.34508       438.496          46.800    21280727.820  
  88416121.39708       438.496          46.100  
  21887442.620   117083055.62205       500.831          37.250    21887444.440  
  91064600.33507       500.831          41.900  
  20774289.580   111245419.48508      -494.665          47.750    20774290.920  
  86524228.79308      -494.665          45.000  
 20 09 28 09 03 10.0000000  0 15G15G11G21G20G12G24G10G32R13R14R 2R 3
                                R12R19R 4
  24286285.780   127625284.23006       660.707          38.900    24286282.760  
  99448254.95846       660.708          39.000  
  24000732.800   126124704.44806      -164.939          41.200    24000728.580  
  98278970.13645      -164.939          38.500  
  23058515.000   121173333.19608       -88.759          46.850    23058510.100  
  94420768.40746       -88.759          41.050  
  20727408.220   108923291.20109       404.181          49.850    20727403.840  
  84875288.44048       404.181          44.900  
  24034292.000   126301067.99207      -613.267          43.750    24034289.760  
  98416409.80746      -613.267          40.700  
  21043726.240   110585565.12709       338.538          48.700    21043724.460  
  86170571.99448       338.538          47.150  
  20427655.480   107348088.66009       -95.047          51.500    20427653.420  
  83647869.01049       -95.048          49.700  
  22035388.000   115796786.95809      -480.862          49.150    22035386.400  
  90231272.80448      -480.863          44.950  
  20173762.940   107726800.07206      -353.670          39.650    20173766.660  
  83787542.76307      -353.670          43.150  
  23003458.660   122621390.92807      -846.784          41.900    23003465.640  
  95372212.64807      -846.785          43.000  
  22279958.320   118890123.47407       606.292          44.400    22279962.560  
  92470111.98907       606.293          43.700  
  19447257.220   104102740.90209       110.399          49.700    19447257.960  
  80968815.31008       110.399          47.600  
  21282918.060   113689561.80108       439.122          46.750    21282921.940  
  88425237.30508       439.123          46.100  
  21889948.160   117096458.99605       501.336          36.800    21889950.060  
  91075025.18007       501.336          41.800  
  20771816.760   111232177.64608      -494.497          47.850    20771818.080  
  86513929.58308      -494.497          44.800  
 20 09 28 09 03 15.0000000  0 15G15G11G21G20G12G24G10G32R13R14R 2R 3
                                R12R19R 4
  24289589.820   127642646.82506       660.803          39.000    24289586.820  
  99461784.24745       660.803          38.350  
  23999909.400   126120377.70906      -164.271          40.300    23999905.240  
  98275598.62445      -164.271          37.900  
  23058072.460   121171007.72408       -88.205          47.400    23058067.540  
  94418956.36446       -88.205          40.300  
  20729430.520   108933918.31009       404.732          49.900    20729426.120  
  84883569.30248       404.732          45.100  
  24031226.420   126284958.29407      -612.933          43.400    24031224.160  
  98403856.80246      -612.933          41.400  
  21045420.380   110594467.96109       339.154          48.700    21045418.640  
  86177509.26748       339.154          47.300  
  20427181.680   107345598.85309       -94.444          51.400    20427179.620  
  83645928.90749       -94.444          49.700  
  22032984.500   115784156.63309      -480.523          49.150    22032982.920  
  90221431.00047      -480.523          44.350  
  20171996.660   107717368.10506      -352.823          39.800    20172000.360  
  83780206.79507      -352.823          43.300  
  22999225.380   122598825.54007      -846.527          41.700    22999232.360  
  95354661.81307      -846.528          43.350  
  22282990.440   118906303.22808       606.556          44.650    22282994.680  
  92482696.23007       606.556          43.950  
  19447810.520   104105702.47409       110.943          49.650    19447811.240  
  80971118.74708       110.943          47.600  
  21285115.560   113701300.32608       439.916          46.950    21285119.440  
  88434367.27508       439.915          46.050  
  21892456.880   117109879.25405       502.128          37.650    21892458.860  
  91085463.15807       502.127          42.050  
  20769345.140   111218941.97708      -494.163          48.050    20769346.360  
  86503635.17808      -494.163          44.800  
 20 09 28 09 03 20.0000000  0 15G15G11G21G20G12G24G10G32R13R14R 2R 3
                                R12R19R 4
  24292894.420   127660013.03805       661.027          37.800    24292891.500  
  99475316.33245       661.028          37.050  
  23999089.560   126116069.77006      -163.544          40.550    23999085.540  
  98272241.82045      -163.544          35.850  
  23057632.920   121168698.01808       -87.583          47.200    23057627.980  
  94417156.60146       -87.583          40.900  
  20731455.620   108944560.25109       405.351          49.850    20731451.220  
  84891861.71948       405.351          44.850  
  24028162.420   126268856.81607      -612.633          43.300    24028160.140  
  98391310.18946      -612.633          40.350  
  21047117.660   110603387.34609       339.824          48.650    21047115.940  
  86184459.43748       339.824          46.900  
  20426710.880   107343124.88809       -93.809          51.500    20426708.820  
  83644001.14249       -93.809          49.400  
  22030582.600   115771534.60509      -480.132          49.000    22030581.040  
  90211595.66448      -480.133          44.550  
  20170234.760   107707959.58206      -351.845          39.900    20170238.500  
  83772889.06607      -351.845          43.300  
  22994993.300   122576266.30206      -846.262          41.250    22995000.260  
  95337115.76907      -846.264          43.600  
  22286023.960   118922490.52307       606.923          44.350    22286028.240  
  92495286.33807       606.923          43.850  
  19448366.520   104108678.60609       111.515          49.600    19448367.240  
  80973433.52008       111.516          47.550  
  21287316.980   113713059.94408       440.747          46.700    21287320.880  
  88443513.64408       440.747          45.900  
  21894969.340   117123318.96105       502.899          37.400    21894971.320  
  91095916.25807       502.899          42.000  
  20766875.180   111205715.45608      -493.773          48.000    20766876.360  
  86493347.89408      -493.773          44.950  
 20 09 28 09 03 25.0000000  0 15G15G11G21G20G12G24G10G32R13R14R 2R 3
                                R12R19R 4
  24296199.620   127677382.13605       661.054          38.000    24296196.800  
  99488850.68045       661.055          35.700  
  23998273.160   126111779.96406      -163.024          40.550    23998269.160  
  98268899.12845      -163.025          35.750  
  23057196.240   121166403.50408       -87.067          46.800    23057191.320  
  94415368.66846       -87.067          40.950  
  20733483.460   108955216.39609       405.795          49.750    20733479.040  
  84900165.20348       405.795          44.900  
  24025099.900   126252762.90707      -612.413          43.650    24025097.540  
  98378769.49646      -612.414          40.800  
  21048817.960   110612322.51409       340.347          48.700    21048816.240  
  86191421.90848       340.346          46.950  
  20426243.000   107340666.15909       -93.337          51.650    20426240.920  
  83642085.24949       -93.337          49.250  
  22028182.180   115758920.25209      -479.957          49.000    22028180.620  
  90201766.30548      -479.958          44.600  
  20168477.120   107698573.75706      -351.138          39.450    20168480.880  
  83765588.99007      -351.138          42.950  
  22990762.200   122553712.53406      -846.136          40.850    22990769.200  
  95319573.98207      -846.138          43.600  
  22289058.780   118938684.70907       607.046          44.150    22289063.100  
  92507881.79807       607.047          44.100  
  19448925.100   104111668.70409       111.948          49.450    19448925.820  
  80975759.15408       111.948          47.350  
  21289522.180   113724839.84408       441.370          46.600    21289526.060  
  88452675.78208       441.370          45.650  
  21897485.220   117136777.53305       503.475          36.550    21897487.300  
  91106384.03407       503.476          41.850  
  20764406.780   111192497.46208      -493.563          48.300    20764407.940  
  86483067.23908      -493.564          44.600  
 20 09 28 09 03 30.0000000  0 15G15G11G21G20G12G24G10G32R13R14R 2R 3
                                R12R19R 4
  24299504.860   127694751.15805       660.891          37.850    24299502.020  
  99502385.00045       660.890          37.550  
  23997459.680   126107505.44507      -162.499          41.800    23997455.720  
  98265568.30144      -162.498          35.350  
  23056761.900   121164121.15308       -86.747          46.600    23056756.980  
  94413590.21347       -86.747          41.950  
  20735513.420   108965883.81309       406.095          49.600    20735508.960  
  84908477.47048       406.096          44.950  
  24022038.220   126236673.61207      -612.318          44.350    24022035.820  
  98366232.39346      -612.318          40.000  
  21050520.700   110621270.70509       340.684          48.800    21050519.020  
  86198394.52648       340.684          46.600  
  20425777.460   107338219.73509       -92.988          51.700    20425775.360  
  83640178.94749       -92.988          49.350  
  22025782.660   115746310.61909      -479.922          49.600    22025781.100  
  90191940.63047      -479.923          44.200  
  20166723.140   107689207.49506      -350.536          39.700    20166726.880  
  83758304.13007      -350.536          42.800  
  22986531.560   122531161.25006      -846.143          40.550    22986538.620  
  95302034.13007      -846.145          43.650  
  22292094.280   118954882.92707       607.056          44.050    22292098.720  
  92520480.40507       607.056          43.600  
  19449485.700   104114669.76609       112.208          49.450    19449486.440  
  80978093.31708       112.208          47.250  
  21291730.580   113736637.08908       441.898          46.350    21291734.520  
  88461851.41708       441.898          45.400  
  21900004.080   117150252.07005       503.974          36.550    21900006.260  
  91116864.22507       503.974          41.750  
  20761939.440   111179284.99508      -493.478          48.000    20761940.560  
  86472790.87807      -493.479          44.500  
 20 09 28 09 03 35.0000000  0 15G15G11G21G20G12G24G10G32R13R14R 2R 3
                                R12R19R 4
  24302810.100   127712120.17505       660.908          37.050    24302807.220  
  99515919.30245       660.908          35.700  
  23996649.140   126103246.20407      -161.783          41.500    23996645.160  
  98262249.42444      -161.783          34.900  
  23056329.880   121161851.08508       -86.168          46.900    23056325.000  
  94411821.32946       -86.168          41.250  
  20737545.520   108976562.55209       406.652          49.650    20737541.060  
  84916798.55948       406.652          45.300  
  24018977.480   126220589.02607      -612.096          44.400    24018975.000  
  98353698.95746      -612.096          40.100  
  21052225.940   110630231.93809       341.299          48.750    21052224.260  
  86205377.29948       341.299          47.100  
  20425314.260   107335785.67109       -92.410          51.750    20425312.180  
  83638282.27649       -92.410          49.150  
  22023384.080   115733705.81209      -479.635          49.600    22023382.480  
  90182118.70147      -479.635          43.900  
  20164972.820   107679860.99606      -349.709          39.100    20164976.560  
  83751034.64507      -349.710          42.750  
  22982301.440   122508612.63406      -845.954          40.200    22982308.520  
  95284496.34207      -845.956          43.750  
  22295130.500   118971085.19207       607.351          43.900    22295135.040  
  92533082.14607       607.352          43.300  
  19450048.340   104117681.77109       112.729          49.400    19450049.100  
  80980435.99108       112.729          47.200  
  21293942.280   113748451.73208       442.672          46.300    21293946.220  
  88471040.58008       442.672          45.400  
  21902526.020   117163742.57405       504.652          36.100    21902528.200  
  91127356.83107       504.653          41.600  
  20759473.140   111166078.10308      -493.174          47.650    20759474.200  
  86462518.85407      -493.174          44.350  
 20 09 28 09 03 40.0000000  0 15G15G11G21G20G12G24G10G32R13R14R 2R 3
                                R12R19R 4
  24306115.500   127729489.63105       661.153          38.350    24306112.560  
  99529453.91745       661.154          36.700  
  23995841.680   126099002.62107      -161.124          42.200    23995837.580  
  98258942.74045      -161.123          35.850  
  23055900.260   121159593.61408       -85.603          46.950    23055895.400  
  94410062.26046       -85.603          41.050  
  20739579.860   108987252.95809       407.171          49.800    20739575.360  
  84925128.74148       407.171          45.000  
  24015917.740   126204509.51107      -611.827          44.350    24015915.200  
  98341169.47546      -611.828          38.700  
  21053933.720   110639206.56909       341.880          48.700    21053932.080  
  86212370.51848       341.880          46.950  
  20424853.500   107333364.33709       -91.846          51.750    20424851.400  
  83636395.52449       -91.846          49.350  
  22020986.440   115721106.16509      -479.351          49.600    22020984.820  
  90172300.79747      -479.351          44.050  
  20163226.260   107670534.66606      -348.855          39.000    20163230.040  
  83743780.84907      -348.856          42.750  
  22978071.940   122486067.09906      -845.718          40.400    22978079.020  
  95266960.96707      -845.720          43.700  
  22298167.600   118987291.88107       607.575          44.000    22298172.180  
  92545687.32407       607.576          43.000  
  19450613.080   104120705.17409       113.244          49.350    19450613.900  
  80982787.52008       113.244          47.300  
  21296157.260   113760284.07008       443.401          46.500    21296161.220  
  88480243.49308       443.401          45.400  
  21905050.940   117177249.34905       505.353          36.850    21905053.160  
  91137862.10207       505.353          41.600  
  20757007.940   111152877.11708      -492.826          48.000    20757008.940  
  86452251.42307      -492.826          44.300  
 20 09 28 09 03 45.0000000  0 15G15G11G21G20G12G24G10G32R13R14R 2R 3
                                R12R19R 4
  24309421.200   127746860.83106       661.064          38.750    24309418.180  
  99542989.92945       661.064          37.950  
  23995037.420   126094776.09607      -160.732          42.350    23995033.240  
  98255649.31544      -160.731          31.850  
  23055473.300   121157350.17608       -85.299          47.200    23055468.520  
  94408314.12946       -85.299          41.300  
  20741616.680   108997956.41909       407.430          49.700    20741612.160  
  84933469.10348       407.430          45.250  
  24012859.180   126188436.54607      -611.765          44.400    24012856.600  
  98328645.10046      -611.765          40.250  
  21055644.280   110648195.99808       342.215          48.500    21055642.700  
  86219375.26248       342.216          47.050  
  20424395.420   107330957.13709       -91.521          51.700    20424393.320  
  83634519.77949       -91.521          49.600  
  22018590.060   115708513.08209      -479.335          49.400    22018588.420  
  90162488.00747      -479.335          44.200  
  20161483.760   107661229.95506      -348.323          39.650    20161487.540  
  83736543.86207      -348.323          42.950  
  22973843.220   122463525.98306      -845.841          41.100    22973850.340  
  95249429.01907      -845.843          43.750  
  22301205.780   119003504.22107       607.576          44.400    22301210.340  
  92558296.90907       607.577          43.050  
  19451180.280   104123741.36809       113.506          49.400    19451181.080  
  80985149.00008       113.506          47.200  
  21298375.860   113772135.50208       443.892          46.700    21298379.820  
  88489461.27008       443.892          45.350  
  21907579.120   117190773.79205       505.798          37.400    21907581.440  
  91148381.11607       505.798          41.750  
  20754544.160   111139683.50208      -492.800          48.350    20754545.080  
  86441989.71608      -492.799          44.600  
 20 09 28 09 03 50.0000000  0 15G15G11G21G20G12G24G10G32R13R14R 2R 3
                                R12R19R 4
  24312727.300   127764233.90206       661.266          38.700    24312724.160  
  99556527.36045       661.266          36.600  
  23994236.480   126090566.74707      -159.837          42.150    23994232.300  
  98252369.32445      -159.837          36.400  
  23055049.060   121155120.88208       -84.550          47.150    23055044.320  
  94406577.02346       -84.550          41.250  
  20743656.000   109008673.02609       408.118          49.800    20743651.460  
  84941819.70848       408.118          44.800  
  24009801.960   126172370.21607      -611.331          44.400    24009799.280  
  98316125.89346      -611.332          40.150  
  21057357.660   110657200.21208       342.992          48.500    21057356.160  
  86226391.53348       342.992          46.950  
  20423940.060   107328564.18009       -90.790          51.750    20423937.960  
  83632655.14449       -90.790          49.350  
  22016194.920   115695926.68709      -478.880          49.100    22016193.320  
  90152680.43248      -478.881          44.750  
  20159745.380   107651946.87306      -347.268          39.650    20159749.080  
  83729323.69207      -347.269          42.700  
  22969615.400   122440989.41906      -845.442          40.800    22969622.540  
  95231900.61407      -845.443          43.600  
  22304245.100   119019722.59408       607.985          44.900    22304249.620  
  92570911.20707       607.985          43.000  
  19451749.900   104126790.47609       114.167          49.400    19451750.660  
  80987520.53208       114.167          47.050  
  21300598.040   113784006.11508       444.817          46.300    21300602.020  
  88498693.96808       444.817          45.150  
  21910110.680   117204316.01905       506.657          36.900    21910113.020  
  91158913.96807       506.657          41.650  
  20752081.780   111126497.43008      -492.328          48.100    20752082.680  
  86431733.88208      -492.328          44.650  
 20 09 28 09 03 55.0000000  0 15G15G11G21G20G12G24G10G32R13R14R 2R 3
                                R12R19R 4
  24316034.180   127781611.16906       661.339          38.700    24316030.980  
  99570068.08646       661.340          38.800  
  23993439.140   126086376.90707      -159.137          41.750    23993435.020  
  98249104.50944      -159.136          35.150  
  23054627.940   121152908.04708       -83.946          46.950    23054623.240  
  94404852.73647       -83.946          41.600  
  20745698.240   109019405.13009       408.709          49.700    20745693.740  
  84950182.38448       408.709          45.250  
  24006746.420   126156312.89207      -610.961          44.500    24006743.660  
  98303613.71246      -610.962          41.000  
  21059074.340   110666221.61308       343.619          48.450    21059072.880  
  86233421.20248       343.619          46.950  
  20423487.860   107326187.81109       -90.158          51.650    20423485.740  
  83630803.42849       -90.158          49.550  
  22013801.520   115683349.30009      -478.562          48.950    22013799.940  
  90142879.88348      -478.563          44.850  
  20158011.540   107642687.83406      -346.362          39.400    20158015.140  
  83722122.21707      -346.362          42.700  
  22965388.920   122418459.86206      -845.189          40.850    22965396.040  
  95214377.64007      -845.190          43.550  
  22307285.940   119035949.03508       608.271          45.050    22307290.400  
  92583531.76207       608.272          43.100  
  19452322.420   104129854.99809       114.744          49.650    19452323.100  
  80989904.05208       114.744          47.050  
  21302824.300   113795898.34808       445.634          46.650    21302828.240  
  88507943.48108       445.635          45.000  
  21912645.960   117217878.37405       507.423          36.350    21912648.360  
  91169462.43607       507.424          41.750  
  20749621.240   111113321.23008      -491.956          47.600    20749622.120  
  86421485.73308      -491.956          44.600  
 20 09 28 09 04  0.0000000  0 15G15G11G21G20G12G24G10G32R13R14R 2R 3
                                R12R19R 4
  24319340.820   127798987.07806       661.355          39.350    24319337.540  
  99583607.72045       661.357          37.750  
  23992644.460   126082201.07207      -158.572          42.000    23992640.380  
  98245850.61245      -158.573          35.550  
  23054208.920   121150706.14308       -83.447          47.050    23054204.220  
  94403136.95646       -83.446          41.350  
  20747742.400   109030147.16109       409.156          49.800    20747737.880  
  84958552.79848       409.156          44.950  
  24003691.520   126140259.02207      -610.774          43.900    24003688.680  
  98291104.21746      -610.774          40.600  
  21060793.240   110675254.65108       344.112          48.400    21060791.800  
  86240459.93348       344.112          47.150  
  20423037.740   107323822.48009       -89.686          51.650    20423035.640  
  83628960.30749       -89.686          49.350  
  22011408.760   115670775.39309      -478.370          49.000    22011407.220  
  90133082.04248      -478.371          44.650  
  20156281.100   107633447.17806      -345.615          39.750    20156284.700  
  83714935.05307      -345.615          42.950  
  22961162.720   122395931.60106      -845.097          40.850    22961169.780  
  95196855.68407      -845.099          43.150  
  22310327.360   119052178.25808       608.437          45.300    22310331.720  
  92596154.48307       608.437          43.100  
  19452896.700   104132929.05709       115.160          49.600    19452897.340  
  80992294.99008       115.159          47.250  
  21305053.520   113807806.33408       446.260          47.100    21305057.400  
  88517205.24808       446.260          45.050  
  21915184.080   117231455.23205       507.970          37.000    21915186.380  
  91180022.20107       507.971          41.500  
  20747161.500   111100149.28408      -491.729          47.650    20747162.380  
  86411240.89608      -491.729          44.650  
 20 09 28 09 04  5.0000000  0 15G15G11G21G20G12G24G10G32R13R14R 2R 3
                                R12R19R 4
  24322647.660   127816364.13205       661.403          38.300    24322644.400  
  99597148.29045       661.403          35.950  
  23991852.920   126078041.68006      -158.031          41.000    23991848.900  
  98242609.54845      -158.031          37.400  
  23053792.460   121148517.67008       -83.019          47.200    23053787.800  
  94401431.65547       -83.019          41.550  
  20749788.920   109040901.65109       409.557          49.600    20749784.420  
  84966932.91848       409.557          45.250  
  24000637.740   126124211.12407      -610.666          43.200    24000634.860  
  98278599.36746      -610.666          40.850  
  21062514.820   110684301.87308       344.610          48.350    21062513.420  
  86247509.71448       344.610          46.950  
  20422590.200   107321470.70509       -89.226          51.650    20422588.120  
  83627127.75949       -89.226          49.350  
  22009017.160   115658207.48409      -478.185          48.850    22009015.660  
  90123288.86248      -478.185          44.700  
  20154554.600   107624227.55406      -344.920          40.000    20154558.140  
  83707764.23307      -344.921          42.800  
  22956937.260   122373407.25006      -845.041          41.050    22956944.260  
  95179336.75807      -845.042          43.000  
  22313369.740   119068412.60708       608.576          44.900    22313374.020  
  92608781.18907       608.576          43.450  
  19453473.280   104136015.24809       115.535          49.750    19453473.840  
  80994695.36208       115.535          47.100  
  21307286.260   113819732.91808       446.890          47.050    21307290.020  
  88526481.48008       446.890          45.000  
  21917725.340   117245049.11305       508.553          37.100    21917727.560  
  91190595.21707       508.553          41.600  
  20744703.040   111086984.16008      -491.564          48.300    20744703.880  
  86401001.36208      -491.564          44.600  
 20 09 28 09 04 10.0000000  0 15G15G11G21G20G12G24G10G32R13R14R 2R 3
                                R12R19R 4
  24325955.080   127833744.41305       661.464          38.500    24325951.780  
  99610691.33845       661.465          37.600  
  23991064.880   126073900.85406      -157.258          40.750    23991060.840  
  98239382.88744      -157.257          35.150  
  23053378.960   121146344.65808       -82.439          47.200    23053374.320  
  94399738.40747       -82.440          41.550  
  20751838.220   109051670.65609       410.121          49.850    20751833.720  
  84975324.35548       410.121          45.300  
  23997585.460   126108171.28407      -610.351          43.000    23997582.600  
  98266100.81346      -610.352          40.700  
  21064239.480   110693365.24808       345.239          48.300    21064238.120  
  86254572.08448       345.239          46.650  
  20422145.640   107319134.54409       -88.650          51.650    20422143.580  
  83625307.37849       -88.650          49.450  
  22006627.080   115645647.61109      -477.891          49.150    22006625.560  
  90113501.95647      -477.891          44.400  
  20152832.400   107615031.12806      -344.030          39.900    20152835.940  
  83700611.46007      -344.030          42.900  
  22952712.820   122350888.99407      -844.781          41.750    22952719.860  
  95161822.57207      -844.781          42.900  
  22316413.500   119084654.29408       608.847          44.600    22316417.740  
  92621413.59707       608.847          43.900  
  19454052.560   104139115.85609       116.092          49.600    19454053.060  
  80997106.94708       116.092          47.300  
  21309522.840   113831680.02008       447.671          47.050    21309526.520  
  88535773.67208       447.671          45.000  
  21920270.200   117258662.24805       509.302          36.850    21920272.360  
  91201183.20207       509.302          41.750  
  20742246.220   111073827.90908      -491.224          48.500    20742247.020  
  86390768.72907      -491.224          44.500  
 20 09 28 09 04 15.0000000  0 15G15G11G21G20G12G24G10G32R13R14R 2R 3
                                R12R19R 4
  24329262.560   127851125.38505       661.443          38.500    24329259.360  
  99624234.97745       661.442          37.600  
  23990279.900   126069776.07906      -156.766          39.950    23990275.860  
  98236168.79344      -156.765          34.400  
  23052967.940   121144184.67308       -81.973          47.200    23052963.320  
  94398055.30347       -81.973          41.500  
  20753889.800   109062451.65609       410.515          49.750    20753885.300  
  84983725.14048       410.515          45.400  
  23994534.260   126092137.08307      -610.112          42.650    23994531.340  
  98253606.63946      -610.113          40.950  
  21065966.700   110702442.14208       345.722          48.350    21065965.400  
  86261644.98948       345.722          46.550  
  20421703.560   107316811.52209       -88.182          51.650    20421701.540  
  83623497.23349       -88.182          49.250  
  22004238.100   115633093.31009      -477.711          49.400    22004236.540  
  90103719.39847      -477.712          44.150  
  20151114.060   107605855.12906      -343.292          39.750    20151117.580  
  83693474.57407      -343.292          43.050  
  22948489.100   122328374.30407      -844.656          42.000    22948496.140  
  95144311.16107      -844.657          42.450  
  22319458.080   119100900.60908       608.975          44.550    22319462.340  
  92634049.60607       608.976          44.050  
  19454634.020   104142228.28309       116.489          49.400    19454634.520  
  80999527.72808       116.489          47.450  
  21311762.760   113843645.12908       448.280          47.150    21311766.380  
  88545079.88508       448.279          44.950  
  21922818.300   117272291.87205       509.878          36.850    21922820.260  
  91211784.00507       509.879          41.750  
  20739790.640   111060678.07908      -491.030          48.400    20739791.320  
  86380541.08308      -491.030          44.550  
 20 09 28 09 04 20.0000000  0 15G15G11G21G20G12G24G10G32R13R14R 2R 3
                                R12R19R 4
  24332570.200   127868507.70805       661.833          37.300    24332567.180  
  99637779.60545       661.834          35.600  
  23989498.060   126065667.88706      -155.920          40.500    23989494.040  
  98232967.63744      -155.921          32.050  
  23052559.480   121142038.21108       -81.363          47.250    23052554.880  
  94396382.73446       -81.363          41.400  
  20755943.720   109073245.14109       411.071          49.800    20755939.220  
  84992135.64248       411.071          45.300  
  23991484.140   126076108.94107      -609.858          41.800    23991481.240  
  98241117.18446      -609.859          41.200  
  21067696.660   110711533.28808       346.317          48.500    21067695.400  
  86268728.99848       346.317          47.250  
  20421264.080   107314502.17309       -87.592          51.600    20421262.100  
  83621697.74049       -87.592          49.350  
  22001850.280   115620545.09209      -477.386          49.550    22001848.680  
  90093941.56847      -477.386          44.000  
  20149399.620   107596700.16006      -342.484          39.350    20149403.140  
  83686354.04907      -342.484          43.050  
  22944266.120   122305863.59607      -844.447          42.350    22944273.160  
  95126802.84307      -844.447          42.350  
  22322503.640   119117151.97608       609.261          44.850    22322507.860  
  92646689.53607       609.262          43.950  
  19455217.760   104145352.97309       117.021          49.300    19455218.280  
  81001958.03208       117.021          47.650  
  21314006.180   113855628.74508       449.063          47.150    21314009.700  
  88554400.48308       449.063          45.250  
  21925369.540   117285938.49205       510.613          36.750    21925371.340  
  91222398.03607       510.613          41.900  
  20737336.300   111047535.13308      -490.687          47.950    20737336.900  
  86370318.79607      -490.687          44.400  
 20 09 28 09 04 25.0000000  0 15G15G11G21G20G12G24G10G32R13R14R 2R 3
                                R12R19R 4
  24335878.240   127885892.75005       661.732          36.700    24335875.460  
  99651326.36945       661.733          36.000  
  23988719.660   126061577.78806      -155.375          41.000    23988715.700  
  98229780.53745      -155.374          35.950  
  23052153.880   121139906.82108       -80.879          47.150    23052149.320  
  94394721.91146       -80.879          41.200  
  20758000.320   109084052.70009       411.546          49.600    20757995.820  
  85000557.11448       411.546          44.850  
  23988435.440   126060088.47706      -609.546          41.100    23988432.580  
  98228633.71346      -609.546          39.900  
  21069429.620   110720640.20408       346.887          48.250    21069428.380  
  86275825.29648       346.886          46.550  
  20420827.480   107312208.02909       -87.069          51.500    20420825.540  
  83619910.09449       -87.069          49.200  
  21999463.880   115608004.50209      -477.170          49.500    21999462.280  
  90084169.68147      -477.170          44.100  
  20147689.500   107587567.98506      -341.622          39.550    20147692.960  
  83679251.25807      -341.623          43.050  
  22940044.200   122283358.53607      -844.323          42.000    22940051.260  
  95109298.92607      -844.324          42.300  
  22325550.460   119133410.28408       609.455          44.800    22325554.660  
  92659334.87507       609.455          44.100  
  19455804.060   104148491.45609       117.496          49.300    19455804.600  
  81004399.07308       117.496          47.750  
  21316253.300   113867632.40608       449.781          46.900    21316256.800  
  88563736.66408       449.781          45.450  
  21927924.240   117299603.76705       511.242          36.200    21927925.920  
  91233026.58707       511.242          42.300  
  20734883.540   111034400.69108      -490.437          47.950    20734884.060  
  86360103.11207      -490.437          44.450  
 20 09 28 09 04 30.0000000  0 15G15G11G21G20G12G24G10G32R13R14R 2R 3
                                R12R19R 4
  24339186.560                         661.771          37.100    24339184.020  
                       661.772          36.700  
  23987944.540   126057504.54407      -154.672          42.300    23987940.600  
  98226606.58145      -154.673          36.250  
  23051750.900   121137789.24408       -80.312          47.200    23051746.360  
  94393071.85146       -80.312          40.600  
  20760059.360   109094873.03309       412.093          49.700    20760054.880  
  85008988.54148       412.093          44.600  
  23985387.940   126044074.40206      -609.346          40.900    23985385.160  
  98216155.23446      -609.348          39.650  
  21071165.320   110729761.50308       347.479          48.400    21071164.120  
  86282932.79848       347.479          46.350  
  20420393.540   107309927.82209       -86.484          51.550    20420391.640  
  83618133.31349       -86.484          49.050  
  21997078.720   115595470.27809      -476.869          49.400    21997077.080  
  90074402.76647      -476.870          44.050  
  20145983.320   107578457.27406      -340.837          39.350    20145986.800  
  83672165.15607      -340.837          43.050  
  22935823.100   122260857.81207      -844.139          42.200    22935830.160  
  95091798.37507      -844.140          41.900  
  22328598.300   119149674.13707       609.709          44.150    22328602.500  
  92671984.54107       609.710          44.000  
  19456392.760   104151642.59109       117.989          49.550    19456393.280  
  81006849.95608       117.989          47.900  
  21318503.960   113879654.82408       450.490          47.000    21318507.440  
  88573087.42608       450.490          45.700  
  21930482.040   117313286.23505       511.937          35.650    21930483.760  
  91243668.49207       511.937          42.550  
  20732432.160   111021273.52308      -490.103          48.300    20732432.580  
  86349893.08908      -490.103          44.850  
 20 09 28 09 04 35.0000000  0 15G15G11G21G20G12G24G10G32R13R14R 2R 3
                                R12R19R 4
  24342495.500                         661.841          37.200    24342491.200  
                       661.841          36.950  
  23987172.580   126053447.79107      -154.110          42.200    23987168.620  
  98223445.47444      -154.110          33.400  
  23051350.500   121135685.09108       -79.835          47.150    23051345.940  
  94391432.25746       -79.835          41.200  
  20762120.780   109105705.80609       412.511          49.900    20762116.280  
  85017429.66448       412.511          44.550  
  23982341.600   126028066.45306      -609.150          40.850    23982338.960  
  98203681.50746      -609.150          39.400  
  21072903.720   110738896.90709       347.944          48.550    21072902.520  
  86290051.29848       347.944          46.050  
  20419962.200   107307661.23909       -85.988          51.600    20419960.320  
  83616367.14449       -85.988          49.100  
  21994694.700   115582942.09709      -476.690          49.400    21994693.040  
  90064640.56147      -476.690          43.650  
  20144281.160   107569367.72206      -340.020          39.800    20144284.580  
  83665095.51107      -340.021          43.400  
  22931602.760   122238361.19607      -843.975          42.550    22931609.800  
  95074301.02607      -843.976          41.900  
  22331647.060   119165943.07007       609.863          43.300    22331651.320  
  92684638.14107       609.864          44.150  
  19456983.740   104154805.91809       118.425          49.600    19456984.240  
  81009310.32308       118.426          47.950  
  21320758.020   113891695.68608       451.146          47.100    21320761.540  
  88582452.53808       451.146          45.850  
  21933043.040   117326985.67605       512.505          35.750    21933044.780  
  91254323.60507       512.506          42.650  
  20729982.000   111008153.07808      -489.894          48.400    20729982.420  
  86339688.30508      -489.895          45.050  
 20 09 28 09 04 40.0000000  0 15G15G11G21G20G12G24G10G32R13R14R 2R 3
                                R12R19R 4
  24345804.520   127938072.25405       661.787          37.750    24345802.380  
  99691978.25344       661.786          34.600  
  23986403.940   126049408.12406      -153.559          41.350    23986399.920  
  98220297.70044      -153.560          33.200  
  23050952.760   121133594.89608       -79.399          47.400    23050948.180  
  94389803.52746       -79.398          40.800  
  20764184.640   109116551.50009       412.894          49.900    20764180.140  
  85025880.85447       412.894          44.400  
  23979296.560   126012065.12006      -609.105          40.500    23979294.000  
  98191212.96046      -609.105          40.050  
  21074644.900   110748046.86409       348.392          48.550    21074643.680  
  86297181.13548       348.392          46.400  
  20419533.520   107305408.75209       -85.588          51.600    20419531.680  
  83614611.95949       -85.588          49.150  
  21992311.920   115570420.43309      -476.567          49.200    21992310.220  
  90054883.42947      -476.567          43.950  
  20142582.960   107560299.70106      -339.317          40.050    20142586.420  
  83658042.61007      -339.317          43.450  
  22927383.300   122215869.06207      -843.960          42.600    22927390.300  
  95056807.15507      -843.961          41.500  
  22334696.920   119182217.80107       609.947          43.200    22334701.220  
  92697296.23707       609.948          44.200  
  19457577.060   104157982.02809       118.766          49.450    19457577.600  
  81011780.63708       118.766          47.900  
  21323015.620   113903755.36908       451.719          47.150    21323019.160  
  88591832.29408       451.719          45.750  
  21935607.280   117340702.63305       512.999          36.250    21935609.120  
  91264992.33707       513.000          42.650  
  20727533.260   110995040.09808      -489.738          48.350    20727533.660  
  86329489.33108      -489.738          44.900  
 20 09 28 09 04 45.0000000  0 15G15G11G21G20G12G24G10G32R13R14R 2R 3
                                R12R19R 4
  24349112.780   127955461.38705       662.005          38.100    24349111.900  
  99705528.22545       662.004          37.550  
  23985638.180   126045383.69407      -152.704          41.800    23985634.100  
  98217161.75245      -152.704          35.700  
  23050557.320   121131516.87608       -78.721          47.150    23050552.720  
  94388184.29546       -78.721          41.250  
  20766250.640   109127408.31909       413.563          49.850    20766246.120  
  85034340.70748       413.563          44.700  
  23976252.460   125996068.67106      -608.516          40.800    23976250.000  
  98178748.17946      -608.516          39.050  
  21076388.520   110757209.63109       349.114          48.600    21076387.280  
  86304320.95148       349.114          46.200  
  20419107.220   107303168.61709       -84.871          51.600    20419105.400  
  83612866.40049       -84.871          49.150  
  21989930.040   115557903.52709      -476.129          49.100    21989928.340  
  90045129.99947      -476.130          43.850  
  20140888.480   107551251.37106      -338.360          39.850    20140891.980  
  83651005.02207      -338.360          43.350  
  22923164.280   122193379.78107      -843.576          42.850    22923171.320  
  95039315.49306      -843.576          41.300  
  22337747.460   119198496.24307       610.341          43.900    22337751.860  
  92709957.21907       610.342          43.900  
  19458172.400   104161169.13309       119.438          49.600    19458173.000  
  81014259.49408       119.438          47.750  
  21325276.420   113915832.10908       452.615          46.850    21325279.960  
  88601225.31808       452.614          45.850  
  21938174.340   117354435.02905       513.912          36.600    21938176.320  
  91275673.10207       513.912          42.100  
  20725085.560   110981932.66908      -489.281          48.250    20725085.920  
  86319294.66308      -489.281          45.050  
 20 09 28 09 04 50.0000000  0 15G15G11G21G20G12G24G10G32R13R14R 2R 3
                                R12R19R 4
  24352422.500   127972852.55906       661.798          38.900    24352421.100  
  99719079.79445       661.798          37.050  
  23984875.760   126041376.74006      -152.289          41.000    23984871.720  
  98214039.49844      -152.290          34.000  
  23050164.620   121129453.31308       -78.381          47.100    23050160.020  
  94386576.33046       -78.381          40.800  
  20768319.200   109138278.48909       413.854          49.800    20768314.640  
  85042810.96948       413.855          45.050  
  23973209.780   125980079.30006      -608.499          41.200    23973207.320  
  98166288.96646      -608.500          40.350  
  21078135.020   110766387.37109       349.473          48.700    21078133.720  
  86311472.44448       349.473          46.100  
  20418683.700   107300943.07009       -84.523          51.700    20418681.900  
  83611132.21549       -84.524          49.100  
  21987549.500   115545393.63409      -476.087          49.000    21987547.800  
  90035382.03547      -476.088          44.000  
  20139198.220   107542225.24006      -337.697          39.750    20139201.700  
  83643984.71807      -337.698          43.450  
  22918946.200   122170895.49707      -843.606          42.600    22918953.280  
  95021827.74607      -843.607          41.650  
  22340799.120   119214780.87207       610.347          44.100    22340803.640  
  92722623.04007       610.347          43.900  
  19458770.220   104164369.40109       119.702          49.550    19458770.860  
  81016748.59408       119.702          47.700  
  21327540.800   113927928.06808       453.141          46.950    21327544.360  
  88610633.29908       453.140          45.750  
  21940744.740   117368185.24605       514.276          36.650    21940746.820  
  91286367.73407       514.276          42.050  
  20722639.320   110968833.18908      -489.208          48.050    20722639.700  
  86309106.18108      -489.209          45.400  
 20 09 28 09 04 55.0000000  0 15G15G11G21G20G12G24G10G32R13R14R 2R 3
                                R12R19R 4
  24355732.240   127990244.34406       661.920          38.900    24355730.220  
  99732631.83845       661.920          38.500  
  23984116.340   126037385.70906      -151.618          41.100    23984112.280  
  98210929.59745      -151.617          37.050  
  23049774.380   121127402.61208       -77.820          46.900    23049769.760  
  94384978.38346       -77.820          40.500  
  20770389.980   109149160.45809       414.360          49.750    20770385.420  
  85051290.42248       414.361          44.650  
  23970168.120   125964095.51407      -608.300          41.500    23970165.720  
  98153834.08646      -608.301          39.850  
  21079884.060   110775578.52008       350.041          48.450    21079882.740  
  86318634.38448       350.041          46.700  
  20418262.700   107298730.55309       -83.984          51.700    20418260.860  
  83609408.17449       -83.984          49.200  
  21985169.980   115532889.20109      -475.790          48.850    21985168.320  
  90025638.33147      -475.790          44.350  
  20137511.740   107533219.68506      -336.921          39.600    20137515.240  
  83636980.39207      -336.921          43.250  
  22914728.840   122148414.77807      -843.413          42.800    22914735.920  
  95004342.75507      -843.413          41.700  
  22343851.700   119231070.18907       610.589          44.100    22343856.300  
  92735292.50407       610.589          43.700  
  19459370.220   104167581.33709       120.205          49.550    19459370.880  
  81019246.76808       120.205          47.600  
  21329808.520   113940041.80308       453.866          47.200    21329812.080  
  88620055.09208       453.866          45.700  
  21943318.360   117381951.90405       515.032          36.650    21943320.380  
  91297075.12607       515.032          42.200  
  20720194.260   110955739.94508      -488.912          48.150    20720194.660  
  86298922.54408      -488.913          45.600  
 20 09 28 09 05  0.0000000  0 15G15G11G21G20G12G24G10G32R13R14R 2R 3
                                R12R19R 4
  24359042.040   128007637.16806       662.006          39.100    24359039.840  
  99746184.68045       662.007          38.250  
  23983360.020   126033411.17107      -150.961          41.900    23983356.080  
  98207832.54245      -150.961          37.100  
  23049386.700   121125365.38208       -77.216          46.550    23049382.080  
  94383390.93547       -77.216          41.900  
  20772463.120   109160054.82509       414.923          49.800    20772458.580  
  85059779.53148       414.924          44.950  
  23967127.680   125948117.92507      -607.935          41.650    23967125.300  
  98141384.01946      -607.936          40.000  
  21081635.760   110784783.70009       350.667          48.650    21081634.420  
  86325807.25048       350.667          46.400  
  20417844.260   107296531.65409       -83.381          51.600    20417842.400  
  83607694.74549       -83.381          49.250  
  21982791.600   115520390.77709      -475.533          48.900    21982789.960  
  90015899.30348      -475.534          44.550  
  20135829.240   107524235.13906      -336.049          39.750    20135832.740  
  83629992.41507      -336.049          43.450  
  22910512.260   122125938.13007      -843.176          43.000    22910519.320  
  94986860.93607      -843.177          42.050  
  22346905.180   119247364.45307       610.856          44.200    22346909.860  
  92747965.81907       610.857          43.350  
  19459972.500   104170805.47209       120.739          49.250    19459973.160  
  81021754.43008       120.739          47.600  
  21332079.680   113952173.83008       454.623          47.350    21332083.220  
  88629491.11208       454.623          45.850  
  21945895.040   117395735.26605       515.728          36.550    21945897.080  
  91307795.50807       515.729          42.100  
  20717750.480   110942653.64308      -488.582          48.050    20717750.920  
  86288744.31808      -488.582          45.450  
 20 09 28 09 05  5.0000000  0 15G15G11G21G20G12G24G10G32R13R14R 2R 3
                                R12R19R 4
  24362352.500   128025032.91706       662.044          39.750    24362349.720  
  99759739.82245       662.044          36.850  
  23982607.160   126029455.00407      -150.261          41.700    23982603.300  
  98204749.83545      -150.262          35.950  
  23049001.900   121123343.38308       -76.705          46.550    23048997.300  
  94381815.36246       -76.705          40.950  
  20774538.960   109170963.36409       415.393          49.900    20774534.420  
  85068279.68747       415.393          44.500  
  23964088.780   125932148.31407      -607.677          41.600    23964086.380  
  98128940.17246      -607.678          39.650  
  21083390.480   110794004.62409       351.191          48.700    21083389.100  
  86332992.38748       351.191          46.100  
  20417428.780   107294348.17409       -82.870          51.600    20417426.880  
  83605993.32749       -82.869          49.150  
  21980414.740   115507900.18509      -475.292          49.100    21980413.080  
  90006166.38147      -475.292          44.150  
  20134150.940   107515273.58006      -335.242          39.850    20134154.540  
  83623022.32307      -335.243          43.300  
  22906296.820   122103467.52707      -843.008          43.550    22906303.880  
  94969383.82507      -843.009          42.650  
  22349960.040   119263665.78507       611.041          43.850    22349964.740  
  92760644.62807       611.041          43.250  
  19460577.400   104174043.62109       121.207          49.200    19460578.060  
  81024272.99108       121.207          47.600  
  21334354.640   113964326.03108       455.313          47.450    21334358.140  
  88638942.81508       455.313          45.950  
  21948475.080   117409537.21105       516.259          36.450    21948477.260  
  91318530.34207       516.260          42.100  
  20715308.320   110929576.00908      -488.323          47.850    20715308.780  
  86278572.83508      -488.324          45.500  
 20 09 28 09 05 10.0000000  0 15G15G11G21G20G12G24G10G32R13R14R 2R 3
                                R12R19R 4
  24365663.400   128042430.64506       662.071          40.000    24365659.700  
  99773296.48445       662.070          36.750  
  23981857.600   126025516.26006      -149.649          40.150    23981853.760  
  98201680.70744      -149.649          35.200  
  23048619.860   121121335.75508       -76.219          46.350    23048615.280  
  94380250.97647       -76.219          41.950  
  20776617.320   109181885.19609       415.845          49.750    20776612.780  
  85076790.20748       415.844          45.150  
  23961051.200   125916185.81007      -607.454          41.650    23961048.780  
  98116501.86946      -607.455          39.700  
  21085147.980   110803240.42808       351.719          48.450    21085146.620  
  86340189.12648       351.718          46.350  
  20417016.040   107292179.23109       -82.335          51.600    20417014.140  
  83604303.25049       -82.335          49.100  
  21978039.200   115495416.55709      -475.044          49.100    21978037.520  
  89996438.88948      -475.045          44.550  
  20132476.860   107506334.16906      -334.445          39.950    20132480.480  
  83616069.45807      -334.445          43.050  
  22902082.400   122081001.98007      -842.862          43.800    22902089.380  
  94951910.65107      -842.864          42.750  
  22353016.040   119279973.08207       611.235          43.750    22353020.720  
  92773328.09207       611.235          43.350  
  19461184.760   104177294.94109       121.648          49.250    19461185.440  
  81026801.79608       121.648          47.500  
  21336633.120   113976497.30508       455.997          47.500    21336636.680  
  88648409.36208       455.997          46.000  
  21951058.440   117423357.01205       516.913          36.650    21951060.760  
  91329279.06807       516.914          41.750  
  20712867.580   110916506.24108      -488.066          47.550    20712868.140  
  86268407.47708      -488.067          45.450  
 20 09 28 09 05 15.0000000  0 15G15G11G21G20G12G24G10G32R13R14R 2R 3
                                R12R19R 4
  24368974.440   128059828.24406       662.177          40.800    24368970.460  
  99786853.02045       662.178          38.000  
  23981110.940   126021592.81706      -149.011          40.150    23981107.120  
  98198623.43344      -149.009          33.700  
  23048240.120   121119340.33908       -75.715          46.700    23048235.580  
  94378696.09947       -75.715          41.550  
  20778697.780   109192818.13709       416.315          49.600    20778693.260  
  85085309.37248       416.316          45.000  
  23958014.580   125900228.23806      -607.227          41.300    23958012.140  
  98104067.39645      -607.227          37.600  
  21086907.900   110812488.94608       352.218          48.250    21086906.560  
  86347395.76348       352.218          46.250  
  20416605.660   107290022.67009       -81.855          51.400    20416603.740  
  83602622.81349       -81.855          49.600  
  21975664.560   115482937.72909      -474.835          49.000    21975662.880  
  89986715.11947      -474.834          44.400  
  20130806.500   107497414.64406      -333.693          39.850    20130810.140  
  83609132.05307      -333.693          43.050  
  22897868.500   122058539.26307      -842.715          44.150    22897875.420  
  94934439.66707      -842.716          42.650  
  22356072.720   119296284.13107       611.402          43.800    22356077.380  
  92786014.45307       611.402          43.350  
  19461794.120   104180557.21209       122.094          49.450    19461794.860  
  81029339.11908       122.094          47.350  
  21338914.800   113988685.61208       456.659          47.250    21338918.420  
  88657889.15308       456.659          46.050  
  21953644.880   117437192.30505       517.609          36.450    21953647.140  
  91340039.83806       517.610          41.450  
  20710427.900   110903442.12208      -487.825          47.550    20710428.520  
  86258246.49808      -487.825          45.350  
 20 09 28 09 05 20.0000000  0 15G15G11G21G20G12G24G10G32R13R14R 2R 3
                                R12R19R 4
  24372285.540   128077226.67107       662.106          41.550    24372281.280  
  99800410.24245       662.106          36.700  
  23980367.320   126017685.64006      -148.411          40.650    23980363.660  
  98195578.90244      -148.412          35.050  
  23047862.920   121117358.13908       -75.230          47.000    23047858.380  
  94377151.53647       -75.231          41.550  
  20780780.560   109203763.19109       416.754          49.800    20780776.040  
  85093837.98148       416.755          45.300  
  23954979.040   125884276.70106      -606.974          40.750    23954976.680  
  98091637.62946      -606.975          39.400  
  21088670.420   110821751.20608       352.722          48.250    21088669.100  
  86354613.10748       352.722          46.550  
  20416197.840   107287879.50109       -81.373          51.400    20416195.900  
  83600952.81349       -81.373          49.350  
  21973291.020   115470464.68409      -474.652          48.950    21973289.320  
  89976995.86748      -474.652          44.550  
  20129140.020   107488515.92106      -332.955          39.850    20129143.680  
  83602210.83507      -332.955          42.950  
  22893655.340   122036080.54407      -842.617          44.400    22893662.200  
  94916971.79407      -842.618          42.800  
  22359130.340   119312600.15607       611.567          43.650    22359134.960  
  92798704.68807       611.567          43.550  
  19462405.740   104183831.43309       122.508          49.600    19462406.500  
  81031885.73408       122.508          47.400  
  21341199.840   114000891.97308       457.279          47.200    21341203.520  
  88667382.98808       457.279          46.050  
  21956234.360   117451043.98505       518.172          36.900    21956236.540  
  91350813.37206       518.172          41.400  
  20707989.440   110890384.63008      -487.614          47.700    20707990.160  
  86248090.67108      -487.614          45.350  
 20 09 28 09 05 25.0000000  0 15G15G11G21G20G12G24G10G32R13R14R 2R 3
                                R12R19R 4
  24375596.740   128094626.14607       662.401          41.900    24375591.940  
  99813968.25445       662.402          36.950  
  23979626.880   126013794.94306      -147.586          39.900    23979623.260  
  98192547.18444      -147.586          32.750  
  23047488.280   121115389.32708       -74.497          47.500    23047483.740  
  94375617.38847       -74.497          41.500  
  20782865.680   109214720.49209       417.413          49.900    20782861.180  
  85102376.12748       417.414          44.850  
  23951944.640   125868331.37106      -606.502          40.550    23951942.380  
  98079212.71246      -606.502          38.900  
  21090435.560   110831027.35308       353.491          48.250    21090434.280  
  86361841.26148       353.492          46.800  
  20415792.560   107285749.89509       -80.630          51.450    20415790.620  
  83599293.37449       -80.630          49.200  
  21970918.600   115457997.61209      -474.202          48.700    21970916.900  
  89967281.27147      -474.202          44.400  
  20127477.580   107479638.26606      -331.915          39.800    20127481.160  
  83595305.99207      -331.915          43.100  
  22889442.960   122013625.93007      -842.229          44.200    22889449.720  
  94899507.11807      -842.229          42.600  
  22362188.900   119328921.28507       611.962          43.150    22362193.520  
  92811398.88307       611.963          43.350  
  19463019.660   104187117.81909       123.179          49.400    19463020.400  
  81034441.80308       123.180          47.500  
  21343488.280   114013116.46208       458.187          46.750    21343492.020  
  88676890.92408       458.187          46.200  
  21958827.040   117464912.43805       518.962          36.600    21958829.060  
  91361599.94907       518.962          41.650  
  20705552.260   110877334.00608      -487.122          47.800    20705553.040  
  86237940.18508      -487.122          45.050  
 20 09 28 09 05 30.0000000  0 15G15G11G21G20G12G24G10G32R13R14R 2R 3
                                R12R19R 4
  24378908.740   128112029.71407       662.314          42.150    24378903.960  
  99827529.47245       662.315          36.700  
  23978890.140   126009923.78206      -147.092          39.350    23978886.560  
  98189530.70146      -147.092          38.550  
  23047116.780   121113436.99508       -74.114          47.450    23047112.240  
  94374096.10347       -74.114          41.500  
  20784953.720   109225693.19009       417.781          49.900    20784949.240  
  85110926.28048       417.781          44.950  
  23948912.040   125852395.25006      -606.441          40.300    23948909.840  
  98066794.97045      -606.442          38.150  
  21092203.960   110840320.51508       353.899          48.400    21092202.680  
  86369082.68448       353.899          46.650  
  20415390.480   107283636.96409       -80.215          51.500    20415388.540  
  83597646.93849       -80.215          49.450  
  21968547.860   115445539.63109      -474.070          48.550    21968546.240  
  89957573.76247      -474.070          44.250  
  20125819.560   107470784.84206      -331.243          40.050    20125823.200  
  83588419.99307      -331.243          43.300  
  22885231.960   121991178.69007      -842.191          44.200    22885238.620  
  94882048.17107      -842.191          42.350  
  22365248.900   119345250.25007       612.059          43.450    22365253.520  
  92824099.16207       612.060          43.750  
  19463636.460   104190419.51709       123.528          49.650    19463637.180  
  81037009.79308       123.528          47.650  
  21345780.700   114025362.19608       458.761          46.750    21345784.480  
  88686415.39008       458.761          46.050  
  21961423.320   117478800.65705       519.499          37.000    21961425.300  
  91372401.88607       519.499          41.750  
  20703117.000   110864293.41508      -486.979          48.200    20703117.800  
  86227797.50908      -486.979          45.150  
 20 09 28 09 05 35.0000000  0 15G15G11G21G20G12G24G10G32R13R14R 2R 3
                                R12R19R 4
  24382220.620   128129433.00207       662.299          42.200    24382215.660  
  99841090.47545       662.299          36.700  
  23978156.340   126006067.79206      -146.500          39.900    23978152.700  
  98186526.04144      -146.500          34.950  
  23046747.580   121111496.77308       -73.651          47.200    23046743.040  
  94372584.24746       -73.651          41.350  
  20787043.860   109236676.84409       418.189          49.850    20787039.360  
  85119484.96548       418.190          44.800  
  23945880.360   125836464.05506      -606.195          41.150    23945878.240  
  98054381.08145      -606.196          37.850  
  21093974.800   110849626.24209       354.329          48.650    21093973.460  
  86376333.89648       354.329          46.600  
  20414990.720   107281536.32909       -79.751          51.600    20414988.800  
  83596010.08249       -79.751          49.450  
  21966178.020   115433086.35809      -473.902          48.600    21966176.440  
  89947869.91547      -473.902          44.500  
  20124165.360   107461951.21206      -330.557          39.450    20124168.980  
  83581549.38807      -330.557          43.300  
  22881021.440   121968734.24707      -842.093          44.350    22881028.040  
  94864591.40007      -842.094          42.250  
  22368309.740   119361583.35407       612.187          44.050    22368314.300  
  92836802.65207       612.188          43.750  
  19464255.260   104193732.07709       123.936          49.650    19464256.000  
  81039586.23008       123.936          47.600  
  21348076.200   114037624.70008       459.378          46.800    21348080.020  
  88695952.88908       459.378          45.900  
  21964022.480   117492704.14805       520.085          36.800    21964024.420  
  91383215.70407       520.085          41.750  
  20700682.800   110851258.36508      -486.792          47.900    20700683.560  
  86217659.12508      -486.792          45.200  
 20 09 28 09 05 40.0000000  0 15G15G11G21G20G12G24G10G32R13R14R 2R 3
                                R12R19R 4
  24385532.840   128146838.28407       662.498          41.600    24385528.100  
  99854653.02445       662.498          35.950  
  23977425.840   126002229.25906      -145.694          40.750    23977422.160  
  98183534.99744      -145.696          32.150  
  23046381.120   121109570.91808       -72.978          47.050    23046376.580  
  94371083.58347       -72.978          41.850  
  20789136.500   109247673.76309       418.811          49.700    20789132.000  
  85128053.98548       418.811          44.800  
  23942850.120   125820540.01807      -605.901          41.550    23942848.020  
  98041972.74445      -605.901          37.950  
  21095748.480   110858946.82009       355.040          48.750    21095747.080  
  86383596.68848       355.040          46.450  
  20414593.740   107279450.25309       -79.073          51.550    20414591.820  
  83594384.56649       -79.073          49.450  
  21963809.520   115420640.02409      -473.523          48.550    21963807.980  
  89938171.47348      -473.523          44.800  
  20122515.200   107453139.77006      -329.593          39.550    20122518.880  
  83574696.05907      -329.594          43.300  
  22876811.840   121946295.05907      -841.783          44.150    22876818.420  
  94847138.71707      -841.784          41.950  
  22371371.620   119377922.08107       612.529          43.950    22371376.160  
  92849510.52807       612.530          43.750  
  19464876.520   104197057.76509       124.544          49.700    19464877.280  
  81042172.87708       124.544          47.700  
  21350375.300   114049906.27208       460.210          46.800    21350379.100  
  88705505.22308       460.210          45.950  
  21966624.740   117506625.10005       520.804          35.750    21966626.740  
  91394043.10307       520.805          41.650  
  20698250.120   110838231.21208      -486.365          48.000    20698250.840  
  86207526.89508      -486.365          45.500  
 20 09 28 09 05 45.0000000  0 15G15G11G21G20G12G24G10G32R13R14R 2R 3
                                R12R19R 4
  24388844.980   128164243.10807       662.343          41.850    24388840.340  
  99868215.20145       662.344          37.200  
  23976698.200   125998405.74506      -145.262          41.050    23976694.560  
  98180555.63844      -145.262          34.350  
  23046016.940   121107657.06008       -72.665          47.300    23046012.400  
  94369592.25847       -72.665          41.600  
  20791231.220   109258681.49309       419.107          49.750    20791226.680  
  85136631.43148       419.108          44.950  
  23939820.800   125804620.82607      -605.838          41.500    23939818.700  
  98029568.19046      -605.838          40.800  
  21097524.540   110868279.84009       355.406          48.800    21097523.040  
  86390869.18548       355.405          46.550  
  20414199.080   107277376.33509       -78.751          51.600    20414197.160  
  83592768.53249       -78.751          49.400  
  21961441.860   115408198.26809      -473.473          48.800    21961440.420  
  89928476.61148      -473.474          44.750  
  20120868.760   107444348.07806      -328.990          39.350    20120872.500  
  83567858.09107      -328.991          43.450  
  22872602.760   121923858.49107      -841.852          43.850    22872609.280  
  94829688.08707      -841.854          41.500  
  22374434.280   119394264.63507       612.513          43.550    22374438.740  
  92862221.41007       612.513          43.900  
  19465499.820   104200394.17009       124.798          49.650    19465500.560  
  81044767.85808       124.798          47.650  
  21352677.520   114062204.50508       460.713          46.750    21352681.300  
  88715070.50708       460.713          45.900  
  21969229.860   117520561.31005       521.254          36.300    21969231.880  
  91404882.36106       521.255          41.400  
  20695818.420   110825209.56108      -486.286          48.150    20695819.140  
  86197398.95208      -486.287          45.700  
 20 09 28 09 05 50.0000000  0 15G15G11G21G20G12G24G10G32R13R14R 2R 3
                                R12R19R 4
  24392157.840   128181651.44107       662.581          41.700    24392153.060  
  99881780.13345       662.582          37.550  
  23975974.220   125994601.18606      -144.475          41.300    23975970.520  
  98177591.02244      -144.475          34.250  
  23045655.800   121105759.06508       -71.995          47.400    23045651.220  
  94368113.30647       -71.995          41.550  
  20793328.760   109269703.96709       419.733          49.950    20793324.140  
  85145220.36748       419.733          44.800  
  23936793.140   125788710.38106      -605.363          40.650    23936791.060  
  98017170.44246      -605.364          39.600  
  21099303.720   110877629.14409       356.111          48.750    21099302.140  
  86398154.35548       356.111          46.800  
  20413807.500   107275318.51609       -78.051          51.600    20413805.580  
  83591165.03949       -78.052          49.300  
  21959075.880   115395765.00409      -473.076          49.200    21959074.480  
  89918788.36147      -473.076          44.050  
  20119226.760   107435580.21006      -328.019          39.300    20119230.580  
  83561038.64207      -328.019          43.400  
  22868394.960   121901428.74707      -841.437          43.300    22868401.400  
  94812242.75506      -841.438          40.850  
  22377498.260   119410614.46507       612.853          43.000    22377502.720  
  92874937.92507       612.853          43.850  
  19466125.820   104203745.28809       125.436          49.450    19466126.580  
  81047374.28208       125.436          47.550  
  21354983.600   114074523.34408       461.591          46.550    21354987.360  
  88724651.81508       461.591          45.700  
  21971838.580   117534516.64205       522.102          36.550    21971840.600  
  91415736.50806       522.102          41.300  
  20693388.480   110812197.24608      -485.867          48.000    20693389.200  
  86187278.27108      -485.868          45.800  
 20 09 28 09 05 55.0000000  0 15G15G11G21G20G12G24G10G32R13R14R 2R 3
                                R12R19R 4
  24395470.640   128199059.73407       662.483          41.600    24395466.020  
  99895345.02445       662.485          36.750  
  23975253.240   125990812.09806      -143.988          41.350    23975249.480  
  98174638.52944      -143.989          34.650  
  23045297.060   121103873.51108       -71.525          47.250    23045292.440  
  94366644.04147       -71.525          42.000  
  20795428.460   109280737.69409       420.156          50.050    20795423.760  
  85153818.07348       420.156          44.650  
  23933766.440   125772805.11206      -605.280          41.300    23933764.420  
  98004776.72246      -605.280          40.850  
  21101085.320   110886991.26309       356.549          48.750    21101083.680  
  86405449.51748       356.549          46.700  
  20413418.320   107273273.29509       -77.615          51.600    20413416.400  
  83589571.35849       -77.615          49.450  
  21956710.860   115383336.75809      -472.886          49.400    21956709.480  
  89909104.01447      -472.886          43.900  
  20117588.640   107426832.44206      -327.296          39.050    20117592.420  
  83554234.82207      -327.296          43.550  
  22864187.760   121879002.19007      -841.387          43.550    22864194.120  
  94794799.89206      -841.388          40.750  
  22380562.940   119426968.48807       613.065          42.000    22380567.520  
  92887657.71507       613.066          43.700  
  19466753.920   104207107.51109       125.829          49.650    19466754.660  
  81049989.34808       125.828          47.650  
  21357292.880   114086859.22108       462.190          46.350    21357296.600  
  88734246.38608       462.190          45.850  
  21974450.180   117548487.47805       522.667          36.200    21974452.280  
  91426602.71607       522.667          41.800  
  20690959.660   110799190.83808      -485.659          48.300    20690960.360  
  86177162.18208      -485.659          46.050  
 20 09 28 09 06  0.0000000  0 15G15G11G21G20G12G24G10G32R13R14R 2R 3
                                R12R19R 4
  24398783.620   128216468.96706       662.727          41.100    24398779.000  
  99908910.65745       662.727          36.700  
  23974535.400   125987039.48507      -143.196          41.800    23974531.500  
  98171698.80943      -143.195          31.250  
  23044940.820   121102001.32308       -70.860          47.300    23044936.180  
  94365185.18847       -70.860          41.750  
  20797530.480   109291783.58709       420.744          50.100    20797525.700  
  85162425.26448       420.744          44.950  
  23930740.940   125756906.13407      -604.791          41.600    23930738.940  
  97992387.91046      -604.791          38.800  
  21102869.540   110896367.04009       357.195          48.900    21102867.820  
  86412755.32348       357.195          46.550  
  20413031.720   107271241.65909       -76.935          51.500    20413029.800  
  83587988.26549       -76.935          49.600  
  21954346.980   115370914.45909      -472.546          49.300    21954345.600  
  89899424.29647      -472.546          43.850  
  20115954.340   107418105.65606      -326.306          39.300    20115958.200  
  83547447.33707      -326.307          43.200  
  22859981.340   121856579.91107      -841.088          43.650    22859987.600  
  94777360.36606      -841.089          40.200  
  22383628.640   119443327.63206       613.326          41.300    22383633.280  
  92900381.47507       613.327          43.650  
  19467384.260   104210481.87809       126.407          49.600    19467385.020  
  81052613.85708       126.407          47.400  
  21359605.500   114099213.09108       462.963          46.300    21359609.260  
  88743854.95608       462.963          45.850  
  21977064.880   117562474.78005       523.362          36.350    21977067.060  
  91437481.72007       523.363          41.750  
  20688532.120   110786191.33808      -485.266          48.150    20688532.820  
  86167051.47008      -485.266          45.950  
 20 09 28 09 06  5.0000000  0 16G15G11G21G20G12G24G10G32R13R14R 2R 3
                                R12R19R 4R20
  24402097.060   128233880.95706       662.613          41.400    24402092.320  
  99922478.44745       662.613          37.850  
  23973821.060   125983285.15806      -142.647          41.400    23973817.060  
  98168773.35445      -142.647          36.600  
  23044587.460   121100144.34608       -70.481          47.250    23044582.820  
  94363738.19446       -70.481          41.300  
  20799635.160   109302843.50809       421.100          49.900    20799630.340  
  85171043.38448       421.100          44.950  
  23927716.920   125741015.13307      -604.811          41.500    23927714.960  
  97980005.32646      -604.812          39.700  
  21104656.720   110905758.42109       357.618          48.850    21104654.960  
  86420073.28148       357.618          46.550  
  20412648.040   107269225.41009       -76.550          51.400    20412646.120  
  83586417.16249       -76.550          49.550  
  21951984.540   115358499.96309      -472.409          49.050    21951983.220  
  89889750.66747      -472.409          44.050  
  20114324.360   107409401.88606      -325.673          39.600    20114328.240  
  83540677.73607      -325.673          43.050  
  22855776.120   121834163.69007      -841.047          44.000    22855782.220  
  94759925.53406      -841.048          40.150  
  22386695.400   119459693.02806       613.442          41.300    22386700.180  
  92913110.09307       613.443          43.350  
  19468017.200   104213870.27209       126.759          49.350    19468017.980  
  81055249.27308       126.759          47.350  
  21361921.840   114111586.82608       463.549          45.900    21361925.660  
  88753478.97008       463.549          45.800  
  21979683.040   117576480.39305       523.866          36.900    21979685.280  
  91448374.97007       523.866          41.800  
  20686106.160   110773200.50408      -485.121          48.100    20686106.920  
  86156947.50308      -485.121          46.000  
  22474585.380   120181706.36704      -252.749          35.250    22474589.020  
  93474675.95607      -252.749          41.950  
 20 09 28 09 06 10.0000000  0 16G15G11G21G20G12G24G10G32R13R14R 2R 3
                                R12R19R 4R20
  24405410.620   128251293.86406       662.744          40.750    24405405.980  
  99936046.93844       662.745          35.450  
  23973109.880   125979547.23306      -141.974          41.350    23973105.800  
  98165860.69845      -141.974          35.900  
  23044236.660   121098300.71908       -69.942          47.250    23044231.980  
  94362301.60446       -69.942          41.400  
  20801742.140   109313915.62409       421.589          49.600    20801737.300  
  85179671.00548       421.590          44.850  
  23924694.100   125725130.46407      -604.424          42.050    23924692.160  
  97967627.66446      -604.424          39.950  
  21106446.500   110915163.54509       358.204          48.950    21106444.700  
  86427401.95248       358.204          46.750  
  20412266.960   107267222.72609       -76.003          51.500    20412265.040  
  83584856.62949       -76.003          49.450  
  21949623.260   115346091.41309      -472.160          49.200    21949621.940  
  89880081.67547      -472.160          43.850  
  20112698.360   107400719.42306      -324.788          39.100    20112702.260  
  83533924.70907      -324.788          43.050  
  22851571.740   121811751.75407      -840.817          43.950    22851577.720  
  94742494.04106      -840.817          40.250  
  22389763.240   119476063.93007       613.647          41.650    22389768.100  
  92925843.01107       613.648          43.400  
  19468652.400   104217270.74809       127.259          49.250    19468653.200  
  81057894.08808       127.259          47.400  
  21364241.500   114123978.47108       464.281          46.100    21364245.420  
  88763116.91008       464.281          45.950  
  21982304.320   117590502.43905       524.561          36.800    21982306.540  
  91459281.00807       524.561          41.500  
  20683681.520   110760216.61908      -484.813          48.250    20683682.300  
  86146848.93808      -484.813          46.050  
  22473324.320   120174961.26004      -251.856          34.500    22473328.100  
  93469429.75207      -251.855          42.400  
 20 09 28 09 06 15.0000000  0 16G15G11G21G20G12G24G10G32R13R14R 2R 3
                                R12R19R 4R20
  24408724.240   128268707.33306       662.821          40.650    24408719.960  
  99949615.87345       662.822          37.300  
  23972401.740   125975825.41007      -141.270          42.150    23972397.600  
  98162960.56545      -141.270          35.700  
  23043888.300   121096470.10408       -69.352          47.550    23043883.620  
  94360875.15346       -69.352          40.200  
  20803851.320   109324999.54209       422.123          49.400    20803846.520  
  85188307.81648       422.123          45.150  
  23921672.480   125709251.65907      -604.066          42.850    23921670.480  
  97955254.58246      -604.066          39.600  
  21108238.800   110924582.04809       358.747          48.950    21108237.000  
  86434741.04748       358.747          46.400  
  20411888.400   107265233.26509       -75.401          51.700    20411886.480  
  83583306.40549       -75.401          49.300  
  21947263.040   115333688.48909      -471.873          49.250    21947261.740  
  89870417.06747      -471.873          43.850  
  20111076.300   107392057.74006      -323.952          38.900    20111080.180  
  83527187.84807      -323.952          43.050  
  22847368.120   121789343.75107      -840.605          44.150    22847373.980  
  94725065.61406      -840.606          40.650  
  22392832.000   119492439.05807       613.857          43.200    22392836.820  
  92938579.21607       613.857          43.600  
  19469289.760   104220682.94209       127.768          49.250    19469290.580  
  81060548.02308       127.768          47.350  
  21366564.440   114136387.71808       464.981          46.700    21366568.500  
  88772768.54408       464.981          46.050  
  21984928.600   117604540.63105       525.280          37.100    21984930.780  
  91470199.59607       525.280          41.550  
  20681258.060   110747239.21808      -484.512          47.950    20681258.880  
  86136755.40708      -484.512          46.050  
  22472067.160   120168237.24004      -251.024          34.500    22472070.860  
  93464199.95507      -251.024          42.400  
 20 09 28 09 06 20.0000000  0 16G15G11G21G20G12G24G10G32R13R14R 2R 3
                                R12R19R 4R20
  24412038.320   128286123.53706       662.847          40.250    24412034.200  
  99963186.91744       662.849          33.950  
  23971697.060   125972121.82607      -140.676          42.300    23971692.860  
  98160074.65644      -140.676          33.000  
  23043542.860   121094654.68608       -68.835          47.350    23043538.140  
  94359460.54646       -68.835          40.750  
  20805963.120   109336097.49109       422.601          49.350    20805958.400  
  85196955.56248       422.601          45.100  
  23918652.380   125693381.00807      -603.854          43.150    23918650.300  
  97942887.84946      -603.855          40.500  
  21110034.100   110934016.32609       359.322          48.700    21110032.320  
  86442092.43948       359.321          46.950  
  20411512.780   107263259.20809       -74.866          51.650    20411510.840  
  83581768.18649       -74.867          49.350  
  21944904.320   115321293.35809      -471.634          49.150    21944903.020  
  89860758.53247      -471.635          44.200  
  20109458.440   107383419.08206      -323.118          39.350    20109462.400  
  83520468.89507      -323.118          43.100  
  22843165.580   121766941.87207      -840.419          43.900    22843171.380  
  94707641.94106      -840.419          40.050  
  22395902.080   119508821.19107       614.072          43.900    22395906.880  
  92951320.87607       614.073          43.700  
  19469929.740   104224109.07509       128.233          49.400    19469930.580  
  81063212.78908       128.233          47.350  
  21368891.140   114148816.78308       465.664          46.750    21368895.260  
  88782435.59708       465.664          45.850  
  21987556.260   117618596.95305       525.836          37.050    21987558.420  
  91481132.29307       525.836          41.600  
  20678836.260   110734270.56508      -484.230          47.800    20678837.120  
  86126668.68108      -484.230          45.950  
  22470814.620   120161536.66404      -250.189          34.800    22470817.880  
  93458988.42507      -250.191          42.300  
 20 09 28 09 06 25.0000000  0 16G15G11G21G20G12G24G10G32R13R14R 2R 3
                                R12R19R 4R20
  24415352.560   128303540.44906       662.859          40.200    24415348.460  
  99976758.53245       662.859          37.650  
  23970995.420   125968434.47307      -140.011          42.150    23970991.220  
  98157201.38144      -140.010          33.800  
  23043199.900   121092852.39808       -68.348          47.000    23043195.140  
  94358056.16546       -68.348          41.050  
  20808077.240   109347207.41609       423.075          49.400    20808072.540  
  85205612.64748       423.076          45.150  
  23915633.480   125677516.45807      -603.668          43.500    23915631.340  
  97930525.87046      -603.669          39.900  
  21111831.940   110943463.99509       359.821          48.650    21111830.160  
  86449454.25748       359.821          46.850  
  20411139.700   107261298.52009       -74.372          51.650    20411137.740  
  83580240.37549       -74.372          49.400  
  21942546.720   115308904.00809      -471.390          49.200    21942545.380  
  89851104.50347      -471.390          44.250  
  20107844.560   107374801.33606      -322.396          39.550    20107848.580  
  83513766.20507      -322.396          43.150  
  22838963.840   121744544.07807      -840.264          43.600    22838969.540  
  94690221.44106      -840.264          40.100  
  22398973.040   119525207.97307       614.272          43.600    22398977.820  
  92964066.15007       614.272          43.100  
  19470572.000   104227547.19709       128.668          49.350    19470572.820  
  81065886.87908       128.668          47.300  
  21371221.160   114161263.55608       466.356          46.600    21371225.340  
  88792116.41808       466.357          45.650  
  21990186.780   117632669.44805       526.446          36.400    21990189.120  
  91492077.55807       526.446          41.750  
  20676415.680   110721308.63808      -483.979          47.750    20676416.600  
  86116587.18608      -483.979          45.900  
  22469565.260   120154857.50204      -249.407          34.200    22469568.660  
  93453793.53607      -249.407          42.100  
 20 09 28 09 06 30.0000000  0 16G15G11G21G20G12G24G10G32R13R14R 2R 3
                                R12R19R 4R20
  24418667.060   128320958.93906       663.109          40.500    24418663.020  
  99990331.40244       663.108          35.050  
  23970297.060   125964764.23307      -139.244          41.850    23970292.780  
  98154341.46844      -139.245          32.950  
  23042859.580   121091064.10208       -67.698          46.950    23042854.820  
  94356662.68246       -67.698          41.450  
  20810193.840   109358330.13509       423.689          49.700    20810189.100  
  85214279.70348       423.689          44.550  
  23912615.940   125661658.90507      -603.295          43.700    23912613.720  
  97918169.33946      -603.295          40.750  
  21113632.480   110952925.91709       360.479          48.750    21113630.720  
  86456827.18148       360.480          46.750  
  20410769.320   107259352.06809       -73.706          51.600    20410767.360  
  83578723.65349       -73.706          49.450  
  21940190.380   115296521.26609      -471.026          49.250    21940189.000  
  89841455.61047      -471.026          43.850  
  20106234.860   107366205.39006      -321.423          39.300    20106238.820  
  83507080.47007      -321.423          43.150  
  22834763.020   121722151.20007      -839.987          43.550    22834768.660  
  94672804.76406      -839.988          40.050  
  22402045.020   119541600.34907       614.609          43.550    22402049.780  
  92976815.76907       614.609          42.800  
  19471216.660   104230998.01909       129.281          49.650    19471217.440  
  81068570.85208       129.281          47.200  
  21373554.700   114173728.82508       467.162          47.050    21373558.880  
  88801811.63008       467.162          45.600  
  21992820.740   117646758.99405       527.237          37.050    21992823.020  
  91503036.07107       527.238          41.800  
  20673996.540   110708354.28508      -483.574          48.100    20673997.500  
  86106511.57208      -483.573          45.900  
  22468320.060   120148200.61204      -248.430          33.900    22468323.580  
  93448615.94607      -248.430          42.800  
 20 09 28 09 06 35.0000000  0 16G15G11G21G20G12G24G10G32R13R14R 2R 3
                                R12R19R 4R20
  24421982.160   128338380.36706       662.973          40.700    24421978.280  
 100003906.50645       662.974          36.100  
  23969602.160   125961112.54806      -138.712          41.200    23969597.880  
  98151496.00444      -138.713          33.550  
  23042522.220   121089291.24708       -67.296          46.650    23042517.440  
  94355281.23946       -67.296          41.250  
  20812313.160   109369467.08709       423.995          49.550    20812308.380  
  85222957.84948       423.995          44.950  
  23909599.960   125645809.78107      -603.147          43.600    23909597.720  
  97905819.38346      -603.147          41.300  
  21115436.040   110962403.59209       360.876          48.600    21115434.280  
  86464212.38448       360.876          47.050  
  20410401.920   107257421.31509       -73.298          51.450    20410399.960  
  83577219.16849       -73.298          49.400  
  21937835.560   115284146.61609      -470.943          49.050    21937834.160  
  89831813.02848      -470.943          44.550  
  20104629.540   107357632.76906      -320.764          39.600    20104633.460  
  83500412.89407      -320.764          43.150  
  22830563.360   121699764.87007      -839.902          43.650    22830569.020  
  94655393.18306      -839.902          40.250  
  22405118.280   119557999.76207       614.647          42.750    22405123.040  
  92989570.85607       614.648          41.900  
  19471864.000   104234463.21109       129.619          49.700    19471864.740  
  81071266.00308       129.619          47.250  
  21375891.980   114186214.07708       467.710          47.150    21375896.120  
  88811522.38008       467.710          45.150  
  21995458.200   117660867.04605       527.716          37.500    21995460.380  
  91514008.99407       527.717          41.700  
  20671579.120   110695408.96108      -483.438          48.050    20671580.120  
  86096442.99208      -483.438          45.800  
  22467079.380   120141567.45404      -247.666          34.350    22467083.020  
  93443456.81707      -247.666          42.100  
 20 09 28 09 06 40.0000000  0 16G15G11G21G20G12G24G10G32R13R14R 2R 3
                                R12R19R 4R20
  24425296.900   128355799.76406       662.879          40.150    24425293.060  
 100017480.07644       662.879          33.250  
  23968909.800   125957474.35807      -138.157          41.700    23968905.680  
  98148661.06745      -138.157          37.100  
  23042186.820   121087528.81108       -66.906          46.900    23042182.060  
  94353907.91447       -66.906          41.900  
  20814434.200   109380613.24309       424.366          49.250    20814429.400  
  85231643.15948       424.366          44.900  
  23906584.640   125629964.05707      -603.045          43.800    23906582.420  
  97893472.07247      -603.046          41.650  
  21117241.620   110971891.96308       361.303          48.450    21117239.880  
  86471605.91848       361.303          47.500  
  20410036.540   107255501.21709       -72.875          51.400    20410034.600  
  83575722.98449       -72.875          49.600  
  21935481.340   115271775.00409      -470.799          48.900    21935479.900  
  89822172.81547      -470.799          44.400  
  20103027.560   107349078.34706      -320.062          39.400    20103031.480  
  83493759.45907      -320.062          43.200  
  22826364.000   121677379.90207      -839.876          43.750    22826369.620  
  94637982.66706      -839.877          40.850  
  22408191.840   119574401.07307       614.771          42.700    22408196.600  
  93002327.41207       614.771          41.600  
  19472513.040   104237937.41709       129.964          49.650    19472513.740  
  81073968.16608       129.964          47.400  
  21378232.020   114198714.21308       468.268          47.100    21378236.120  
  88821244.70908       468.268          44.850  
  21998098.100   117674988.34305       528.252          37.300    21998100.280  
  91524992.23407       528.251          41.850  
  20669162.400   110682467.52208      -483.267          48.100    20669163.460  
  86086377.43508      -483.267          45.950  
  22465842.420   120134952.98604      -246.998          34.200    22465846.080  
  93438312.24907      -246.999          42.200  
 20 09 28 09 06 45.0000000  0 16G15G11G21G20G12G24G10G32R13R14R 2R 3
                                R12R19R 4R20
  24428612.060   128373221.05006       663.150          40.600    24428608.180  
 100031055.08744       663.151          33.800  
  23968220.740   125953853.61006      -137.410          39.650    23968216.740  
  98145839.72145      -137.411          37.250  
  23041854.200   121085780.73908       -66.188          47.200    23041849.420  
  94352545.79246       -66.188          40.750  
  20816557.740   109391772.54209       425.039          49.200    20816552.940  
  85240338.71148       425.039          45.050  
  23903570.740   125614125.70407      -602.612          43.450    23903568.500  
  97881130.49747      -602.612          41.900  
  21119050.020   110981395.10909       362.049          48.600    21119048.300  
  86479010.96948       362.049          47.350  
  20409673.940   107253595.70009       -72.168          51.600    20409672.020  
  83574238.17549       -72.168          49.350  
  21933128.440   115259410.38909      -470.348          49.000    21933126.980  
  89812538.06747      -470.349          44.500  
  20101429.740   107340546.13106      -319.063          39.800    20101433.660  
  83487123.30107      -319.063          43.050  
  22822165.660   121655000.33707      -839.490          43.650    22822171.300  
  94620576.35906      -839.491          41.000  
  22411266.500   119590808.22407       615.090          42.950    22411271.260  
  93015088.52106       615.091          41.300  
  19473164.560   104241424.83509       130.617          49.900    19473165.220  
  81076680.61308       130.616          47.250  
  21380575.640   114211233.27608       469.140          47.300    21380579.680  
  88830981.77908       469.140          44.850  
  22000741.100   117689127.01505       529.067          36.850    22000743.360  
  91535988.98106       529.067          41.250  
  20666747.180   110669534.03508      -482.818          48.300    20666748.300  
  86076318.06608      -482.818          45.850  
  22464609.260   120128360.89304      -246.103          33.600    22464613.380  
  93433185.07207      -246.104          42.350  
 20 09 28 09 06 50.0000000  0 16G15G11G21G20G12G24G10G32R13R14R 2R 3
                                R12R19R 4R20
  24431927.640   128390644.53806       663.057          40.850    24431923.700  
 100044631.82345       663.057          38.100  
  23967535.040   125950250.69206      -136.843          39.550    23967531.100  
  98143032.24845      -136.844          38.400  
  23041524.360   121084047.40508       -65.784          47.350    23041519.600  
  94351195.13047       -65.784          41.700  
  20818683.800   109402945.32309       425.394          49.550    20818679.060  
  85249044.76247       425.394          44.400  
  23900558.280   125598295.07507      -602.429          43.750    23900556.040  
  97868794.95546      -602.429          41.200  
  21120861.280   110990913.33909       362.438          48.700    21120859.580  
  86486427.76848       362.438          46.700  
  20409314.180   107251705.15109       -71.752          51.700    20409312.280  
  83572765.02249       -71.752          49.300  
  21930776.940   115247053.11509      -470.246          49.200    21930775.480  
  89802909.02647      -470.246          43.650  
  20099836.180   107332036.52906      -318.375          39.800    20099840.080  
  83480504.73007      -318.376          43.050  
  22817968.380   121632626.49707      -839.438          43.550    22817974.060  
  94603174.50206      -839.439          41.200  
  22414342.360   119607221.79107       615.181          43.000    22414347.100  
  93027854.61506       615.181          40.900  
  19473818.560   104244925.73309       130.968          49.900    19473819.200  
  81079403.53108       130.968          47.350  
  21382922.840   114223771.48308       469.705          47.450    21382926.840  
  88840733.72408       469.704          44.850  
  22003387.420   117703283.32905       529.459          36.250    22003389.700  
  91546999.44106       529.460          41.150  
  20664333.500   110656608.85608      -482.676          48.150    20664334.640  
  86066265.15608      -482.676          45.750  
  22463380.820   120121791.92904      -245.321          33.650    22463385.160  
  93428075.89207      -245.322          42.750  
 20 09 28 09 06 55.0000000  0 16G15G11G21G20G12G24G10G32R13R14R 2R 3
                                R12R19R 4R20
  24435243.280   128408068.26706       663.106          40.950    24435239.320  
 100058208.75544       663.106          32.650  
  23966852.400   125946663.61807      -136.216          41.800    23966848.560  
  98140237.13044      -136.216          32.800  
  23041196.940   121082326.77508       -65.242          47.300    23041192.180  
  94349854.38147       -65.242          41.500  
  20820812.060   109414129.58409       425.869          49.600    20820807.340  
  85257759.76248       425.870          44.550  
  23897546.900   125582470.20807      -602.183          43.800    23897544.720  
  97856463.90447      -602.184          41.800  
  21122675.000   111000444.54608       362.977          48.450    21122673.320  
  86493854.68948       362.976          46.900  
  20408956.880   107249827.57609       -71.211          51.650    20408955.020  
  83571301.97749       -71.211          49.300  
  21928426.460   115234701.19409      -469.984          49.300    21928424.960  
  89793284.15147      -469.984          44.000  
  20098246.480   107323547.49206      -317.589          40.150    20098250.320  
  83473902.15207      -317.590          43.000  
  22813771.820   121610256.47807      -839.224          43.600    22813777.500  
  94585775.60707      -839.225          41.550  
  22417419.080   119623639.50307       615.434          43.100    22417423.680  
  93040623.93106       615.434          40.550  
  19474474.700   104248438.07709       131.435          49.800    19474475.340  
  81082135.35208       131.435          47.600  
  21385273.220   114236326.81508       470.390          47.600    21385277.220  
  88850498.98008       470.390          45.150  
  22006036.860   117717455.26305       530.126          36.650    22006038.960  
  91558022.04106       530.127          41.300  
  20661921.000   110643689.96108      -482.380          48.050    20661922.140  
  86056217.12808      -482.380          45.850  
  22462156.100   120115243.90204      -244.541          34.000    22462160.740  
  93422982.98207      -244.541          42.700  
 20 09 28 09 07  0.0000000  0 16G15G11G21G20G12G24G10G32R13R14R 2R 3
                                R12R19R 4R20
  24438559.200   128425493.49206       663.214          41.200    24438555.180  
 100071786.83444       663.215          33.650  
  23966173.060   125943093.62507      -135.525          42.050    23966169.240  
  98137455.34845      -135.526          36.200  
  23040872.200   121080620.13408       -64.690          47.600    23040867.420  
  94348524.53147       -64.690          41.500  
  20822942.760   109425326.56409       426.395          49.650    20822938.040  
  85266484.66948       426.395          44.700  
  23894536.900   125566652.37507      -601.851          44.000    23894534.700  
  97844138.33046      -601.852          41.000  
  21124491.400   111009989.91408       363.563          48.500    21124489.760  
  86501292.62748       363.563          47.100  
  20408602.280   107247964.22509       -70.644          51.650    20408600.440  
  83569850.01349       -70.644          49.450  
  21926077.240   115222355.89109      -469.710          49.450    21926075.680  
  89783664.43447      -469.710          43.800  
  20096660.840   107315080.29506      -316.705          39.850    20096664.680  
  83467316.56307      -316.705          42.750  
  22809576.240   121587891.49707      -839.032          43.100    22809581.920  
  94568380.63806      -839.033          41.300  
  22420496.860   119640062.78507       615.646          43.550    22420501.300  
  93053397.58506       615.646          40.250  
  19475133.240   104251963.22909       131.960          49.300    19475133.900  
  81084877.13108       131.960          47.350  
  21387627.080   114248900.62208       471.123          47.550    21387631.040  
  88860278.59708       471.124          44.950  
  22008689.300   117731644.06305       530.770          36.150    22008691.380  
  91569057.77106       530.770          41.150  
  20659509.900   110630778.72308      -482.078          47.650    20659511.080  
  86046175.05908      -482.078          45.700  
  22460935.820   120108718.09104      -243.648          34.800    22460940.440  
  93417907.33907      -243.648          42.400  
 20 09 28 09 07  5.0000000  0 16G15G11G21G20G12G24G10G32R13R14R 2R 3
                                R12R19R 4R20
  24441875.400   128442920.27706       663.161          40.800    24441871.240  
 100085366.12945       663.162          36.250  
  23965497.040   125939540.80307      -135.009          41.950    23965493.140  
  98134686.91145      -135.010          36.050  
  23040550.140   121078927.59008       -64.256          47.550    23040545.340  
  94347205.66746       -64.257          40.600  
  20825075.900   109436536.35109       426.747          49.650    20825071.200  
  85275219.57448       426.748          45.050  
  23891528.260   125550841.62107      -601.739          44.100    23891526.040  
  97831818.27246      -601.740          40.350  
  21126310.480   111019549.49108       363.984          48.350    21126308.900  
  86508741.65048       363.984          47.000  
  20408250.420   107246115.20609       -70.209          51.650    20408248.580  
  83568409.22149       -70.209          49.400  
  21923729.300   115210017.29909      -469.563          49.450    21923727.680  
  89774049.94947      -469.563          44.400  
  20095079.380   107306635.15706      -316.002          39.550    20095083.140  
  83460748.13407      -316.003          42.750  
  22805381.620   121565531.67907      -838.948          43.400    22805387.300  
  94550989.68306      -838.948          41.400  
  22423575.700   119656491.62207       615.725          43.900    22423579.960  
  93066175.56506       615.725          40.100  
  19475794.140   104255501.19409       132.314          49.400    19475794.860  
  81087628.88508       132.314          47.550  
  21389984.420   114261492.90608       471.712          47.350    21389988.320  
  88870072.59008       471.712          45.000  
  22011344.740   117745849.85305       531.364          35.700    22011346.980  
  91580106.72206       531.364          41.350  
  20657100.240   110617875.16508      -481.905          47.800    20657101.460  
  86036138.96908      -481.905          45.800  
  22459719.640   120102214.73204      -242.919          35.300    22459724.220  
  93412849.17907      -242.919          42.700  
 20 09 28 09 07 10.0000000  0 16G15G11G21G20G12G24G10G32R13R14R 2R 3
                                R12R19R 4R20
  24445192.140   128460349.56906       663.225          40.850    24445188.060  
 100098947.37945       663.226          36.050  
  23964824.500   125936006.08807      -134.306          42.700    23964820.460  
  98131932.60044      -134.306          34.950  
  23040230.920   121077250.03508       -63.693          47.500    23040226.100  
  94345898.47846       -63.692          41.400  
  20827211.680   109447759.87909       427.281          49.350    20827206.960  
  85283965.17748       427.281          45.300  
  23888521.140   125535038.91807      -601.393          44.200    23888518.900  
  97819504.49446      -601.394          40.300  
  21128132.480   111029124.35708       364.555          48.300    21128130.940  
  86516202.57948       364.556          47.300  
  20407901.460   107244281.45409       -69.645          51.500    20407899.620  
  83566980.32349       -69.645          49.600  
  21921382.820   115197686.36109      -469.299          49.100    21921381.180  
  89764441.43048      -469.299          44.650  
  20093502.140   107298213.00506      -315.137          39.400    20093505.880  
  83454197.57607      -315.138          42.850  
  22801188.140   121543178.05207      -838.696          43.550    22801193.840  
  94533603.54407      -838.696          41.650  
  22426655.780   119672927.11407       615.977          43.500    22426659.880  
  93078958.72506       615.977          40.050  
  19476457.620   104259052.93209       132.809          49.650    19476458.380  
  81090391.34808       132.809          47.350  
  21392345.420   114274104.67108       472.416          47.400    21392349.260  
  88879881.74708       472.416          45.100  
  22014003.540   117760073.45805       531.935          35.700    22014005.920  
  91591169.50206       531.936          41.200  
  20654692.180   110604980.18008      -481.582          48.000    20654693.440  
  86026109.54208      -481.582          45.850  
  22458508.060   120095734.60704      -242.104          35.350    22458512.280  
  93407809.10107      -242.104          42.650  
 20 09 28 09 07 15.0000000  0 16G15G11G21G20G12G24G10G32R13R14R 2R 3
                                R12R19R 4R20
  24448509.140   128477780.41206       663.315          40.900    24448505.200  
 100112529.85644       663.316          34.600  
  23964155.180   125932488.54607      -133.582          42.650    23964151.060  
  98129191.65045      -133.581          35.800  
  23039914.380   121075586.57508       -63.100          47.550    23039909.580  
  94344602.27147       -63.100          41.700  
  20829349.880   109458996.19409       427.804          49.550    20829345.160  
  85292720.74048       427.804          45.050  
  23885515.400   125519243.40307      -601.104          44.200    23885513.140  
  97807196.30346      -601.104          40.250  
  21129957.240   111038713.67009       365.123          48.550    21129955.740  
  86523674.76948       365.123          46.550  
  20407555.240   107242462.02909       -69.058          51.550    20407553.380  
  83565562.59449       -69.058          49.350  
  21919037.620   115185362.13609      -468.952          49.050    21919035.960  
  89754838.14047      -468.952          44.450  
  20091928.980   107289812.85306      -314.271          39.850    20091932.740  
  83447664.13307      -314.271          42.700  
  22796995.600   121520829.50307      -838.469          43.650    22797001.340  
  94516221.35107      -838.470          41.750  
  22429736.900   119689368.13407       616.227          43.000    22429740.900  
  93091746.18506       616.227          40.550  
  19477123.520   104262617.57309       133.345          49.750    19477124.280  
  81093163.84508       133.345          47.200  
  21394709.840   114286734.81008       473.159          47.600    21394713.640  
  88889705.19508       473.158          45.100  
  22016665.640   117774314.03705       532.669          37.050    22016668.020  
  91602245.49506       532.670          40.900  
  20652285.600   110592092.91708      -481.268          48.050    20652286.820  
  86016086.10908      -481.268          45.600  
  22457300.300   120089277.00304      -241.199          35.100    22457304.640  
  93402786.50807      -241.199          42.750  
 20 09 28 09 07 20.0000000  0 16G15G11G21G20G12G24G10G32R13R14R 2R 3
                                R12R19R 4R20
  24451825.840   128495209.68006       663.257          40.950    24451821.780  
 100126111.08144       663.258          34.300  
  23963488.520   125928985.01607      -133.161          43.200    23963484.320  
  98126461.61944      -133.161          35.250  
  23039599.920   121073934.08708       -62.779          47.200    23039595.120  
  94343314.62246       -62.779          41.200  
  20831489.900   109470242.18809       428.148          49.750    20831485.220  
  85301483.85048       428.148          44.650  
  23882510.420   125503451.99007      -600.998          44.200    23882508.140  
  97794891.30946      -600.998          39.800  
  21131784.140   111048314.05509       365.522          48.750    21131782.640  
  86531155.59048       365.522          46.250  
  20407211.140   107240653.81609       -68.659          51.700    20407209.280  
  83564153.60149       -68.659          49.150  
  21916693.080   115173041.48009      -468.901          49.200    21916691.400  
  89745237.63847      -468.902          44.450  
  20090359.500   107281431.63206      -313.636          39.600    20090363.160  
  83441145.41407      -313.637          42.700  
  22792803.360   121498483.07007      -838.429          43.650    22792809.220  
  94498840.81007      -838.430          41.800  
  22432818.420   119705811.53607       616.234          42.100    22432822.400  
  93104535.47906       616.235          40.400  
  19477791.200   104266191.78609       133.655          49.700    19477791.940  
  81095943.79008       133.655          47.000  
  21397077.160   114299380.29408       473.688          47.600    21397080.900  
  88899540.57908       473.688          45.150  
  22019330.300   117788568.21105       533.175          37.650    22019332.660  
  91613332.08406       533.175          40.850  
  20649879.860   110579210.15708      -481.119          48.150    20649881.020  
  86006066.18708      -481.119          45.400  
  22456096.280   120082838.53204      -240.491          35.100    22456100.700  
  93397778.79407      -240.491          42.850  
