     2.11           OBSERVATION DATA    M                   RINEX VERSION / TYPE
LEICA GEO OFFICE 8.4                    4-10-20 00:24       PGM / RUN BY / DATE
                                                            OBSERVER / AGENCY
UGL1                                                        MARKER NAME
UGL1                                                        MARKER NUMBER
470879              LEICA GX1230GG      8.50                REC # / TYPE / VERS
                    LEIAX1203+GNSS                          ANT # / TYPE
 -1194789.2426  3840599.9392  4934480.3357                  APPROX POSITION XYZ
        1.3250        0.0000        0.0000                  ANTENNA: DELTA H/E/N
L1PhaOff:   0.0585  L2PhaOff:   0.0555                      COMMENT
     1     1                                                WAVELENGTH FACT L1/2
     8    C1    L1    D1    S1    P2    L2    D2    S2      # / TYPES OF OBSERV
  2020    10     3     8    22    0.0000000     GPS         TIME OF FIRST OBS
  2020    10     3     9    55    5.0000000     GPS         TIME OF LAST OBS
    18                                                      LEAP SECONDS
    22                                                      # OF SATELLITES
          C1    L1    D1    S1    P2    L2    D2    S2      COMMENT
   G 1   494   494   494   494   494   494   494   494      PRN / # OF OBS
   G 2     0     0     0     0     0     0     0     0      PRN / # OF OBS
   G 3     0     0     0     0     0     0     0     0      PRN / # OF OBS
   G 4     0     0     0     0     0     0     0     0      PRN / # OF OBS
   G 5     0     0     0     0     0     0     0     0      PRN / # OF OBS
   G 6     0     0     0     0     0     0     0     0      PRN / # OF OBS
   G 7     0     0     0     0     0     0     0     0      PRN / # OF OBS
   G 8     0     0     0     0     0     0     0     0      PRN / # OF OBS
   G 9     0     0     0     0     0     0     0     0      PRN / # OF OBS
   G10  1118  1118  1118  1118  1118  1118  1118  1118      PRN / # OF OBS
   G11  1049  1049  1049  1049  1049  1049  1049  1049      PRN / # OF OBS
   G12  1048  1048  1048  1048  1047  1047  1047  1047      PRN / # OF OBS
   G13     0     0     0     0     0     0     0     0      PRN / # OF OBS
   G14     0     0     0     0     0     0     0     0      PRN / # OF OBS
   G15   421   421   421   421   421   421   421   421      PRN / # OF OBS
   G16     0     0     0     0     0     0     0     0      PRN / # OF OBS
   G17     0     0     0     0     0     0     0     0      PRN / # OF OBS
   G18   177   177   177   177   176   176   176   176      PRN / # OF OBS
   G19     0     0     0     0     0     0     0     0      PRN / # OF OBS
   G20  1118  1118  1118  1118  1118  1118  1118  1118      PRN / # OF OBS
   G21  1118  1118  1118  1118  1118  1118  1118  1118      PRN / # OF OBS
   G22     0     0     0     0     0     0     0     0      PRN / # OF OBS
   G23  1118  1118  1118  1118  1118  1118  1118  1118      PRN / # OF OBS
   G24  1118  1118  1118  1118  1118  1118  1118  1118      PRN / # OF OBS
   G25     0     0     0     0     0     0     0     0      PRN / # OF OBS
   G26     0     0     0     0     0     0     0     0      PRN / # OF OBS
   G27     0     0     0     0     0     0     0     0      PRN / # OF OBS
   G28     0     0     0     0     0     0     0     0      PRN / # OF OBS
   G29     0     0     0     0     0     0     0     0      PRN / # OF OBS
   G30     0     0     0     0     0     0     0     0      PRN / # OF OBS
   G31   427   427   427   427   427   427   427   427      PRN / # OF OBS
   G32  1118  1118  1118  1118  1118  1118  1118  1118      PRN / # OF OBS
   R 1  1118  1118  1118  1118  1118  1118  1118  1118      PRN / # OF OBS
   R 2   364   364   364   364   363   363   363   363      PRN / # OF OBS
   R 3     0     0     0     0     0     0     0     0      PRN / # OF OBS
   R 4     0     0     0     0     0     0     0     0      PRN / # OF OBS
   R 5     0     0     0     0     0     0     0     0      PRN / # OF OBS
   R 6     0     0     0     0     0     0     0     0      PRN / # OF OBS
   R 7   655   655   655   655   655   655   655   655      PRN / # OF OBS
   R 8  1118  1118  1118  1118  1118  1118  1118  1118      PRN / # OF OBS
   R 9     0     0     0     0     0     0     0     0      PRN / # OF OBS
   R10  1118  1118  1118  1118     0     0     0     0      PRN / # OF OBS
   R11   977   977   977   977   976   976   976   976      PRN / # OF OBS
   R12     0     0     0     0     0     0     0     0      PRN / # OF OBS
   R13     0     0     0     0     0     0     0     0      PRN / # OF OBS
   R14     0     0     0     0     0     0     0     0      PRN / # OF OBS
   R15     0     0     0     0     0     0     0     0      PRN / # OF OBS
   R16     0     0     0     0     0     0     0     0      PRN / # OF OBS
   R17  1118  1118  1118  1118  1118  1118  1118  1118      PRN / # OF OBS
   R18   130   130   130   130   130   130   130   130      PRN / # OF OBS
   R19     0     0     0     0     0     0     0     0      PRN / # OF OBS
   R20     0     0     0     0     0     0     0     0      PRN / # OF OBS
   R21     0     0     0     0     0     0     0     0      PRN / # OF OBS
   R22     0     0     0     0     0     0     0     0      PRN / # OF OBS
   R23   383   383   383   383   383   383   383   383      PRN / # OF OBS
   R24   883   883   883   883   883   883   883   883      PRN / # OF OBS
                                                            END OF HEADER
 20 10 03 08 22  0.0000000  0 16G15G20G18G23G24G11G21G32G10R 7R 8R 1
                                R17R10R24R23
  23456301.480   123263687.65508     -3361.879          44.750    23456301.240  
  96049630.62406     -2619.648          41.250  
  20304280.300   106699711.55309     -1462.012          49.500    20304278.920  
  83142626.50908     -1139.230          46.250  
  23938882.380   125799682.94007     -3810.809          43.250    23938883.560  
  98025744.78505     -2969.465          38.250  
  20362372.680   107004991.31709     -1105.547          49.500    20362372.060  
  83380511.73208      -861.469          47.250  
  20715456.940   108860469.61709     -1010.680          49.500    20715458.380  
  84826350.46909      -787.547          54.500  
  24306965.660   127733961.92105      1674.113          37.750    24306964.720  
  99532931.45301      1304.504          22.250  
  23394867.480   122940866.39308      1281.730          46.250    23394866.020  
  95798078.70406       998.750          40.250  
  22652259.720   119038453.79308      2809.059          48.000    22652261.580  
  92757251.57409      2188.875          52.500  
  20624608.440   108383060.24209      1147.328          51.750    20624609.640  
  84454343.33109       894.023          53.750  
  21592592.120   115586825.30607     -2904.156          44.500    21592595.840  
  89900875.16207     -2258.793          44.250  
  19421805.460   104002889.95108       -76.176          48.000    19421808.240  
  80891152.30608       -59.246          46.000  
  20741780.760   110876715.65308      2611.434          45.250    20741787.400  
  86237482.47606      2031.109          39.500  
  22894466.940   122512915.41705      2527.305          38.500    22894471.380  
  95287840.16205      1965.676          37.500  
  20655296.780   110104370.73008      2740.664          45.500                  
                                                
  21428966.760   114590325.37108     -1048.121          46.750    21428970.980  
  89125832.02107      -815.211          43.000  
  22102414.040   118233010.03408     -3612.348          45.250    22102421.440  
  91959039.06505     -2809.609          37.250  
 20 10 03 08 22  5.0000000  0 16G15G20G18G23G24G11G21G32G10R 7R 8R 1
                                R17R10R24R23
  23459501.580   123280504.18307     -3364.516          44.000    23459501.340  
  96062734.38606     -2621.703          39.750  
  20305673.740   106707034.13509     -1466.852          49.250    20305672.360  
  83148332.41708     -1143.004          46.250  
  23942509.640   125818744.01207     -3813.398          44.250    23942510.720  
  98040597.55806     -2971.484          39.750  
  20363426.880   107010531.13609     -1110.289          49.750    20363426.260  
  83384828.46608      -865.164          47.250  
  20716421.180   108865536.76909     -1016.066          49.750    20716422.620  
  84830298.89509      -791.742          54.500  
  24305375.320   127725603.98106      1668.957          39.000    24305374.180  
  99526418.74701      1300.473          24.000  
  23393650.080   122934468.81308      1277.074          46.750    23393648.640  
  95793093.54606       995.117          40.000  
  22649588.480   119024416.29508      2805.953          48.250    22649590.340  
  92746313.26609      2186.457          52.500  
  20623519.040   108377335.42209      1142.754          51.750    20623520.240  
  84449882.44109       890.457          53.750  
  21595306.380   115601354.90707     -2907.566          44.000    21595310.100  
  89912175.95307     -2261.445          44.000  
  19421878.740   104003282.37608       -80.613          48.250    19421881.540  
  80891457.51608       -62.703          46.000  
  20739339.980   110863668.32008      2607.621          45.250    20739346.620  
  86227334.55406      2028.145          39.750  
  22892108.360   122500294.12207      2521.598          42.250    22892112.800  
  95278023.59107      1961.242          41.750  
  20652728.660   110090681.21008      2734.973          45.500                  
                                                
  21429949.960   114595583.10408     -1054.738          46.500    21429954.180  
  89129921.39407      -820.352          43.000  
  22105792.680   118251083.38308     -3616.844          44.750    22105800.120  
  91973096.09605     -2813.105          37.500  
 20 10 03 08 22 10.0000000  0 16G15G20G18G23G24G11G21G32G10R 7R 8R 1
                                R17R10R24R23
  23462702.760   123297326.44007     -3364.426          44.500    23462702.500  
  96075842.63006     -2621.633          40.250  
  20307070.360   106714373.39709     -1468.793          49.500    20307068.980  
  83154051.31808     -1144.520          45.750  
  23946137.960   125837810.59207     -3813.184          44.500    23946139.000  
  98055454.62106     -2971.316          38.750  
  20364484.140   107016087.08509     -1112.066          49.750    20364483.520  
  83389157.77708      -866.551          47.500  
  20717389.120   108870623.35509     -1018.535          49.500    20717390.560  
  84834262.46809      -793.668          54.500  
  24303788.280   127717264.14305      1666.457          38.500    24303787.000  
  99519920.27204      1298.551          34.250  
  23392435.580   122928086.56508      1275.586          46.750    23392434.120  
  95788120.37206       993.961          39.250  
  22646918.780   119010386.95608      2805.738          48.000    22646920.640  
  92735381.31909      2186.289          52.500  
  20622432.500   108371625.66009      1141.066          51.750    20622433.700  
  84445433.27209       889.141          53.750  
  21598022.420   115615894.02307     -2908.285          44.500    21598026.140  
  89923484.13507     -2262.004          44.250  
  19421954.780   104003689.62308       -82.219          48.250    19421957.580  
  80891774.26808       -63.949          46.250  
  20736901.120   110850631.14308      2606.910          45.000    20736907.760  
  86217194.52406      2027.594          40.500  
  22889753.700   122487693.85007      2518.805          41.500    22889758.120  
  95268223.38807      1959.070          41.750  
  20650164.520   110077012.89608      2732.152          45.750                  
                                                
  21430937.880   114600865.92908     -1058.426          46.250    21430942.100  
  89134030.26007      -823.219          42.750  
  22109174.160   118269171.89008     -3618.727          44.750    22109181.600  
  91987164.94005     -2814.570          37.500  
 20 10 03 08 22 15.0000000  0 16G15G20G18G23G24G11G21G32G10R 7R 8R 1
                                R17R10R24R23
  23465903.800   123314148.10607     -3364.410          44.250    23465903.560  
  96088950.42306     -2621.621          41.250  
  20308468.960   106721723.09409     -1471.281          49.250    20308467.580  
  83159778.34908     -1146.453          46.250  
  23949766.100   125856876.46807     -3813.066          43.750    23949767.140  
  98070311.13505     -2971.223          38.250  
  20365543.280   107021652.92509     -1114.395          49.750    20365542.660  
  83393494.80308      -868.359          47.500  
  20718359.560   108875723.07509     -1021.582          49.500    20718361.000  
  84838236.28209      -796.039          54.500  
  24302203.660   127708936.23105      1664.000          38.250    24302202.300  
  99513430.87904      1296.621          34.250  
  23391222.800   122921713.44708      1273.512          46.750    23391221.340  
  95783154.32006       992.348          39.750  
  22644249.460   118996359.50308      2804.953          47.750    22644251.320  
  92724450.83109      2185.680          52.750  
  20621347.660   108365924.70909      1139.074          51.750    20621348.860  
  84440990.97209       887.590          53.750  
  21600739.040   115630436.33708     -2909.172          45.000    21600742.780  
  89934794.82207     -2262.691          43.750  
  19422032.400   104004105.32508       -84.184          48.250    19422035.200  
  80892097.59608       -65.477          46.000  
  20734462.920   110837597.67908      2605.906          44.750    20734469.560  
  86207057.39706      2026.816          40.250  
  22887401.760   122475108.25407      2515.219          41.750    22887406.200  
  95258434.61607      1956.281          42.000  
  20647603.160   110063359.34408      2728.965          45.500                  
                                                
  21431929.280   114606167.44208     -1062.535          46.500    21431933.500  
  89138153.65207      -826.422          43.000  
  22112557.220   118287268.90008     -3620.453          44.750    22112564.680  
  92001240.38805     -2815.906          37.750  
 20 10 03 08 22 20.0000000  0 16G15G20G18G23G24G11G21G32G10R 7R 8R 1
                                R17R10R24R23
  23469105.080   123330970.82707     -3364.750          44.000    23469104.820  
  96102059.01906     -2621.887          40.500  
  20309869.840   106729084.82109     -1473.738          49.500    20309868.480  
  83165514.76008     -1148.371          46.000  
  23953394.400   125875943.17907     -3813.688          43.750    23953395.440  
  98085168.31706     -2971.707          40.500  
  20366604.600   107027230.25409     -1116.883          49.750    20366604.000  
  83397840.77608      -870.297          47.250  
  20719332.820   108880837.48009     -1024.617          49.250    20719334.240  
  84842221.52909      -798.406          54.500  
  24300621.460   127700621.78205      1660.750          37.750    24300620.000  
  99506952.12403      1294.094          31.000  
  23390012.080   122915351.01008      1271.273          46.750    23390010.620  
  95778196.57106       990.598          40.500  
  22641580.780   118982335.57108      2804.348          47.750    22641582.640  
  92713523.10609      2185.207          52.500  
  20620264.780   108360234.18609      1136.840          51.750    20620265.980  
  84436556.80609       885.848          54.000  
  21603456.600   115644983.65408     -2910.254          45.250    21603460.340  
  89946109.39607     -2263.535          44.000  
  19422111.920   104004531.12208       -86.379          48.250    19422114.720  
  80892428.77408       -67.188          46.250  
  20732025.740   110824569.52308      2604.852          44.750    20732032.380  
  86196924.38706      2025.996          40.500  
  22885052.920   122462539.04307      2511.969          42.000    22885057.360  
  95248658.53407      1953.750          42.000  
  20645044.860   110049722.15808      2725.410          45.250                  
                                                
  21432924.500   114611489.29008     -1066.707          46.500    21432928.720  
  89142292.87607      -829.660          43.000  
  22115942.220   118305376.31108     -3622.703          44.750    22115949.680  
  92015323.93005     -2817.660          37.500  
 20 10 03 08 22 25.0000000  0 16G15G20G18G23G24G11G21G32G10R 7R 8R 1
                                R17R10R24R23
  23472306.960   123347796.77607     -3365.719          43.750    23472306.700  
  96115170.14106     -2622.637          40.500  
  20311273.440   106736460.73409     -1476.902          49.500    20311272.080  
  83171262.21808     -1150.836          45.750  
  23957023.300   125895012.89607     -3814.539          44.000    23957024.320  
  98100027.81006     -2972.371          39.250  
  20367668.540   107032821.25509     -1119.844          49.750    20367667.940  
  83402197.39508      -872.609          47.250  
  20720309.260   108885968.79709     -1028.320          49.500    20720310.700  
  84846219.95309      -801.293          54.500  
  24299042.260   127692322.95105      1657.984          37.750    24299040.720  
  99500485.49104      1291.930          32.750  
  23388803.800   122909001.46908      1268.488          47.000    23388802.340  
  95773248.87706       988.430          40.000  
  22638913.200   118968317.36008      2802.738          47.750    22638915.060  
  92702599.82409      2183.953          52.250  
  20619184.320   108354556.28309      1133.953          51.750    20619185.500  
  84432132.46209       883.598          53.750  
  21606175.480   115659538.05608     -2912.055          45.250    21606179.200  
  89957429.49807     -2264.930          44.250  
  19422193.760   104004969.32008       -89.238          48.250    19422196.540  
  80892769.59508       -69.410          46.500  
  20729589.980   110811548.97907      2602.832          44.000    20729596.600  
  86186797.31206      2024.426          40.250  
  22882707.520   122449988.40106      2508.070          41.250    22882711.980  
  95238896.93007      1950.719          42.000  
  20642490.040   110036103.60108      2721.438          45.000                  
                                                
  21433923.920   114616833.70508     -1071.484          46.750    21433928.140  
  89146449.64307      -833.379          43.500  
  22119329.560   118323496.23207     -3625.750          44.250    22119337.020  
  92029417.19405     -2820.031          37.750  
 20 10 03 08 22 30.0000000  0 16G15G20G18G23G24G11G21G32G10R 7R 8R 1
                                R17R10R24R23
  23475509.440   123364625.97107     -3365.852          43.250    23475509.180  
  96128283.80606     -2622.746          40.000  
  20312679.740   106743850.85809     -1479.145          49.250    20312678.360  
  83177020.76108     -1152.582          46.250  
  23960652.760   125914085.66107     -3814.594          44.000    23960653.760  
  98114889.70306     -2972.414          39.750  
  20368735.080   107038425.95209     -1122.191          49.750    20368734.480  
  83406564.68808      -874.438          47.500  
  20721288.920   108891116.96309     -1031.141          49.250    20721290.360  
  84850231.51909      -803.484          54.500  
  24297466.020   127684039.96405      1655.316          37.250    24297464.440  
  99494031.26004      1289.859          32.000  
  23387597.980   122902664.86808      1266.070          47.250    23387596.520  
  95768311.27606       986.543          40.000  
  22636246.700   118954304.84708      2802.172          48.000    22636248.540  
  92691680.99909      2183.512          52.000  
  20618106.240   108348891.01009      1131.961          51.750    20618107.440  
  84427717.96809       882.047          53.750  
  21608895.700   115674099.54708     -2912.664          44.750    21608899.420  
  89968755.09507     -2265.410          44.000  
  19422277.900   104005419.93408       -91.082          48.000    19422280.680  
  80893120.07408       -70.840          46.250  
  20727155.640   110798536.03107      2602.012          44.500    20727162.240  
  86176676.13706      2023.785          40.250  
  22880365.600   122437456.38106      2504.754          41.250    22880370.080  
  95229149.80707      1948.141          41.500  
  20639938.740   110022503.74508      2718.422          45.500                  
                                                
  21434927.580   114622200.70208     -1075.379          46.500    21434931.800  
  89150623.96607      -836.410          43.000  
  22122719.220   118341628.50108     -3627.453          45.750    22122726.700  
  92043520.04705     -2821.359          38.250  
 20 10 03 08 22 35.0000000  0 16G15G20G18G23G24G11G21G32G10R 7R 8R 1
                                R17R10R24R23
  23478712.180   123381456.45707     -3366.363          44.000    23478711.920  
  96141398.46306     -2623.145          41.000  
  20314088.360   106751253.29609     -1481.918          49.500    20314087.000  
  83182788.89208     -1154.746          46.500  
  23964282.460   125933159.67906     -3815.121          39.750    23964283.480  
  98129752.55005     -2972.828          37.750  
  20369803.840   107044042.39209     -1124.559          49.750    20369803.240  
  83410941.14108      -876.281          47.250  
  20722271.500   108896280.35909     -1034.328          49.500    20722272.920  
  84854254.94009      -805.969          54.500  
  24295892.460   127675770.82405      1651.813          36.000    24295890.840  
  99487587.76403      1287.133          27.500  
  23386394.280   122896339.31608      1263.824          47.250    23386392.820  
  95763382.27406       984.797          39.250  
  22633580.940   118940296.16808      2801.172          48.000    22633582.780  
  92680765.13709      2182.727          53.000  
  20617030.220   108343236.48209      1129.652          51.750    20617031.420  
  84423311.83809       880.246          53.750  
  21611616.880   115688666.21808     -2913.969          45.000    21611620.600  
  89980084.72707     -2266.426          43.500  
  19422363.960   104005880.83308       -93.406          48.250    19422366.760  
  80893478.55308       -72.652          46.500  
  20724722.340   110785528.72607      2600.961          44.500    20724728.960  
  86166559.35206      2022.969          40.250  
  22878026.800   122424941.01606      2500.848          40.250    22878031.300  
  95219415.63907      1945.105          42.000  
  20637390.600   110008920.69008      2714.777          45.500                  
                                                
  21435935.080   114627588.28408     -1079.789          46.250    21435939.320  
  89154814.30707      -839.840          43.000  
  22126110.840   118359771.33307     -3629.805          44.500    22126118.320  
  92057631.14105     -2823.180          36.750  
 20 10 03 08 22 40.0000000  0 16G15G20G18G23G24G11G21G32G10R 7R 8R 1
                                R17R10R24R23
  23481915.440   123398289.69407     -3367.273          43.750    23481915.180  
  96154515.25406     -2623.852          39.750  
  20315499.620   106758669.44409     -1484.840          49.500    20315498.280  
  83188567.69208     -1157.023          46.000  
  23967912.600   125952236.11505     -3816.086          36.500    23967913.640  
  98144617.31505     -2973.566          36.250  
  20370875.140   107049672.08009     -1127.559          49.750    20370874.540  
  83415327.90508      -878.621          47.000  
  20723257.160   108901460.12309     -1037.906          49.750    20723258.600  
  84858291.11909      -808.762          54.250  
  24294321.760   127667516.84805      1649.352          36.750    24294320.140  
  99481156.09004      1285.207          32.000  
  23385192.940   122890026.24508      1261.055          47.000    23385191.480  
  95758462.99606       982.637          39.000  
  22630916.180   118926292.75708      2799.859          48.000    22630918.020  
  92669853.38809      2181.703          52.750  
  20615956.520   108337594.13509      1126.953          51.750    20615957.720  
  84418915.20809       878.141          53.750  
  21614339.320   115703239.50008     -2915.609          44.750    21614343.040  
  89991419.47507     -2267.703          44.000  
  19422452.240   104006353.59508       -96.031          48.250    19422455.040  
  80893846.26108       -74.691          46.250  
  20722290.400   110772528.64207      2599.047          44.500    20722297.020  
  86156448.17606      2021.477          40.000  
  22875691.380   122412443.88306      2497.410          41.000    22875695.920  
  95209695.65306      1942.258          40.750  
  20634845.860   109995355.78108      2710.758          46.000                  
                                                
  21436946.720   114632997.93508     -1084.508          47.000    21436950.940  
  89159021.81007      -843.512          43.000  
  22129504.700   118377926.11807     -3632.648          43.500    22129512.180  
  92071751.52905     -2825.395          37.500  
 20 10 03 08 22 45.0000000  0 16G15G20G18G23G24G11G21G32G10R 7R 8R 1
                                R17R10R24R23
  23485119.580   123415127.61607     -3367.543          44.500    23485119.340  
  96167635.70907     -2624.063          41.500  
  20316913.860   106766101.28609     -1487.488          49.750    20316912.500  
  83194358.75008     -1159.082          46.000  
  23971543.600   125971317.01005     -3816.684          38.500    23971544.620  
  98159485.52804     -2974.047          34.500  
  20371949.340   107055316.91809     -1130.000          49.750    20371948.740  
  83419726.46208      -880.523          47.500  
  20724246.340   108906658.25509     -1041.121          49.750    20724247.760  
  84862341.61109      -811.266          54.250  
  24292754.320   127659280.13105      1646.715          37.500    24292752.680  
  99474737.92503      1283.156          30.250  
  23383994.360   122883727.59708      1258.996          46.750    23383992.900  
  95753554.95406       981.031          39.250  
  22628252.800   118912296.55308      2798.891          48.500    22628254.640  
  92658947.25209      2180.953          52.250  
  20614885.500   108331965.92809      1124.660          51.750    20614886.680  
  84414529.60509       876.359          53.750  
  21617063.360   115717821.45708     -2916.840          44.750    21617067.080  
  90002760.98707     -2268.656          43.750  
  19422543.140   104006840.29608       -98.355          48.500    19422545.920  
  80894224.79808       -76.516          46.000  
  20719860.180   110759537.66208      2597.813          45.000    20719866.800  
  86146344.07806      2020.516          40.000  
  22873359.740   122399966.87906      2493.965          41.250    22873364.300  
  95199991.32206      1939.750          41.000  
  20632304.900   109981811.08208      2707.285          45.750                  
                                                
  21437962.840   114638431.60108     -1088.883          47.000    21437967.080  
  89163247.98407      -846.914          43.250  
  22132901.160   118396094.82007     -3634.539          44.250    22132908.620  
  92085882.75105     -2826.867          38.000  
 20 10 03 08 22 50.0000000  0 15G15G20G23G24G11G21G32G10R 7R 8R 1R17
                                R10R24R23
  23488324.160   123431967.79007     -3368.016          44.000    23488323.920  
  96180757.92205     -2624.430          38.000  
  20318330.620   106773546.42808     -1490.211          47.500    20318329.260  
  83200160.15907     -1161.203          43.500  
  20373025.940   107060974.49708     -1132.656          48.500    20373025.340  
  83424134.97508      -882.590          45.500  
  20725238.540   108911872.34809     -1044.301          49.500    20725239.960  
  84866404.54309      -813.746          54.000  
  24291189.740   127651058.31605      1643.492          37.500    24291188.100  
  99468331.30704      1280.645          31.500  
  23382798.060   122877440.92108      1256.367          47.250    23382796.600  
  95748656.22605       978.984          38.500  
  22625590.320   118898305.15308      2797.957          47.250    22625592.180  
  92648044.85909      2180.219          52.000  
  20613816.740   108326349.43909      1122.223          51.500    20613817.920  
  84410153.11109       874.457          54.000  
  21619788.520   115732409.59907     -2917.848          43.750    21619792.240  
  90014107.34807     -2269.438          44.500  
  19422636.160   104007338.45108      -100.609          48.250    19422638.940  
  80894612.25608       -78.250          46.000  
  20717431.220   110746553.43108      2596.355          45.500    20717437.840  
  86136245.21306      2019.383          38.750  
  22871031.420   122387507.61607      2490.133          43.000    22871035.960  
  95190300.80407      1936.773          43.500  
  20629767.300   109968284.23008      2703.723          45.500                  
                                                
  21438982.980   114643886.77508     -1093.027          46.750    21438987.220  
  89167490.89907      -850.133          42.250  
  22136299.760   118414274.93607     -3637.234          43.750    22136307.260  
  92100022.81104     -2828.969          35.250  
 20 10 03 08 22 55.0000000  0 15G15G20G23G24G11G21G32G10R 7R 8R 1R17
                                R10R24R23
  23491529.160   123448810.13408     -3369.141          45.000    23491528.940  
  96193881.79404     -2625.313          34.250  
  20319749.860   106781004.65308     -1493.445          47.250    20319748.520  
  83205971.75707     -1163.727          42.750  
  20374104.940   107066644.68308     -1135.699          48.500    20374104.340  
  83428553.30007      -884.965          44.500  
  20726233.780   108917102.38609     -1048.012          49.000    20726235.200  
  84870479.90709      -816.633          53.750  
  24289627.920   127642851.05904      1639.688          35.000    24289626.300  
  99461936.07102      1277.684          27.250  
  23381603.980   122871166.15907      1253.305          44.000    23381602.520  
  95743766.84005       976.605          38.000  
  22622928.760   118884318.41608      2796.496          46.750    22622930.600  
  92637146.08709      2179.082          50.500  
  20612750.160   108320744.56209      1119.309          51.250    20612751.340  
  84405785.66709       872.184          54.000  
  21622514.880   115747003.68508     -2919.656          44.750    21622518.600  
  90025458.22807     -2270.855          43.500  
  19422731.280   104007847.92708      -103.391          47.250    19422734.060  
  80895008.53608       -80.410          45.000  
  20715003.460   110733575.78007      2594.559          43.500    20715010.060  
  86126151.52606      2017.992          39.750  
  22868706.380   122375065.89807      2486.285          42.000    22868710.920  
  95180623.91307      1933.777          42.750  
  20627233.040   109954775.09108      2699.594          45.000                  
                                                
  21440007.120   114649363.41908     -1097.840          46.750    21440011.360  
  89171750.54007      -853.879          43.500  
  22139700.480   118432466.23607     -3639.875          42.000    22139707.960  
  92114171.57004     -2831.020          32.500  
 20 10 03 08 23  0.0000000  0 15G15G20G23G24G11G21G32G10R 7R 8R 1R17
                                R10R24R23
  23494735.040   123465657.46007     -3369.500          44.250    23494734.820  
  96207009.64605     -2625.582          36.250  
  20321172.180   106788478.87908     -1496.355          47.750    20321170.820  
  83211795.82807     -1165.996          42.000  
  20375186.880   107072330.34508     -1138.316          48.250    20375186.280  
  83432983.69407      -887.000          44.500  
  20727232.580   108922351.11209     -1051.277          49.250    20727234.000  
  84874569.82609      -819.180          53.500  
  24288069.460   127634661.37804      1636.137          35.000    24288067.900  
  99455554.46003      1274.910          30.500  
  23380412.720   122864906.11907      1250.816          44.500    23380411.260  
  95738888.89304       974.664          35.250  
  22620268.580   118870339.21808      2795.488          47.000    22620270.420  
  92626253.22009      2178.301          50.000  
  20611686.340   108315154.16609      1116.840          51.000    20611687.520  
  84401429.52409       870.266          53.750  
  21625242.840   115761606.66107     -2921.211          43.500    21625246.560  
  90036816.09507     -2272.059          43.500  
  19422829.080   104008371.71108      -105.977          46.500    19422831.860  
  80895415.93408       -82.426          45.000  
  20712577.480   110720607.53207      2592.922          43.250    20712584.080  
  86116065.10405      2016.719          38.500  
  22866385.200   122362644.80306      2482.383          41.250    22866389.740  
  95170963.06807      1930.742          43.250  
  20624702.620   109941286.51808      2695.770          44.750                  
                                                
  21441035.840   114654864.35908     -1102.566          47.000    21441040.080  
  89176029.03407      -857.555          43.500  
  22143103.780   118450671.72707     -3642.277          42.250    22143111.260  
  92128331.44103     -2832.883          31.250  
 20 10 03 08 23  5.0000000  0 15G15G20G23G24G11G21G32G10R 7R 8R 1R17
                                R10R24R23
  23497941.300   123482506.47307     -3369.617          44.500    23497941.080  
  96220138.73804     -2625.668          34.000  
  20322596.900   106795965.81008     -1498.441          47.500    20322595.560  
  83217629.78507     -1167.621          42.000  
  20376271.140   107078028.19408     -1140.574          47.250    20376270.560  
  83437423.55908      -888.762          45.000  
  20728234.300   108927615.21508     -1054.113          47.750    20728235.700  
  84878671.73709      -821.391          54.000  
  24286513.680   127626486.00904      1635.000          31.500    24286512.180  
  99449184.04304      1274.031          35.250  
  23379223.660   122858657.57207      1248.633          42.500    23379222.200  
  95734019.90304       972.961          35.000  
  22617609.240   118856364.30708      2794.703          48.000    22617611.060  
  92615363.70209      2177.691          51.250  
  20610624.640   108309574.95509      1115.078          50.250    20610625.820  
  84397082.09209       868.891          54.250  
  21627971.840   115776215.25706     -2922.105          40.500    21627975.540  
  90048178.36007     -2272.750          43.000  
  19422928.880   104008906.18108      -107.594          45.500    19422931.660  
  80895831.64508       -83.684          45.250  
  20710152.600   110707645.37507      2592.047          42.000    20710159.200  
  86105983.47705      2016.047          36.500  
  22864067.160   122350240.77506      2479.262          41.250    22864071.720  
  95161315.54306      1928.320          41.250  
  20622175.460   109927815.26408      2692.602          44.750                  
                                                
  21442068.440   114660386.26808     -1105.988          44.750    21442072.640  
  89180323.90707      -860.203          43.000  
  22146509.180   118468888.09607     -3643.930          43.250    22146516.660  
  92142499.69004     -2834.176          32.750  
 20 10 03 08 23 10.0000000  0 15G15G20G18G23G24G21G32G10R 7R 8R 1R17
                                R10R24R23
  23501147.960   123499357.74007     -3370.902          42.750    23501147.740  
  96233269.62804     -2626.676          33.750  
  20324024.120   106803465.91508     -1501.570          48.000    20324022.780  
  83223474.02507     -1170.059          43.250  
  23989705.060   126066750.05105     -3818.840          37.500                  
                                                
  20377357.820   107083738.72508     -1143.516          48.000    20377357.240  
  83441873.33208      -891.051          45.000  
  20729239.040   108932895.13908     -1057.719          47.250    20729240.440  
  84882785.95909      -824.195          53.500  
  23378036.920   122852421.02507      1245.668          41.750    23378035.460  
  95729160.22705       970.645          38.500  
  22614950.820   118842394.17908      2793.246          46.000    22614952.640  
  92604477.87909      2176.555          50.250  
  20609565.180   108304007.46109      1112.109          50.250    20609566.360  
  84392743.79009       866.578          53.750  
  21630701.980   115790829.89207     -2923.844          41.500    21630705.680  
  90059545.28907     -2274.105          42.750  
  19423030.840   104009452.12908      -110.551          45.250    19423033.620  
  80896256.27008       -85.984          44.750  
  20707729.060   110694689.98807      2590.332          43.000    20707735.640  
  86095907.04605      2014.699          37.750  
  22861752.540   122337854.59207      2475.117          42.500    22861757.080  
  95151681.82407      1925.086          43.000  
  20619651.640   109914361.79807      2688.520          43.750                  
                                                
  21443105.060   114665929.70208     -1110.941          47.000    21443109.260  
  89184635.49207      -864.070          42.000  
  22149916.640   118487115.58607     -3647.125          42.000    22149924.100  
  92156676.63105     -2836.652          36.000  
 20 10 03 08 23 15.0000000  0 15G15G20G18G23G24G21G32G10R 7R 8R 1R17
                                R10R24R23
  23504355.140   123516211.54207     -3370.676          43.500    23504354.920  
  96246402.44905     -2626.504          37.000  
  20325453.920   106810979.64108     -1503.801          48.000    20325452.580  
  83229328.87807     -1171.797          42.750  
  23993338.600   126085845.27406     -3818.621          39.250    23993341.700  
  98248734.60304     -2975.559          32.500  
  20378446.980   107089462.33908     -1145.781          48.000    20378446.400  
  83446333.29308      -892.820          44.750  
  20730246.880   108938191.39508     -1060.434          46.500    20730248.280  
  84886912.91309      -826.313          54.000  
  23376852.480   122846196.87207      1243.645          42.500    23376851.000  
  95724310.26005       969.074          36.750  
  22612293.360   118828429.19308      2792.656          45.750    22612295.180  
  92593596.09009      2176.098          50.000  
  20608508.040   108298452.08209      1110.016          49.750    20608509.200  
  84388414.91909       864.941          53.500  
  21633433.300   115805450.93907     -2924.566          41.500    21633437.000  
  90070917.22307     -2274.664          42.750  
  19423134.960   104010009.72208      -112.512          45.750    19423137.740  
  80896689.95508       -87.512          44.750  
  20705306.820   110681741.66307      2589.375          42.750    20705313.420  
  86085836.10005      2013.953          38.000  
  22859441.260   122325486.61006      2472.063          40.500    22859445.800  
  95142062.31807      1922.719          43.250  
  20617131.240   109900926.52507      2685.430          44.250                  
                                                
  21444145.860   114671494.95308     -1114.684          45.750    21444150.080  
  89188963.92907      -866.988          42.750  
  22153326.280   118505354.86407     -3648.270          42.750    22153333.720  
  92170862.76705     -2837.547          36.000  
 20 10 03 08 23 20.0000000  0 16G15G20G18G23G24G11G21G32G10R 7R 8R 1
                                R17R10R24R23
  23507562.500   123533066.16207     -3371.340          42.500    23507562.280  
  96259535.86805     -2627.027          37.750  
  20326886.000   106818505.20108     -1506.570          48.000    20326884.660  
  83235192.93907     -1173.953          43.500  
  23996972.400   126104941.00307     -3819.805          41.500    23996974.180  
  98263614.31204     -2976.484          34.000  
  20379538.300   107095197.25408     -1148.238          47.750    20379537.720  
  83450802.05008      -894.734          45.000  
  20731257.460   108943502.07308     -1063.742          47.000    20731258.860  
  84891051.10409      -828.895          53.750  
  24281862.020   127602046.23204      1624.063          35.250    24281862.980  
  99430170.57103      1265.504          29.750  
  23375670.080   122839983.32607      1241.297          41.750    23375668.600  
  95719468.54804       967.242          32.250  
  22609636.540   118814467.56708      2791.617          45.500    22609638.360  
  92582716.90809      2175.285          49.250  
  20607452.840   108292907.01009      1107.723          49.750    20607454.000  
  84384094.08209       863.160          54.000  
  21636165.520   115820076.72707     -2925.703          42.750    21636169.240  
  90082292.83407     -2275.551          43.000  
  19423240.980   104010577.40908      -114.707          45.750    19423243.740  
  80897131.49108       -89.273          45.000  
  20702885.520   110668798.70507      2587.969          43.500    20702892.100  
  86075769.42505      2012.871          36.500  
  22857133.060   122313134.98206      2468.309          41.250    22857137.600  
  95132455.49807      1919.797          42.250  
  20614613.920   109887507.69407      2682.105          44.000                  
                                                
  21445190.300   114677080.27608     -1119.098          46.000    21445194.520  
  89193308.12907      -870.406          42.750  
  22156737.740   118523603.85807     -3651.383          43.000    22156745.160  
  92185056.43605     -2839.965          37.250  
 20 10 03 08 23 25.0000000  0 16G15G20G18G23G24G11G21G32G10R 7R 8R 1
                                R17R10R24R23
  23510770.940   123549926.75907     -3372.887          43.250    23510770.720  
  96272674.02705     -2628.223          36.750  
  20328321.300   106826047.75308     -1510.488          48.000    20328319.960  
  83241070.25007     -1177.004          43.750  
  24000607.280   126124042.45806     -3821.336          41.250    24000608.880  
  98278498.57502     -2977.668          27.250  
  20380632.760   107100948.67208     -1152.164          47.750    20380632.180  
  83455283.67808      -897.793          45.000  
  20732271.800   108948832.43708     -1068.242          47.000    20732273.200  
  84895204.63909      -832.398          54.000  
  24280318.100   127593932.91405      1620.824          36.250    24280319.200  
  99423848.55004      1262.984          31.500  
  23374490.680   122833785.58707      1237.742          42.000    23374489.200  
  95714639.14305       964.473          37.000  
  22606981.360   118800514.52608      2789.832          44.750    22606983.180  
  92571844.41809      2173.895          49.500  
  20606400.600   108287377.49109      1104.113          49.750    20606401.760  
  84379785.38709       860.348          53.750  
  21638899.620   115834712.51407     -2928.508          42.750    21638903.340  
  90093676.21107     -2277.730          43.000  
  19423349.820   104011160.23908      -118.508          45.750    19423352.600  
  80897584.79408       -92.176          45.000  
  20700466.240   110655866.18907      2585.480          43.250    20700472.820  
  86065710.79105      2010.930          36.250  
  22854828.920   122300804.98306      2463.777          40.500    22854833.460  
  95122865.49307      1916.266          42.750  
  20612100.680   109874110.67907      2677.121          43.750                  
                                                
  21446239.520   114682690.83608     -1125.066          45.750    21446243.720  
  89197671.89607      -875.051          42.500  
  22160152.080   118541868.05307     -3654.980          42.000    22160159.500  
  92199261.88905     -2842.770          37.000  
 20 10 03 08 23 30.0000000  0 16G15G20G18G23G24G11G21G32G10R 7R 8R 1
                                R17R10R24R23
  23513980.340   123566792.23307     -3372.879          44.250    23513980.140  
  96285815.92406     -2628.230          39.000  
  20329759.600   106833606.08109     -1512.598          49.750    20329758.260  
  83246959.87108     -1178.648          46.000  
  24004243.040   126143148.23505     -3820.668          37.500    24004244.620  
  98293386.15005     -2977.152          36.750  
  20381730.140   107106715.36709     -1154.160          49.500    20381729.540  
  83459777.19808      -899.348          47.250  
  20733289.660   108954181.26709     -1071.055          49.500    20733291.040  
  84899372.55609      -834.594          55.000  
  24278777.580   127585837.17206      1618.109          39.500    24278778.680  
  99417540.14302      1260.855          27.000  
  23373314.140   122827602.56408      1235.867          46.750    23373312.660  
  95709821.14806       963.000          39.250  
  22604327.580   118786568.87108      2789.020          48.000    22604329.400  
  92560977.68609      2173.262          52.750  
  20605351.120   108281862.35809      1102.266          51.750    20605352.280  
  84375487.86409       858.906          54.000  
  21641635.340   115849357.03707     -2929.188          44.500    21641639.060  
  90105066.38207     -2278.266          44.500  
  19423461.340   104011757.29508      -120.070          48.000    19423464.100  
  80898049.14808       -93.395          46.250  
  20698048.740   110642943.13008      2584.395          45.000    20698055.320  
  86055659.48606      2010.074          40.250  
  22852528.620   122288495.55707      2460.145          41.750    22852533.160  
  95113291.48807      1913.441          42.000  
  20609591.300   109860734.18308      2673.902          45.750                  
                                                
  21447293.300   114688325.70008     -1128.715          46.000    21447297.520  
  89202054.52407      -877.902          43.500  
  22163569.000   118560146.06007     -3656.180          42.750    22163576.420  
  92213478.08805     -2843.703          38.500  
 20 10 03 08 23 35.0000000  0 16G15G20G18G23G24G11G21G32G10R 7R 8R 1
                                R17R10R24R23
  23517189.820   123583657.96007     -3373.117          44.500    23517189.620  
  96298957.99906     -2628.410          39.250  
  20331200.060   106841175.76309     -1515.105          49.500    20331198.720  
  83252858.32008     -1180.605          45.750  
  24007878.840   126162254.18607     -3821.242          43.000    24007880.380  
  98308273.84706     -2977.602          39.250  
  20382829.560   107112492.89209     -1156.508          49.750    20382828.960  
  83464279.16808      -901.180          46.750  
  20734310.160   108959544.05209     -1073.934          49.500    20734311.560  
  84903551.33109      -836.836          54.750  
  24277239.440   127577754.32606      1614.711          39.000    24277240.380  
  99411241.90303      1258.227          27.750  
  23372139.440   122821429.58508      1233.660          46.250    23372137.960  
  95705011.04306       961.289          39.250  
  22601674.360   118772626.16608      2788.086          48.250    22601676.180  
  92550113.25309      2172.535          52.250  
  20604303.500   108276357.06209      1099.934          51.750    20604304.660  
  84371198.01209       857.086          54.000  
  21644371.840   115864005.61508     -2930.289          44.750    21644375.560  
  90116459.70207     -2279.117          44.500  
  19423574.600   104012363.71708      -122.180          48.500    19423577.360  
  80898520.79008       -95.031          46.500  
  20695632.140   110630024.84208      2583.152          45.000    20695638.720  
  86045611.90506      2009.109          40.250  
  22850231.280   122276201.91907      2456.973          41.750    22850235.840  
  95103729.74907      1910.977          42.250  
  20607084.940   109847373.73608      2670.539          46.000                  
                                                
  21448350.700   114693979.95908     -1132.852          45.500    21448354.920  
  89206452.24207      -881.113          43.000  
  22166987.660   118578433.29707     -3658.559          44.500    22166995.100  
  92227701.44005     -2845.559          38.250  
 20 10 03 08 23 40.0000000  0 16G15G20G18G23G24G11G21G32G10R 7R 8R 1
                                R17R10R24R23
  23520399.460   123600524.87407     -3373.664          44.250    23520399.280  
  96312101.06306     -2628.828          39.250  
  20332642.840   106848757.66009     -1517.578          49.750    20332641.500  
  83258766.28708     -1182.531          45.500  
  24011514.760   126181361.04007     -3821.813          43.500    24011516.280  
  98323162.29005     -2978.039          38.500  
  20383931.200   107118282.11809     -1158.996          49.750    20383930.620  
  83468790.25308      -903.117          46.750  
  20735333.520   108964921.76809     -1077.023          49.500    20735334.920  
  84907741.75809      -839.242          54.750  
  24275704.040   127569685.31106      1612.531          39.250    24275704.880  
  99404954.28303      1256.512          28.500  
  23370966.880   122815267.71708      1230.961          46.250    23370965.400  
  95700209.59105       959.191          38.000  
  22599021.880   118758687.27408      2787.262          48.250    22599023.700  
  92539251.77709      2171.891          52.500  
  20603257.920   108270862.56509      1097.762          52.000    20603259.080  
  84366916.59009       855.395          53.750  
  21647109.260   115878659.24708     -2931.566          45.250    21647112.980  
  90127856.97707     -2280.105          44.500  
  19423689.780   104012980.54408      -124.488          48.250    19423692.540  
  80899000.55508       -96.824          46.250  
  20693216.560   110617112.28908      2581.770          45.000    20693223.140  
  86035568.81906      2008.043          40.000  
  22847937.060   122263925.14906      2453.184          40.750    22847941.620  
  95094181.15907      1908.031          41.750  
  20604581.740   109834030.18608      2666.965          45.750                  
                                                
  21449411.900   114699654.60508     -1137.125          46.000    21449416.100  
  89210865.86407      -884.430          43.250  
  22170408.180   118596730.70808     -3660.582          45.250    22170415.600  
  92241932.75805     -2847.125          38.000  
 20 10 03 08 23 45.0000000  0 16G15G20G18G23G24G11G21G32G10R 7R 8R 1
                                R17R10R24R23
  23523609.580   123617394.16307     -3374.371          44.000    23523609.400  
  96325245.95406     -2629.383          41.000  
  20334088.200   106856352.95209     -1520.813          49.750    20334086.860  
  83264684.68608     -1185.051          45.500  
  24015151.060   126200469.93307     -3822.277          44.000    24015152.520  
  98338052.35105     -2978.398          36.500  
  20385035.320   107124084.25009     -1162.113          49.750    20385034.720  
  83473311.39108      -905.547          46.750  
  20736359.920   108970315.53409     -1080.777          49.500    20736361.320  
  84911944.68809      -842.168          54.750  
  24274171.440   127561631.37806      1608.727          39.250    24274172.160  
  99398678.48103      1253.547          31.250  
  23369796.620   122809118.02208      1228.344          46.250    23369795.140  
  95695417.62906       957.152          39.500  
  22596370.360   118744753.39508      2785.973          48.250    22596372.160  
  92528394.20609      2170.883          52.500  
  20602214.640   108265380.03109      1094.918          52.000    20602215.800  
  84362644.48409       853.180          53.750  
  21649847.840   115893319.14708     -2932.754          45.250    21649851.580  
  90139259.11107     -2281.035          44.500  
  19423807.120   104013608.89908      -127.164          48.000    19423809.880  
  80899489.28008       -98.906          46.250  
  20690802.300   110604206.68908      2580.008          44.750    20690808.880  
  86025531.14006      2006.672          40.000  
  22845646.220   122251666.42007      2449.844          41.750    22845650.780  
  95084646.59807      1905.434          42.000  
  20602081.940   109820704.74108      2662.988          45.250                  
                                                
  21450477.140   114705350.92008     -1141.719          45.750    21450481.360  
  89215296.32007      -888.008          43.000  
  22173830.820   118615039.50008     -3663.379          44.750    22173838.240  
  92256172.94205     -2849.293          38.000  
 20 10 03 08 23 50.0000000  0 16G15G20G18G23G24G11G21G32G10R 7R 8R 1
                                R17R10R24R23
  23526820.620   123634268.28707     -3375.660          44.250    23526820.460  
  96338394.60506     -2630.387          41.000  
  20335536.540   106863964.10109     -1524.129          49.750    20335535.200  
  83270615.45208     -1187.633          45.750  
  24018788.240   126219583.37207     -3823.234          43.750    24018789.700  
  98352945.91006     -2979.148          38.750  
  20386142.360   107129901.75209     -1165.430          49.750    20386141.760  
  83477844.51008      -908.129          47.000  
  20737389.860   108975727.89809     -1084.699          49.500    20737391.260  
  84916162.11609      -845.223          54.500  
  24272642.100   127553594.98906      1605.066          39.500    24272642.720  
  99392416.46803      1250.707          31.000  
  23368629.180   122802983.05708      1225.141          46.250    23368627.700  
  95690637.13306       954.652          39.250  
  22593720.240   118730827.01208      2784.234          48.000    22593722.060  
  92517542.49209      2169.535          52.250  
  20601174.100   108259911.95909      1091.840          51.750    20601175.260  
  84358383.64909       850.781          53.750  
  21652588.100   115907987.94708     -2934.809          45.750    21652591.840  
  90150668.17508     -2282.633          44.750  
  19423927.100   104014251.40808      -130.281          48.500    19423929.860  
  80899989.00508      -101.332          46.000  
  20688389.800   110591310.41908      2577.930          44.750    20688396.360  
  86015500.70606      2005.051          40.000  
  22843359.260   122239428.37607      2445.094          42.250    22843363.820  
  95075128.12407      1901.738          41.750  
  20599586.020   109807399.99808      2658.734          45.750                  
                                                
  21451546.900   114711071.42108     -1146.898          46.500    21451551.120  
  89219745.61107      -892.031          43.000  
  22177256.040   118633362.16007     -3666.055          43.500    22177263.440  
  92270423.91705     -2851.375          37.250  
 20 10 03 08 23 55.0000000  0 16G15G20G18G23G24G11G21G32G10R 7R 8R 1
                                R17R10R24R23
  23530032.220   123651145.31408     -3375.125          44.750    23530032.060  
  96351545.52706     -2629.973          39.250  
  20336987.560   106871589.19609     -1525.957          49.750    20336986.220  
  83276557.08308     -1189.063          45.500  
  24022425.920   126238699.42607     -3822.902          43.500    24022427.360  
  98367841.54406     -2978.891          39.250  
  20387251.940   107135732.70609     -1167.109          49.750    20387251.360  
  83482388.11208      -909.441          46.750  
  20738422.940   108981156.80409     -1087.176          49.500    20738424.340  
  84920392.43809      -847.148          54.500  
  24271115.860   127545574.22305      1602.676          36.500    24271116.380  
  99386166.47201      1248.848          22.000  
  23367464.180   122796860.95408      1223.402          46.250    23367462.680  
  95685866.66906       953.297          39.750  
  22591071.200   118716906.20808      2783.996          47.750    22591073.000  
  92506695.12409      2169.348          52.250  
  20600135.940   108254456.41509      1090.414          51.750    20600137.100  
  84354132.57809       849.672          53.750  
  21655329.620   115922663.43708     -2935.211          45.500    21655333.360  
  90162082.43807     -2282.945          44.500  
  19424049.380   104014906.22808      -131.766          48.250    19424052.140  
  80900498.31308      -102.512          45.750  
  20685978.700   110578421.76108      2577.414          44.750    20685985.260  
  86005476.19606      2004.652          40.500  
  22841075.740   122227208.88206      2442.594          40.250    22841080.300  
  95065624.08306      1899.797          39.750  
  20597093.600   109794113.98308      2655.598          45.500                  
                                                
  21452620.800   114716814.07608     -1150.449          46.000    21452625.020  
  89224212.11907      -894.793          42.500  
  22180683.520   118651696.76307     -3668.102          43.250    22180690.920  
  92284684.14005     -2852.973          37.000  
 20 10 03 08 24  0.0000000  0 16G15G20G18G23G24G11G21G32G10R 7R 8R 1
                                R17R10R24R23
  23533244.100   123668023.90208     -3375.891          45.500    23533243.940  
  96364697.66806     -2630.566          40.000  
  20338440.960   106879226.87009     -1528.938          49.750    20338439.620  
  83282508.51708     -1191.383          45.500  
  24026063.820   126257816.66107     -3823.648          43.750    24026065.220  
  98382738.08505     -2979.469          38.250  
  20388363.840   107141575.74009     -1169.965          49.750    20388363.240  
  83486941.12408      -911.664          47.250  
  20739458.900   108986600.84709     -1090.402          49.750    20739460.300  
  84924634.55009      -849.668          54.500  
  24269592.260   127537567.69005      1600.168          37.750    24269592.720  
  99379927.60901      1246.891          14.000  
  23366301.360   122790750.27008      1220.996          46.500    23366299.860  
  95681105.09506       951.426          40.000  
  22588422.960   118702989.58908      2782.852          47.750    22588424.760  
  92495851.00409      2168.457          52.500  
  20599099.900   108249012.06409      1087.754          51.750    20599101.060  
  84349890.23009       847.602          54.000  
  21658072.160   115937344.44208     -2936.781          45.500    21658075.900  
  90173500.98807     -2284.168          44.500  
  19424173.660   104015571.78508      -134.391          48.000    19424176.420  
  80901015.97308      -104.527          46.000  
  20683568.760   110565539.16207      2575.965          44.500    20683575.320  
  85995456.39106      2003.523          39.750  
  22838795.480   122215006.73207      2438.414          42.500    22838800.060  
  95056133.50307      1896.539          41.750  
  20594604.420   109780845.22408      2651.922          45.500                  
                                                
  21453698.580   114722577.44208     -1154.750          46.250    21453702.800  
  89228694.72607      -898.145          42.500  
  22184112.940   118670041.80707     -3670.039          43.750    22184120.340  
  92298952.49805     -2854.480          37.500  
 20 10 03 08 24  5.0000000  0 16G15G20G18G23G24G11G21G32G10R 7R 8R 1
                                R17R10R24R23
  23536456.600   123684905.71608     -3377.008          45.500    23536456.460  
  96377852.32205     -2631.438          38.500  
  20339897.080   106886878.81909     -1532.063          49.500    20339895.720  
  83288471.07908     -1193.816          46.000  
  24029702.300   126276936.83707     -3824.547          43.500    24029703.660  
  98397636.91705     -2980.172          37.250  
  20389478.360   107147432.56709     -1173.020          49.750    20389477.760  
  83491504.88508      -914.047          47.000  
  20740498.100   108992061.88009     -1094.172          49.750    20740499.500  
  84928889.90209      -852.602          54.500  
  24268071.740   127529577.24805      1595.875          36.750    24268072.140  
  99373701.27603      1243.531          31.000  
  23365141.040   122784652.77908      1217.898          46.250    23365139.540  
  95676353.80706       949.012          39.500  
  22585775.840   118689078.93208      2781.254          48.250    22585777.640  
  92485011.53709      2167.211          52.000  
  20598066.340   108243580.63609      1084.852          51.750    20598067.500  
  84345657.95209       845.336          53.750  
  21660816.040   115952032.63008     -2938.434          45.000    21660819.800  
  90184925.11608     -2285.453          44.750  
  19424300.280   104016249.80208      -137.137          48.250    19424303.040  
  80901543.31808      -106.664          46.250  
  20681160.260   110552664.48307      2574.082          44.500    20681166.820  
  85985442.76806      2002.063          39.750  
  22836518.760   122202823.55907      2434.633          43.000    22836523.340  
  95046657.71007      1893.598          42.000  
  20592118.840   109767595.68608      2647.844          45.500                  
                                                
  21454780.600   114728363.42808     -1159.496          46.000    21454784.820  
  89233194.93107      -901.836          43.000  
  22187544.620   118688398.98707     -3672.898          43.500    22187552.000  
  92313230.30605     -2856.703          38.000  
 20 10 03 08 24 10.0000000  0 16G15G20G18G23G24G11G21G32G10R 7R 8R 1
                                R17R10R24R23
  23539669.800   123701791.20408     -3377.160          45.500    23539669.660  
  96391009.83905     -2631.559          37.000  
  20341356.000   106894545.48009     -1534.313          49.500    20341354.660  
  83294445.09008     -1195.570          46.000  
  24033341.380   126296060.31607     -3824.512          43.500    24033342.720  
  98412538.31305     -2980.145          37.750  
  20390595.580   107153303.61309     -1175.180          49.750    20390594.980  
  83496079.71608      -915.727          46.750  
  20741540.600   108997540.24409     -1097.000          49.500    20741542.000  
  84933158.76409      -854.805          54.500  
  24266554.240   127521603.13405      1593.691          36.750    24266554.600  
  99367487.77104      1241.840          35.250  
  23363983.300   122778568.85108      1215.855          46.500    23363981.820  
  95671613.07806       947.418          40.250  
  22583129.940   118675174.60508      2780.676          48.000    22583131.740  
  92474177.00009      2166.762          52.500  
  20597035.300   108238162.52109      1082.625          51.750    20597036.460  
  84341436.04709       843.602          54.000  
  21663561.340   115966728.39608     -2939.504          45.000    21663565.100  
  90196355.14808     -2286.285          44.750  
  19424429.360   104016940.90808      -138.945          48.250    19424432.100  
  80902080.84208      -108.070          46.250  
  20678753.360   110539798.20208      2572.703          44.750    20678759.920  
  85975435.65406      2000.988          40.000  
  22834245.700   122190659.87807      2431.133          42.000    22834250.260  
  95037197.07807      1890.883          42.250  
  20589636.920   109754365.71008      2644.348          45.500                  
                                                
  21455866.900   114734172.27608     -1163.699          46.500    21455871.120  
  89237712.92007      -905.102          42.750  
  22190978.660   118706768.72308     -3674.867          44.750    22190986.040  
  92327517.86705     -2858.234          37.500  
 20 10 03 08 24 15.0000000  0 16G15G20G18G23G24G11G21G32G10R 7R 8R 1
                                R17R10R24R23
  23542883.420   123718678.92608     -3377.816          45.500    23542883.280  
  96404169.10805     -2632.070          37.250  
  20342817.440   106902225.45409     -1537.371          49.500    20342816.100  
  83300429.49208     -1197.953          46.000  
  24036980.840   126315185.65807     -3825.340          44.000    24036982.140  
  98427441.17405     -2980.789          38.500  
  20391715.240   107159187.43209     -1177.984          49.750    20391714.640  
  83500664.50808      -917.914          46.750  
  20742586.120   109003034.54609     -1100.438          49.500    20742587.540  
  84937440.03409      -857.484          54.500  
  24265039.680   127513644.05206      1590.441          38.750    24265040.040  
  99361285.86604      1239.305          35.250  
  23362827.880   122772497.09108      1213.027          46.500    23362826.380  
  95666881.85106       945.215          39.250  
  22580484.960   118661275.20908      2779.305          48.250    22580486.760  
  92463346.30909      2165.691          52.500  
  20596006.540   108232756.32909      1080.039          51.750    20596007.700  
  84337223.42009       841.586          54.000  
  21666307.800   115981430.38807     -2940.836          44.500    21666311.560  
  90207790.02408     -2287.320          44.750  
  19424560.540   104017643.48308      -141.727          48.250    19424563.300  
  80902627.28908      -110.301          46.250  
  20676347.720   110526938.69608      2571.188          45.000    20676354.280  
  85965433.81706      1999.809          40.000  
  22831976.000   122178514.30107      2427.277          42.250    22831980.580  
  95027750.51107      1887.879          42.250  
  20587158.380   109741153.79508      2640.660          45.500                  
                                                
  21456957.200   114740002.57608     -1168.422          46.500    21456961.420  
  89242247.58607      -908.777          43.250  
  22194414.800   118725149.68107     -3677.359          43.750    22194422.160  
  92341814.15405     -2860.172          38.000  
 20 10 03 08 24 20.0000000  0 16G15G20G18G23G24G11G21G32G10R 7R 8R 1
                                R17R10R24R23
  23546097.680   123735569.93108     -3378.492          45.750    23546097.520  
  96417330.93106     -2632.594          38.750  
  20344281.620   106909919.70409     -1540.176          49.500    20344280.280  
  83306425.00508     -1200.141          46.000  
  24040620.860   126334313.94207     -3825.746          44.250    24040622.120  
  98442346.31305     -2981.105          36.500  
  20392837.520   107165085.06409     -1180.918          50.000    20392836.920  
  83505260.06308      -920.199          46.500  
  20743634.860   109008545.72509     -1103.895          49.750    20743636.280  
  84941734.46609      -860.176          54.500  
  24263528.160   127505701.04206      1586.953          40.250    24263528.520  
  99355096.51604      1236.590          32.000  
  23361674.980   122766438.55808      1210.637          46.250    23361673.480  
  95662160.90806       943.348          39.250  
  22577841.140   118647381.77608      2778.160          48.000    22577842.920  
  92452520.25909      2164.797          52.250  
  20594980.240   108227363.08109      1077.371          51.750    20594981.400  
  84333020.88909       839.508          54.000  
  21669055.580   115996139.44007     -2942.582          44.500    21669059.320  
  90219230.39808     -2288.680          45.000  
  19424694.100   104018358.60208      -144.109          48.250    19424696.840  
  80903183.49508      -112.086          46.500  
  20673943.600   110514087.21408      2569.398          45.250    20673950.160  
  85955438.21506      1998.418          40.250  
  22829709.860   122166387.79707      2423.594          42.250    22829714.440  
  95018318.80107      1885.016          42.750  
  20584683.480   109727961.21008      2636.656          45.500                  
                                                
  21458051.700   114745855.37308     -1172.840          46.500    21458055.920  
  89246799.76307      -912.211          43.750  
  22197853.180   118743542.62007     -3679.738          44.500    22197860.540  
  92356119.75505     -2862.023          37.250  
 20 10 03 08 24 25.0000000  0 16G15G20G18G23G24G11G21G32G10R 7R 8R 1
                                R17R10R24R23
  23549312.260   123752462.65808     -3378.266          45.750    23549312.120  
  96430494.08405     -2632.418          37.000  
  20345748.220   106917626.71009     -1542.324          49.750    20345746.880  
  83312430.45808     -1201.816          45.500  
  24044261.120   126353443.55607     -3825.875          44.000    24044262.340  
  98457252.50105     -2981.207          38.250  
  20393962.140   107170994.99509     -1182.988          49.750    20393961.560  
  83509865.20008      -921.813          47.250  
  20744686.540   109014072.29409     -1106.566          49.750    20744687.940  
  84946040.88309      -862.262          54.750  
  24262019.420   127497772.56005      1584.547          37.250    24262019.780  
  99348918.47003      1234.711          29.750  
  23360524.280   122760391.69908      1208.602          46.250    23360522.800  
  95657449.07606       941.766          40.750  
  22575198.140   118633492.78008      2777.609          48.000    22575199.940  
  92441697.66909      2164.367          52.000  
  20593956.120   108221981.25509      1075.504          51.750    20593957.280  
  84328827.26009       838.055          54.000  
  21671804.420   116010854.13408     -2943.078          44.750    21671808.180  
  90230675.14507     -2289.066          44.500  
  19424829.680   104019084.65408      -146.063          48.500    19424832.420  
  80903748.20608      -113.605          46.500  
  20671540.620   110501241.98108      2568.844          45.250    20671547.180  
  85945447.49306      1997.988          40.250  
  22827447.040   122154278.89707      2420.262          42.500    22827451.600  
  95008900.76907      1882.426          42.750  
  20582211.860   109714786.19608      2633.609          45.750                  
                                                
  21459150.140   114751729.19608     -1176.496          46.500    21459154.360  
  89251368.28207      -915.055          43.500  
  22201293.520   118761946.22407     -3681.359          44.500    22201300.880  
  92370433.66905     -2863.285          37.250  
 20 10 03 08 24 30.0000000  0 16G15G20G18G23G24G11G21G32G10R 7R 8R 1
                                R17R10R24R23
  23552526.900   123769355.84408     -3378.797          45.500    23552526.760  
  96443657.62105     -2632.832          37.250  
  20347217.000   106925345.22709     -1544.938          49.500    20347215.660  
  83318444.88108     -1203.852          46.000  
  24047901.420   126372573.28307     -3826.129          44.250    24047902.600  
  98472158.76305     -2981.406          36.250  
  20395088.860   107176915.93809     -1185.281          49.750    20395088.280  
  83514478.92208      -923.602          47.000  
  20745740.900   109019613.03809     -1109.594          49.500    20745742.320  
  84950358.34509      -864.621          54.500  
  24260513.180   127489857.32506      1581.773          38.750    24260513.500  
  99342750.77905      1232.555          36.000  
  23359375.600   122754355.29708      1205.973          46.500    23359374.100  
  95652745.39706       939.719          39.750  
  22572555.760   118619606.98708      2776.723          48.000    22572557.540  
  92430877.57009      2163.680          52.250  
  20592933.920   108216609.60809      1073.434          51.750    20592935.080  
  84324641.56509       836.441          54.000  
  21674554.080   116025573.28408     -2944.145          45.000    21674557.840  
  90242123.36507     -2289.895          44.500  
  19424967.100   104019820.51308      -148.234          48.250    19424969.840  
  80904320.54308      -115.289          46.250  
  20669138.620   110488401.97608      2567.398          44.750    20669145.180  
  85935460.83306      1996.867          40.500  
  22825187.240   122142186.34407      2416.895          42.500    22825191.820  
  94999495.46307      1879.809          42.000  
  20579743.320   109701627.63308      2630.055          45.750                  
                                                
  21460252.240   114757622.63608     -1180.664          46.500    21460256.460  
  89255952.07507      -918.297          43.000  
  22204735.640   118780359.18608     -3683.543          44.750    22204742.980  
  92384754.85705     -2864.980          37.500  
 20 10 03 08 24 35.0000000  0 16G15G20G18G23G24G11G21G32G10R 7R 8R 1
                                R17R10R24R23
  23555742.440   123786253.53708     -3380.250          45.000    23555742.280  
  96456824.65005     -2633.965          38.250  
  20348688.740   106933079.27609     -1548.484          49.500    20348687.400  
  83324471.41808     -1206.613          46.000  
  24051542.480   126391707.12707     -3827.395          43.250    24051543.640  
  98487068.25205     -2982.391          37.000  
  20396218.460   107182851.97909     -1188.898          49.750    20396217.860  
  83519104.41208      -926.418          47.250  
  20746798.740   109025172.02709     -1113.852          49.500    20746800.160  
  84954690.02509      -867.941          54.750  
  24259010.240   127481959.47006      1577.711          39.000    24259010.540  
  99336596.62804      1229.391          33.750  
  23358229.660   122748333.36608      1202.734          46.500    23358228.180  
  95648052.97406       937.195          40.000  
  22569914.760   118605728.43908      2774.699          47.500    22569916.540  
  92420063.12509      2162.102          52.750  
  20591914.440   108211252.21209      1069.938          51.750    20591915.600  
  84320466.97109       833.715          54.000  
  21677305.320   116040300.86108     -2946.492          45.000    21677309.080  
  90253578.14207     -2291.719          44.500  
  19425107.140   104020570.42308      -151.578          48.000    19425109.880  
  80904903.79908      -117.898          46.250  
  20666738.360   110475571.24008      2564.996          44.750    20666744.920  
  85925481.37406      1994.996          40.250  
  22822931.280   122130114.22807      2411.965          42.000    22822935.860  
  94990106.02507      1875.969          42.250  
  20577278.640   109688489.61108      2625.406          46.000                  
                                                
  21461358.780   114763539.84808     -1185.953          46.250    21461363.020  
  89260554.34907      -922.406          43.250  
  22208180.260   118798785.54007     -3686.789          44.500    22208187.580  
  92399086.45405     -2867.508          37.500  
 20 10 03 08 24 40.0000000  0 16G15G20G18G23G24G11G21G32G10R 7R 8R 1
                                R17R10R24R23
  23558958.680   123803155.01308     -3380.699          45.000    23558958.540  
  96469994.61505     -2634.316          38.250  
  20350163.300   106940828.18509     -1551.492          49.500    20350161.980  
  83330509.52808     -1208.953          46.000  
  24055184.200   126410844.37207     -3827.953          43.250    24055185.320  
  98501980.37506     -2982.824          39.250  
  20397350.780   107188802.36609     -1191.660          49.500    20397350.180  
  83523741.07108      -928.570          47.750  
  20747859.880   109030748.35309     -1117.047          49.750    20747861.300  
  84959035.21409      -870.430          54.750  
  24257510.500   127474078.25906      1574.254          40.000    24257510.800  
  99330455.40703      1226.688          31.250  
  23357086.340   122742325.21808      1200.145          46.750    23357084.860  
  95643371.30706       935.172          39.500  
  22567275.000   118591856.40108      2773.676          47.750    22567276.780  
  92409253.75509      2161.305          52.500  
  20590897.540   108205908.35809      1067.344          51.750    20590898.700  
  84316302.92909       831.695          54.000  
  21680057.980   116055036.12908     -2947.984          45.000    21680061.760  
  90265038.90507     -2292.879          44.500  
  19425249.600   104021333.24208      -154.059          48.250    19425252.340  
  80905497.09808      -119.828          46.500  
  20664339.680   110462748.89408      2563.555          44.750    20664346.220  
  85915508.44206      1993.875          40.500  
  22820679.000   122118061.80407      2408.547          43.000    22820683.580  
  94980731.92607      1873.230          42.250  
  20574817.680   109675371.36808      2621.547          46.000                  
                                                
  21462469.640   114769480.11608     -1190.527          46.250    21462473.880  
  89265174.56107      -925.969          43.000  
  22211627.220   118817224.37407     -3689.074          44.500    22211634.520  
  92413427.75705     -2869.285          37.500  
 20 10 03 08 24 45.0000000  0 16G15G20G18G23G24G11G21G32G10R 7R 8R 1
                                R17R10R24R23
  23562175.520   123820059.62408     -3381.117          45.500    23562175.380  
  96483167.03706     -2634.637          38.750  
  20351640.580   106948591.31009     -1553.906          49.500    20351639.240  
  83336558.72208     -1210.836          46.000  
  24058826.460   126429984.39307     -3828.164          42.750    24058827.540  
  98516894.65706     -2982.988          38.750  
  20398485.720   107194766.49409     -1194.164          49.500    20398485.120  
  83528388.44608      -930.520          47.000  
  20748924.220   109036341.51309     -1120.195          49.750    20748925.640  
  84963393.51709      -872.883          54.750  
  24256013.760   127466213.01906      1571.918          40.000    24256014.040  
  99324326.69503      1224.867          29.000  
  23355945.520   122736330.20808      1197.961          47.250    23355944.040  
  95638699.86806       933.473          39.000  
  22564636.380   118577990.29908      2772.840          47.750    22564638.160  
  92398448.98209      2160.652          52.750  
  20589883.100   108200577.38509      1064.996          51.750    20589884.260  
  84312148.92409       829.867          54.000  
  21682811.980   116069778.43507     -2949.109          44.500    21682815.740  
  90276505.13807     -2293.754          44.250  
  19425394.400   104022108.63408      -156.117          48.000    19425397.140  
  80906100.18308      -121.426          46.250  
  20661942.480   110449934.52108      2562.063          45.000    20661949.040  
  85905541.69906      1992.711          40.250  
  22818430.280   122106028.56907      2404.762          42.250    22818434.860  
  94971372.75107      1870.371          42.250  
  20572360.320   109662272.29908      2618.105          45.500                  
                                                
  21463584.700   114775442.73608     -1194.840          45.250    21463588.920  
  89269812.14007      -929.324          43.000  
  22215076.400   118835675.18807     -3691.375          44.000    22215083.680  
  92427778.39805     -2871.070          37.750  
 20 10 03 08 24 50.0000000  0 16G15G20G18G23G24G11G21G32G10R 7R 8R 1
                                R17R10R24R23
  23565392.680   123836965.90408     -3381.574          45.500    23565392.520  
  96496340.76505     -2634.992          38.500  
  20353120.260   106956367.10509     -1556.328          49.750    20353118.920  
  83342617.78008     -1212.723          45.750  
  24062468.940   126449125.60507     -3828.063          43.000    24062470.000  
  98531809.87005     -2982.910          36.750  
  20399622.960   107200742.81809     -1196.297          49.500    20399622.380  
  83533045.31808      -932.184          46.750  
  20749991.500   109041950.05209     -1123.063          49.750    20749992.900  
  84967763.81109      -875.113          54.500  
  24254519.820   127458362.27106      1568.668          41.000    24254520.080  
  99318209.22404      1222.336          32.000  
  23354806.920   122730346.83508      1195.547          47.000    23354805.440  
  95634037.50206       931.590          39.250  
  22561998.540   118564128.53208      2772.102          47.750    22562000.320  
  92387647.63809      2160.078          52.250  
  20588870.820   108195257.80709      1063.000          52.000    20588871.980  
  84308003.80509       828.313          53.750  
  21685567.000   116084526.32907     -2949.918          44.250    21685570.780  
  90287975.72307     -2294.383          44.250  
  19425541.220   104022894.89708      -158.391          48.000    19425543.960  
  80906711.72008      -123.195          46.500  
  20659546.480   110437126.47908      2560.934          45.250    20659553.040  
  85895579.88906      1991.836          40.000  
  22816184.860   122094012.84407      2401.535          42.750    22816189.460  
  94962027.17907      1867.855          42.500  
  20569906.300   109649191.00708      2614.754          45.750                  
                                                
  21464703.620   114781426.21108     -1198.453          45.750    21464707.860  
  89274465.96407      -932.129          43.000  
  22218527.540   118854136.39307     -3693.359          44.250    22218534.820  
  92442137.09405     -2872.617          38.000  
 20 10 03 08 24 55.0000000  0 16G15G20G18G23G24G11G21G32G10R 7R 8R 1
                                R17R10R24R23
  23568610.060   123853873.35708     -3381.922          45.750    23568609.900  
  96509515.41706     -2635.266          39.500  
  20354602.280   106964155.15609     -1559.117          49.750    20354600.940  
  83348686.39208     -1214.902          45.500  
  24066111.540   126468267.59407     -3828.578          43.250    24066112.580  
  98546725.70405     -2983.313          37.250  
  20400762.460   107206730.91809     -1199.191          49.750    20400761.880  
  83537711.37108      -934.438          46.750  
  20751061.580   109047573.40209     -1126.359          49.750    20751063.000  
  84972145.63609      -877.688          54.750  
  24253028.540   127450525.65007      1565.641          41.750    24253028.780  
  99312102.79603      1219.984          31.000  
  23353670.440   122724374.63408      1193.113          46.250    23353668.960  
  95629383.85706       929.699          39.750  
  22559361.500   118550270.75908      2770.887          48.000    22559363.280  
  92376849.37109      2159.133          52.250  
  20587860.620   108189949.20509      1060.328          51.750    20587861.780  
  84303867.23109       826.230          54.000  
  21688323.000   116099279.29707     -2951.438          44.250    21688326.780  
  90299450.24307     -2295.566          44.250  
  19425690.040   104023691.81808      -160.766          48.250    19425692.780  
  80907331.55008      -125.043          46.250  
  20657151.540   110424324.23808      2559.648          45.500    20657158.100  
  85885622.60506      1990.836          40.000  
  22813942.640   122082014.23407      2397.828          43.000    22813947.220  
  94952694.93707      1864.977          41.750  
  20567455.500   109636126.96808      2610.723          45.750                  
                                                
  21465826.380   114787430.11308     -1203.184          46.000    21465830.620  
  89279135.66407      -935.813          42.500  
  22221980.500   118872607.48407     -3695.602          44.000    22221987.760  
  92456503.51305     -2874.355          38.000  
 20 10 03 08 25  0.0000000  0 16G15G20G18G23G24G11G21G32G10R 7R 8R 1
                                R17R10R24R23
  23571828.300   123870785.25508     -3382.867          46.000    23571828.140  
  96522693.49805     -2636.004          38.000  
  20356087.260   106971958.79509     -1562.188          49.750    20356085.920  
  83354767.14708     -1217.293          45.750  
  24069754.940   126487413.62307     -3829.551          43.000    24069755.960  
  98561644.66005     -2984.070          37.250  
  20401904.820   107212734.00709     -1202.023          49.750    20401904.240  
  83542389.09808      -936.645          46.750  
  20752135.120   109053214.81709     -1130.094          49.750    20752136.540  
  84976541.54409      -880.598          54.500  
  24251540.600   127442706.29606      1562.449          40.250    24251540.820  
  99306009.76303      1217.492          29.000  
  23352536.720   122718416.90308      1190.152          47.000    23352535.240  
  95624741.46806       927.391          39.500  
  22556725.820   118536420.18808      2769.422          48.000    22556727.600  
  92366056.72109      2157.992          52.250  
  20586853.120   108184654.80109      1057.578          52.000    20586854.300  
  84299741.72009       824.086          53.750  
  21691080.540   116114040.66207     -2953.164          44.000    21691084.320  
  90310931.30107     -2296.910          44.500  
  19425841.380   104024502.25308      -163.438          48.250    19425844.120  
  80907961.89308      -127.117          46.250  
  20654758.360   110411531.24208      2557.707          45.250    20654764.900  
  85875672.49306      1989.324          40.000  
  22811704.240   122070036.16307      2393.480          41.750    22811708.800  
  94943378.67007      1861.598          42.500  
  20565008.540   109623083.40908      2606.672          45.750                  
                                                
  21466953.560   114793457.59008     -1207.813          45.250    21466957.780  
  89283823.70507      -939.414          42.500  
  22225435.980   118891091.86507     -3697.895          43.250    22225443.240  
  92470880.22205     -2876.145          38.000  
 20 10 03 08 25  5.0000000  0 16G15G20G18G23G24G11G21G32G10R 7R 8R 1
                                R17R10R24R23
  23575046.980   123887699.51108     -3383.270          45.750    23575046.800  
  96535873.43805     -2636.316          37.750  
  20357574.800   106979775.83309     -1564.887          49.750    20357573.460  
  83360858.34808     -1219.395          45.500  
  24073398.680   126506561.56607     -3829.965          42.750    24073399.660  
  98576565.13805     -2984.391          36.000  
  20403049.640   107218750.07709     -1204.695          49.750    20403049.040  
  83547076.94808      -938.723          46.500  
  20753211.680   109058872.24109     -1133.324          49.750    20753213.100  
  84980949.92409      -883.113          54.250  
  24250055.520   127434902.23206      1559.039          39.750    24250055.720  
  99299928.70303      1214.836          29.250  
  23351405.360   122712471.58508      1187.492          46.750    23351403.880  
  95620108.74606       925.316          40.000  
  22554091.120   118522574.76708      2768.309          48.000    22554092.900  
  92355268.07909      2157.121          52.250  
  20585847.960   108179372.58409      1054.992          51.750    20585849.120  
  84295625.70809       822.066          53.750  
  21693839.260   116128808.30907     -2954.340          44.000    21693843.060  
  90322417.23607     -2297.824          44.250  
  19425994.960   104025324.68908      -165.754          48.500    19425997.700  
  80908601.55808      -128.922          46.250  
  20652366.500   110398745.44308      2556.289          45.250    20652373.060  
  85865727.98106      1988.227          40.250  
  22809469.260   122058076.38907      2389.758          41.500    22809473.820  
  94934076.64307      1858.699          42.000  
  20562565.060   109610058.35508      2602.879          45.750                  
                                                
  21468084.760   114799506.66208     -1212.164          46.000    21468089.000  
  89288528.53907      -942.797          42.250  
  22228893.520   118909587.33707     -3700.129          43.750    22228900.800  
  92485265.57305     -2877.883          38.000  
 20 10 03 08 25 10.0000000  0 16G15G20G18G23G24G11G21G32G10R 7R 8R 1
                                R17R10R24R23
  23578266.420   123904617.81908     -3383.723          45.500    23578266.240  
  96549056.54206     -2636.672          38.750  
  20359065.200   106987607.94409     -1567.688          49.750    20359063.880  
  83366961.28108     -1221.578          45.250  
  24077043.100   126525713.09907     -3830.176          43.000    24077044.080  
  98591488.39805     -2984.551          36.250  
  20404197.240   107224780.76609     -1207.273          49.750    20404196.660  
  83551776.18408      -940.738          46.500  
  20754291.640   109064547.43009     -1136.523          49.500    20754293.060  
  84985372.14909      -885.602          54.500  
  24248573.660   127427115.09006      1555.941          40.500    24248573.860  
  99293860.81504      1212.426          34.750  
  23350276.680   122706540.34208      1185.070          47.250    23350275.200  
  95615487.00006       923.426          39.750  
  22551457.720   118508736.16508      2767.379          48.250    22551459.500  
  92344484.76109      2156.398          52.000  
  20584845.420   108174104.20309      1052.590          51.750    20584846.600  
  84291520.47309       820.195          53.750  
  21696599.480   116143583.94607     -2955.574          44.000    21696603.260  
  90333909.40007     -2298.785          44.500  
  19426151.040   104026160.47408      -168.148          48.500    19426153.760  
  80909251.62408      -130.781          46.250  
  20649976.320   110385968.49508      2554.672          45.000    20649982.860  
  85855790.35606      1986.969          40.000  
  22807238.080   122046136.79807      2386.160          41.750    22807242.640  
  94924790.27707      1855.898          42.250  
  20560125.380   109597053.47708      2599.195          45.250                  
                                                
  21469220.320   114805578.95808     -1216.355          45.750    21469224.540  
  89293251.42607      -946.059          42.250  
  22232353.440   118928095.55207     -3702.645          44.250    22232360.700  
  92499660.84805     -2879.840          37.500  
 20 10 03 08 25 15.0000000  0 16G15G20G18G23G24G11G21G32G10R 7R 8R 1
                                R17R10R24R23
  23581485.820   123921535.86708     -3383.730          45.750    23581485.660  
  96562239.41806     -2636.676          39.000  
  20360557.680   106995450.85509     -1569.945          49.750    20360556.340  
  83373072.63508     -1223.340          45.250  
  24080687.420   126544864.00907     -3830.512          42.500    24080688.360  
  98606411.17505     -2984.816          36.000  
  20405346.820   107230821.80809     -1209.555          49.500    20405346.220  
  83556483.49008      -942.512          46.500  
  20755374.140   109070235.97709     -1139.262          49.500    20755375.560  
  84989804.78909      -887.742          54.500  
  24247094.280   127419340.63206      1553.352          39.750    24247094.500  
  99287802.72504      1210.391          33.000  
  23349149.860   122700618.87808      1183.180          47.000    23349148.380  
  95610872.87706       921.957          40.000  
  22548824.800   118494900.11108      2766.879          48.000    22548826.560  
  92333703.43909      2156.008          52.250  
  20583844.700   108168845.41309      1050.586          51.750    20583845.880  
  84287422.72009       818.637          53.750  
  21699360.380   116158363.25907     -2956.598          43.750    21699364.180  
  90345404.40707     -2299.578          44.500  
  19426308.780   104027005.18108      -170.188          48.500    19426311.520  
  80909908.61408      -132.367          46.250  
  20647586.980   110373196.08708      2553.770          44.750    20647593.540  
  85845856.25906      1986.262          40.500  
  22805009.820   122034213.00407      2382.801          41.500    22805014.380  
  94915516.21907      1853.285          42.000  
  20557688.660   109584064.48108      2596.043          45.250                  
                                                
  21470359.400   114811670.18108     -1220.336          46.000    21470363.620  
  89297989.05207      -949.152          42.500  
  22235814.920   118946612.13607     -3704.355          43.250    22235822.180  
  92514062.63305     -2881.168          37.500  
 20 10 03 08 25 20.0000000  0 16G15G20G18G23G24G11G21G32G10R 7R 8R 1
                                R17R10R24R23
  23584705.900   123938457.48608     -3384.656          45.750    23584705.720  
  96575425.11305     -2637.395          38.250  
  20362052.920   107003308.40309     -1573.016          49.750    20362051.580  
  83379195.39908     -1225.730          45.250  
  24084332.340   126564018.00107     -3831.328          42.250    24084333.280  
  98621336.32204     -2985.457          34.250  
  20406499.080   107236877.03009     -1212.422          49.750    20406498.500  
  83561201.84308      -944.750          46.500  
  20756459.900   109075941.75809     -1142.820          49.500    20756461.320  
  84994250.84809      -890.508          54.500  
  24245617.960   127411582.70006      1550.113          41.250    24245618.140  
  99281757.63203      1207.879          31.250  
  23348025.660   122694711.07608      1180.367          46.750    23348024.180  
  95606269.38805       919.762          38.250  
  22546193.100   118481070.48708      2765.168          48.000    22546194.880  
  92322927.11009      2154.676          52.000  
  20582846.520   108163600.00009      1047.824          51.750    20582847.700  
  84283335.38509       816.488          53.750  
  21702122.700   116173150.09407     -2958.035          44.250    21702126.500  
  90356905.27207     -2300.699          44.250  
  19426468.980   104027863.01708      -172.668          48.250    19426471.700  
  80910575.82008      -134.375          46.500  
  20645199.180   110360431.99208      2551.988          44.750    20645205.740  
  85835928.64006      1984.879          40.250  
  22802785.240   122022308.81107      2378.824          42.000    22802789.780  
  94906257.41307      1850.195          42.250  
  20555255.620   109571095.16608      2591.926          45.500                  
                                                
  21471502.740   114817784.17208     -1225.066          45.750    21471506.980  
  89302744.36807      -952.832          42.500  
  22239278.700   118965140.99207     -3707.242          44.000    22239285.940  
  92528473.95905     -2883.414          38.000  
 20 10 03 08 25 25.0000000  0 16G15G20G18G23G24G11G21G32G10R 7R 8R 1
                                R17R10R24R23
  23587926.680   123955382.79408     -3385.465          45.250    23587926.520  
  96588613.64906     -2638.027          38.750  
  20363550.960   107011180.71909     -1576.098          49.750    20363549.640  
  83385329.67108     -1228.133          45.250  
  24087977.840   126583175.25407     -3831.914          42.750    24087978.780  
  98636264.04805     -2985.910          37.000  
  20407654.080   107242946.57309     -1215.590          49.500    20407653.500  
  83565931.35408      -947.215          46.250  
  20757548.980   109081664.88809     -1146.633          49.250    20757550.400  
  84998710.43209      -893.484          54.750  
  24244144.840   127403841.34706      1546.785          39.750    24244145.000  
  99275725.40503      1205.289          28.750  
  23346904.060   122688817.07208      1177.258          46.500    23346902.580  
  95601676.65806       917.340          39.500  
  22543562.640   118467247.36308      2763.715          48.000    22543564.420  
  92312155.84509      2153.543          52.250  
  20581850.940   108158368.17309      1044.926          51.750    20581852.120  
  84279258.63509       814.223          53.750  
  21704886.440   116187944.60307     -2959.781          44.000    21704890.240  
  90368412.09807     -2302.055          44.250  
  19426631.620   104028733.89908      -175.730          48.250    19426634.340  
  80911253.17508      -136.684          46.500  
  20642812.980   110347676.41708      2550.277          44.750    20642819.540  
  85826007.63706      1983.551          40.000  
  22800564.340   122010424.43307      2374.977          42.250    22800568.900  
  94897014.01407      1847.203          41.750  
  20552826.340   109558145.83008      2587.711          45.250                  
                                                
  21472650.380   114823921.03808     -1230.035          45.500    21472654.620  
  89307517.47807      -956.699          43.000  
  22242744.820   118983682.30807     -3709.809          44.000    22242752.060  
  92542894.97605     -2885.410          37.750  
 20 10 03 08 25 30.0000000  0 16G15G20G18G23G24G11G21G32G10R 7R 8R 1
                                R17R10R24R23
  23591148.080   123972311.40208     -3386.262          45.000    23591147.920  
  96601804.77805     -2638.645          38.500  
  20365051.760   107019067.44709     -1578.789          49.750    20365050.440  
  83391475.17008     -1230.230          45.750  
  24091623.900   126602335.35507     -3832.160          42.500    24091624.820  
  98651193.99505     -2986.098          36.500  
  20408811.720   107249030.02209     -1218.031          49.500    20408811.120  
  83570671.70708      -949.117          47.000  
  20758641.300   109087405.02909     -1149.742          49.250    20758642.720  
  85003183.27109      -895.906          54.750  
  24242674.820   127396116.32106      1543.082          38.750    24242674.940  
  99269705.91904      1202.402          34.250  
  23345785.040   122682936.56408      1174.633          46.750    23345783.580  
  95597094.43606       915.293          40.000  
  22540933.360   118453430.37408      2762.766          47.750    22540935.140  
  92301389.36209      2152.805          52.500  
  20580857.860   108153149.52909      1042.496          51.750    20580859.040  
  84275192.16109       812.332          54.000  
  21707651.520   116202746.33807     -2961.074          44.000    21707655.340  
  90379924.55207     -2303.063          44.000  
  19426796.600   104029617.46408      -177.973          48.000    19426799.320  
  80911940.39608      -138.422          46.500  
  20640428.320   110334929.03208      2548.441          44.750    20640434.880  
  85816093.00706      1982.121          40.000  
  22798347.120   121998559.56906      2371.059          41.250    22798351.660  
  94887785.78907      1844.156          42.500  
  20550400.760   109545216.16108      2583.969          45.500                  
                                                
  21473802.220   114830080.46308     -1234.141          45.500    21473806.440  
  89312308.14807      -959.887          43.000  
  22246213.140   119002235.50307     -3711.801          44.250    22246220.380  
  92557325.22205     -2886.961          37.000  
 20 10 03 08 25 35.0000000  0 16G15G20G18G23G24G11G21G32G10R 7R 8R 1
                                R17R10R24R23
  23594369.820   123989241.74708     -3386.172          45.500    23594369.640  
  96614997.25605     -2638.578          38.500  
  20366555.000   107026967.01909     -1581.180          49.750    20366553.660  
  83397630.68008     -1232.090          45.500  
  24095270.220   126621496.77207     -3832.465          42.750    24095271.120  
  98666124.94905     -2986.340          36.500  
  20409971.720   107255125.90009     -1220.535          49.750    20409971.140  
  83575421.73908      -951.070          46.750  
  20759736.540   109093160.61409     -1152.637          49.250    20759737.980  
  85007668.13709      -898.164          54.750  
  24241207.600   127388406.06506      1540.211          39.250    24241207.720  
  99263697.93304      1200.164          32.750  
  23344668.280   122677067.92708      1172.633          47.000    23344666.800  
  95592521.47406       913.734          40.000  
  22538304.960   118439618.05508      2761.926          47.750    22538306.740  
  92290626.52409      2152.145          52.500  
  20579867.020   108147942.55609      1040.086          51.750    20579868.200  
  84271134.77709       810.457          54.000  
  21710417.660   116217553.71307     -2962.215          44.500    21710421.480  
  90391441.39907     -2303.949          43.750  
  19426963.680   104030512.14308      -180.102          48.000    19426966.420  
  80912636.24908      -140.082          46.500  
  20638044.900   110322188.33708      2547.281          45.000    20638051.460  
  85806183.58806      1981.219          39.750  
  22796133.220   121986712.60407      2367.777          42.250    22796137.760  
  94878571.49307      1841.605          42.250  
  20547978.540   109532304.47808      2580.277          45.250                  
                                                
  21474957.980   114836260.90908     -1238.246          46.250    21474962.220  
  89317115.16707      -963.082          43.250  
  22249683.440   119020799.25407     -3713.773          44.250    22249690.660  
  92571763.71005     -2888.492          37.750  
 20 10 03 08 25 40.0000000  0 16G15G20G18G23G24G11G21G32G10R 7R 8R 1
                                R17R10R24R23
  23597592.100   124006174.81908     -3386.723          45.000    23597591.920  
  96628191.84206     -2639.008          40.000  
  20368060.880   107034880.38009     -1583.777          49.750    20368059.540  
  83403796.93108     -1234.113          45.000  
  24098916.980   126640660.44107     -3832.762          42.750    24098917.880  
  98681057.64705     -2986.574          36.500  
  20411134.280   107261235.10509     -1223.020          49.750    20411133.680  
  83580182.15908      -953.008          46.500  
  20760834.900   109098932.54309     -1155.738          49.500    20760836.340  
  85012165.74809      -900.578          54.750  
  24239743.360   127380711.48406      1537.457          39.000    24239743.460  
  99257702.16804      1198.016          31.750  
  23343553.940   122671212.13908      1170.082          47.000    23343552.480  
  95587958.53206       911.754          40.250  
  22535677.620   118425811.28508      2760.961          47.750    22535679.380  
  92279868.00209      2151.398          52.500  
  20578878.560   108142748.17609      1037.898          51.750    20578879.740  
  84267087.21109       808.754          54.000  
  21713185.080   116232367.81907     -2963.191          43.750    21713188.900  
  90402963.47507     -2304.707          43.750  
  19427133.080   104031419.21108      -182.484          48.000    19427135.800  
  80913341.75108      -141.934          46.500  
  20635662.880   110309455.10208      2545.988          45.000    20635669.440  
  85796279.96406      1980.215          40.000  
  22793922.860   121974884.61507      2364.086          42.000    22793927.420  
  94869371.95207      1838.734          42.000  
  20545559.880   109519411.74708      2576.656          45.250                  
                                                
  21476117.860   114842463.24408     -1242.617          46.250    21476122.100  
  89321939.19607      -966.484          43.000  
  22253155.840   119039374.21007     -3715.707          44.250    22253163.060  
  92586210.87905     -2890.000          38.250  
 20 10 03 08 25 45.0000000  0 16G15G20G18G23G24G11G21G32G10R 7R 8R 1
                                R17R10R24R23
  23600814.820   124023110.28007     -3387.191          44.250    23600814.640  
  96641388.29806     -2639.375          39.750  
  20369569.300   107042807.18009     -1586.441          49.750    20369567.960  
  83409973.65908     -1236.191          45.250  
  24102564.060   126659825.98907     -3833.293          42.750    24102564.960  
  98695991.83805     -2986.988          37.500  
  20412299.300   107267357.30309     -1225.543          49.500    20412298.700  
  83584952.69808      -954.973          46.750  
  20761936.340   109104720.57109     -1158.934          49.500    20761937.780  
  85016675.89109      -903.070          54.750  
  24238282.060   127373032.32505      1534.793          38.000    24238282.140  
  99251718.40504      1195.934          32.250  
  23342442.000   122665368.81808      1167.617          46.750    23342440.540  
  95583405.29906       909.832          39.500  
  22533051.260   118412009.74608      2760.039          48.000    22533053.040  
  92269113.56409      2150.680          52.750  
  20577892.420   108137566.06809      1035.516          51.750    20577893.600  
  84263049.20809       806.895          54.000  
  21715953.640   116247188.20207     -2964.410          44.250    21715957.460  
  90414490.44007     -2305.652          43.500  
  19427304.640   104032337.89908      -184.703          48.250    19427307.360  
  80914056.28808      -143.660          46.500  
  20633282.240   110296729.19308      2544.922          45.000    20633288.800  
  85786382.03706      1979.383          40.250  
  22791715.980   121963075.08207      2360.188          41.750    22791720.540  
  94860186.75607      1835.703          42.000  
  20543144.720   109506537.62208      2573.230          45.250                  
                                                
  21477281.740   114848687.07608     -1246.711          45.750    21477285.980  
  89326779.95007      -969.668          43.250  
  22256630.300   119057960.17507     -3718.016          44.250    22256637.540  
  92600666.60905     -2891.793          38.500  
 20 10 03 08 25 50.0000000  0 16G15G20G18G23G24G11G21G32G10R 7R 8R 1
                                R17R10R24R23
  23604037.960   124040047.97607     -3387.730          44.250    23604037.780  
  96654586.48306     -2639.793          39.000  
  20371080.260   107050747.33909     -1589.313          49.500    20371078.920  
  83416160.78608     -1238.430          45.500  
  24106211.500   126678993.33207     -3833.477          42.500    24106212.400  
  98710927.42005     -2987.125          38.250  
  20413466.760   107273492.39909     -1228.301          49.750    20413466.160  
  83589733.28908      -957.121          47.000  
  20763040.780   109110524.48709     -1162.375          49.500    20763042.220  
  85021198.42509      -905.746          54.500  
  24236823.700   127365368.44106      1531.410          39.000    24236823.780  
  99245746.50703      1193.301          27.750  
  23341332.420   122659537.91208      1164.977          46.500    23341330.940  
  95578861.73806       907.773          39.750  
  22530425.900   118398213.36808      2758.867          47.750    22530427.660  
  92258363.14209      2149.766          52.500  
  20576908.640   108132396.16609      1032.703          51.750    20576909.820  
  84259020.71209       804.699          53.750  
  21718723.380   116262014.78307     -2965.848          43.750    21718727.200  
  90426022.22107     -2306.773          43.250  
  19427478.380   104033268.33508      -187.199          48.250    19427481.100  
  80914779.95908      -145.602          46.500  
  20630902.940   110284010.48408      2543.027          45.000    20630909.500  
  85776489.71006      1977.906          39.750  
  22789512.540   121951284.05107      2356.313          42.500    22789517.100  
  94851015.94807      1832.684          41.750  
  20540733.060   109493682.15708      2569.441          45.250                  
                                                
  21478449.640   114854932.29808     -1251.160          46.000    21478453.880  
  89331637.34307      -973.129          43.000  
  22260106.800   119076557.10008     -3720.531          45.000    22260114.040  
  92615130.87405     -2893.750          38.000  
 20 10 03 08 25 55.0000000  0 16G15G20G18G23G24G11G21G32G10R 7R 8R 1
                                R17R10R24R23
  23607261.720   124056988.84707     -3388.496          44.250    23607261.540  
  96667787.15506     -2640.391          40.500  
  20372593.940   107058701.73909     -1592.441          49.500    20372592.600  
  83422359.01508     -1240.867          45.250  
  24109859.480   126698163.39107     -3834.520          43.000    24109860.380  
  98725865.10005     -2987.945          37.750  
  20414636.860   107279641.31609     -1231.156          49.750    20414636.260  
  83594524.65208      -959.348          47.000  
  20764148.400   109116345.09309     -1166.012          49.500    20764149.840  
  85025733.96209      -908.582          54.500  
  24235368.360   127357720.79105      1527.641          38.500    24235368.420  
  99239787.35604      1190.367          31.750  
  23340225.380   122653720.32008      1162.207          46.500    23340223.900  
  95574328.53906       905.613          39.250  
  22527801.680   118384423.05108      2757.320          48.500    22527803.460  
  92247617.44409      2148.563          52.250  
  20575927.320   108127239.36109      1029.914          51.750    20575928.500  
  84255002.42209       802.531          54.000  
  21721494.440   116276848.55907     -2967.492          43.750    21721498.260  
  90437559.61107     -2308.051          43.250  
  19427654.500   104034211.41008      -190.043          48.250    19427657.220  
  80915513.46708      -147.813          46.500  
  20628525.160   110271299.85808      2541.379          45.000    20628531.720  
  85766603.66306      1976.625          40.250  
  22787312.700   121939512.38307      2352.387          42.250    22787317.280  
  94841860.22507      1829.633          41.750  
  20538325.040   109480846.20208      2565.094          45.000                  
                                                
  21479621.720   114861199.92908     -1255.914          46.000    21479625.960  
  89336512.16807      -976.824          43.250  
  22263585.500   119095165.70108     -3723.109          44.750    22263592.740  
  92629604.21305     -2895.754          38.250  
 20 10 03 08 26  0.0000000  0 16G15G20G18G23G24G11G21G32G10R 7R 8R 1
                                R17R10R24R23
  23610486.080   124073932.99207     -3389.066          44.500    23610485.900  
  96680990.37905     -2640.836          38.250  
  20374110.360   107066670.52809     -1595.184          49.500    20374109.020  
  83428568.45708     -1243.004          45.500  
  24113507.940   126717336.18607     -3834.695          43.000    24113508.840  
  98740804.94004     -2988.078          35.000  
  20415809.620   107285804.17509     -1233.965          50.000    20415809.020  
  83599326.88008      -961.535          46.500  
  20765259.240   109122182.62009     -1169.152          49.500    20765260.680  
  85030282.69309      -911.027          54.500  
  24233916.200   127350089.38106      1524.816          40.750    24233916.260  
  99233840.73202      1188.156          25.750  
  23339120.880   122647916.19608      1159.465          47.000    23339119.420  
  95569805.85406       903.477          39.500  
  22525178.640   118370638.91408      2756.211          48.500    22525180.420  
  92236876.55909      2147.695          52.000  
  20574948.540   108122095.79809      1027.422          51.750    20574949.720  
  84250994.44809       800.586          54.000  
  21724266.840   116291689.51107     -2968.762          44.250    21724270.680  
  90449102.58407     -2309.035          43.250  
  19427833.000   104035167.32608      -192.238          48.000    19427835.720  
  80916256.95508      -149.523          46.250  
  20626148.900   110258597.39708      2539.566          45.250    20626155.440  
  85756723.97806      1975.219          40.250  
  22785116.560   121927760.32206      2348.672          40.500    22785121.120  
  94832719.73106      1826.746          39.750  
  20535920.740   109468030.00708      2561.316          45.500                  
                                                
  21480797.980   114867490.01108     -1260.496          46.000    21480802.220  
  89341404.45807      -980.387          42.750  
  22267066.400   119113786.19307     -3725.012          44.250    22267073.620  
  92644086.82805     -2897.230          38.000  
 20 10 03 08 26  5.0000000  0 16G15G20G18G23G24G11G21G32G10R 7R 8R 1
                                R17R10R24R23
  23613710.680   124090878.36807     -3389.141          44.250    23613710.520  
  96694194.56206     -2640.895          39.500  
  20375629.120   107074651.62909     -1597.535          49.750    20375627.780  
  83434787.49208     -1244.836          45.250  
  24117156.580   126736509.74507     -3834.961          42.500    24117157.480  
  98755745.34904     -2988.289          33.500  
  20416984.640   107291978.89909     -1236.258          49.750    20416984.040  
  83604138.34908      -963.320          47.000  
  20766372.940   109128035.12409     -1172.020          49.750    20766374.380  
  85034843.08809      -913.262          54.500  
  24232466.680   127342472.33806      1521.684          38.750    24232466.720  
  99227905.43704      1185.730          34.250  
  23338018.560   122642123.47808      1157.270          46.500    23338017.100  
  95565292.04406       901.766          40.750  
  22522556.400   118356858.90508      2755.703          48.250    22522558.160  
  92226138.89609      2147.301          52.250  
  20573971.880   108116963.42009      1025.250          51.750    20573973.060  
  84246995.19509       798.895          54.000  
  21727040.240   116306535.76007     -2969.832          43.500    21727044.080  
  90460649.66407     -2309.875          43.250  
  19428013.480   104036133.73108      -194.480          48.250    19428016.200  
  80917008.59808      -151.266          46.250  
  20623773.780   110245901.03308      2538.609          45.250    20623780.320  
  85746849.03006      1974.473          40.250  
  22782923.660   121916025.80007      2345.352          42.000    22782928.220  
  94823592.90907      1824.168          41.500  
  20533519.740   109455231.35008      2558.133          46.250                  
                                                
  21481978.080   114873800.45808     -1264.242          46.000    21481982.320  
  89346312.58207      -983.305          42.750  
  22270549.120   119132416.31907     -3727.004          43.250    22270556.340  
  92658576.91405     -2898.785          38.000  
 20 10 03 08 26 10.0000000  0 16G15G20G18G23G24G11G21G32G10R 7R 8R 1
                                R17R10R24R23
  23616935.800   124107826.47507     -3389.844          44.500    23616935.620  
  96707400.88806     -2641.441          39.250  
  20377150.500   107082646.57109     -1600.441          49.500    20377149.160  
  83441017.32008     -1247.098          45.750  
  24120805.600   126755685.49307     -3835.441          43.250    24120806.500  
  98770687.49205     -2988.660          37.250  
  20418162.200   107298167.01309     -1239.074          49.500    20418161.600  
  83608960.25708      -965.516          47.000  
  20767489.760   109133904.05809     -1175.391          49.500    20767491.200  
  85039416.28509      -915.891          54.500  
  24231020.240   127334871.02906      1518.820          39.750    24231020.280  
  99221982.29803      1183.496          27.500  
  23336918.700   122636343.65708      1154.539          46.250    23336917.260  
  95560788.27806       899.637          38.750  
  22519935.200   118343084.54808      2754.203          48.000    22519936.980  
  92215405.64709      2146.133          52.500  
  20572997.640   108111843.74909      1022.523          51.750    20572998.820  
  84243005.84109       796.773          54.000  
  21729814.880   116321388.61707     -2971.301          43.250    21729818.720  
  90472201.88907     -2311.016          43.250  
  19428196.240   104037112.37608      -197.035          48.250    19428198.960  
  80917769.76808      -153.254          46.500  
  20621400.100   110233212.42808      2536.930          44.750    20621406.660  
  85736980.12306      1973.168          40.000  
  22780734.320   121904310.25307      2340.949          42.000    22780738.800  
  94814480.81706      1820.734          41.250  
  20531122.300   109442451.74208      2553.957          46.250                  
                                                
  21483162.260   114880132.81908     -1268.559          46.000    21483166.500  
  89351237.74007      -986.660          42.500  
  22274033.960   119151057.76607     -3729.598          43.750    22274041.180  
  92673075.80105     -2900.801          37.750  
 20 10 03 08 26 15.0000000  0 16G15G20G18G23G24G11G21G32G10R 7R 8R 1
                                R17R10R24R23
  23620161.880   124124779.54008     -3390.863          44.750    23620161.720  
  96720611.03906     -2642.238          39.750  
  20378674.940   107090657.56509     -1603.590          49.500    20378673.600  
  83447259.64908     -1249.555          45.500  
  24124455.500   126774865.67307     -3836.293          42.500    24124456.380  
  98785633.07305     -2989.324          36.750  
  20419342.720   107304370.71409     -1242.238          49.500    20419342.120  
  83613794.30708      -967.980          47.250  
  20768610.120   109139791.60009     -1179.207          49.250    20768611.560  
  85044003.98409      -918.863          54.500  
  24229577.160   127327287.77406      1515.422          40.000    24229577.200  
  99216073.30303      1180.844          28.500  
  23335821.720   122630578.99108      1151.430          46.250    23335820.260  
  95556296.34506       897.219          40.250  
  22517315.520   118329318.05808      2752.598          48.000    22517317.300  
  92204678.51509      2144.883          52.500  
  20572026.220   108106738.99409      1019.512          51.750    20572027.420  
  84239028.11209       794.426          54.000  
  21732591.220   116336250.51307     -2973.215          44.000    21732595.060  
  90483761.12407     -2312.504          43.750  
  19428381.680   104038105.47708      -199.855          48.000    19428384.400  
  80918542.18408      -155.387          46.500  
  20619028.280   110220533.65608      2534.844          45.500    20619034.820  
  85727118.86206      1971.547          40.250  
  22778548.980   121892616.00907      2337.145          42.250    22778553.480  
  94805385.28107      1817.773          41.500  
  20528728.860   109429693.38908      2549.543          46.000                  
                                                
  21484350.960   114886489.26008     -1273.684          46.000    21484355.180  
  89356181.64207      -990.648          42.500  
  22277521.300   119169712.62208     -3732.156          44.750    22277528.520  
  92687585.12105     -2902.793          38.000  
 20 10 03 08 26 20.0000000  0 16G15G20G18G23G24G11G21G32G10R 7R 8R 1
                                R17R10R24R23
  23623387.900   124141732.43408     -3390.145          44.750    23623387.740  
  96733821.08506     -2641.676          38.750  
  20380201.460   107098679.52909     -1605.344          49.250    20380200.120  
  83453510.53808     -1250.918          45.750  
  24128105.280   126794045.21007     -3835.750          41.500    24128106.160  
  98800578.13605     -2988.902          36.250  
  20420525.240   107310584.92809     -1243.715          49.500    20420524.640  
  83618636.55108      -969.133          46.750  
  20769733.020   109145692.49009     -1181.207          49.250    20769734.460  
  85048602.08009      -920.422          54.750  
  24228136.580   127319717.50706      1512.887          41.000    24228136.600  
  99210174.40001      1178.867          25.250  
  23334726.660   122624824.36408      1150.301          46.000    23334725.200  
  95551812.20806       896.336          40.250  
  22514696.380   118315554.36308      2752.707          47.750    22514698.140  
  92193953.56509      2144.965          53.000  
  20571056.700   108101644.08209      1018.293          51.500    20571057.880  
  84235058.05509       793.477          54.000  
  21735368.240   116351116.12107     -2973.020          44.250    21735372.080  
  90495323.26607     -2312.348          43.750  
  19428568.900   104039107.92908      -201.090          48.250    19428571.600  
  80919321.86708      -156.406          46.750  
  20616657.360   110207859.70008      2534.598          45.250    20616663.900  
  85717261.33506      1971.352          40.250  
  22776366.660   121880937.94707      2333.934          43.250    22776371.120  
  94796302.34907      1815.281          41.500  
  20526338.500   109416951.40108      2547.074          46.000                  
                                                
  21485543.200   114892864.75208     -1276.758          45.750    21485547.440  
  89361140.34707      -993.039          42.500  
  22281010.200   119188375.91407     -3733.266          44.500    22281017.420  
  92702101.01905     -2903.656          38.000  
 20 10 03 08 26 25.0000000  0 16G15G20G18G23G24G11G21G32G10R 7R 8R 1
                                R17R10R24R23
  23626614.320   124158687.41707     -3391.551          44.500    23626614.160  
  96747032.77406     -2642.766          39.000  
  20381730.500   107106714.67309     -1608.785          49.500    20381729.160  
  83459771.68708     -1253.602          46.000  
  24131755.300   126813226.23407     -3836.457          42.000    24131756.180  
  98815524.39604     -2989.449          33.500  
  20421710.200   107316811.88209     -1247.039          49.500    20421709.600  
  83623488.72008      -971.723          47.500  
  20770858.880   109151608.99209     -1185.277          49.500    20770860.320  
  85053212.34409      -923.594          54.750  
  24226698.900   127312162.39506      1509.191          40.750    24226698.920  
  99204287.28504      1175.984          33.000  
  23333633.920   122619082.06608      1146.969          46.250    23333632.480  
  95547337.69406       893.742          39.000  
  22512078.200   118301795.69508      2750.953          48.000    22512079.960  
  92183232.52309      2143.598          52.750  
  20570089.460   108096561.26209      1015.012          51.750    20570090.660  
  84231097.41409       790.914          54.000  
  21738146.360   116365987.77308     -2975.492          44.750    21738150.200  
  90506890.12507     -2314.273          44.000  
  19428758.240   104040121.87908      -204.379          48.250    19428760.960  
  80920110.49308      -158.961          46.500  
  20614287.760   110195192.82508      2532.277          45.250    20614294.300  
  85707409.31906      1969.547          40.250  
  22774187.760   121869278.28007      2329.688          43.000    22774192.200  
  94787233.72706      1811.980          41.250  
  20523951.640   109404228.07308      2542.527          45.750                  
                                                
  21486739.400   114899261.31408     -1281.922          46.000    21486743.640  
  89366115.45607      -997.055          42.750  
  22284501.060   119207049.70407     -3736.375          44.000    22284508.280  
  92716625.06705     -2906.074          37.250  
 20 10 03 08 26 30.0000000  0 16G15G20G18G23G24G11G21G32G10R 7R 8R 1
                                R17R10R24R23
  23629841.700   124175647.28507     -3392.063          44.000    23629841.520  
  96760248.24105     -2643.168          38.500  
  20383262.580   107114765.80309     -1611.375          49.500    20383261.240  
  83466045.29608     -1255.617          45.750  
  24135406.200   126832411.65107     -3837.176          42.000    24135407.080  
  98830474.04505     -2990.012          36.500  
  20422898.120   107323054.37809     -1249.574          49.750    20422897.520  
  83628352.99608      -973.699          47.250  
  20771988.320   109157544.15609     -1188.512          49.500    20771989.740  
  85057837.14909      -926.117          54.750  
  24225264.660   127304625.32906      1505.797          40.750    24225264.680  
  99198414.23004      1173.348          33.750  
  23332544.080   122613354.85208      1144.434          46.500    23332542.620  
  95542874.93106       891.762          38.750  
  22509461.480   118288044.81208      2749.844          47.750    22509463.240  
  92172517.56109      2142.734          53.000  
  20569125.080   108091493.32209      1012.641          51.500    20569126.260  
  84227148.37209       789.066          54.000  
  21740926.180   116380868.31107     -2976.449          44.000    21740930.040  
  90518463.85807     -2315.020          44.250  
  19428950.280   104041150.23208      -206.660          48.250    19428952.980  
  80920910.32908      -160.734          46.500  
  20611920.000   110182535.81508      2530.734          45.500    20611926.540  
  85697564.97506      1968.344          40.250  
  22772012.840   121857639.90807      2326.020          43.500    22772017.280  
  94778181.66607      1809.125          41.500  
  20521568.760   109391526.01908      2538.734          45.250                  
                                                
  21487940.100   114905682.04008     -1286.266          45.750    21487944.340  
  89371109.34907     -1000.434          42.750  
  22287994.460   119225736.95607     -3738.313          44.500    22288001.680  
  92731159.58805     -2907.582          37.250  
 20 10 03 08 26 35.0000000  0 16G15G20G18G23G24G11G21G32G10R 7R 8R 1
                                R17R10R24R23
  23633069.260   124192608.23507     -3392.375          43.500    23633069.100  
  96773464.56606     -2643.414          40.250  
  20384796.980   107122829.10009     -1614.129          49.500    20384795.640  
  83472328.37508     -1257.766          45.500  
  24139057.180   126851597.55506     -3837.426          41.250    24139058.040  
  98845424.08804     -2990.211          35.000  
  20424088.260   107329308.60109     -1252.301          49.500    20424087.660  
  83633226.41608      -975.824          47.250  
  20773120.520   109163493.95109     -1191.824          49.250    20773121.960  
  85062473.35309      -928.699          54.750  
  24223833.140   127297102.43006      1502.879          40.750    24223833.140  
  99192552.19804      1171.066          32.250  
  23331456.380   122607638.96108      1141.684          46.250    23331454.920  
  95538420.99106       889.621          39.500  
  22506845.540   118274298.00008      2748.633          48.000    22506847.300  
  92161805.77309      2141.793          53.000  
  20568162.800   108086436.49609      1009.988          51.750    20568163.980  
  84223207.98409       787.000          54.000  
  21743706.920   116395753.79507     -2977.805          44.500    21743710.760  
  90530041.45707     -2316.074          43.750  
  19429144.300   104042189.17808      -209.137          48.250    19429147.020  
  80921718.39408      -162.664          46.500  
  20609553.380   110169884.91208      2529.277          45.250    20609559.940  
  85687725.38606      1967.215          40.500  
  22769841.200   121846018.99907      2322.086          43.000    22769845.620  
  94769143.18807      1806.066          41.750  
  20519189.180   109378841.51108      2535.012          45.250                  
                                                
  21489144.580   114912122.85808     -1290.586          45.500    21489148.820  
  89376118.86607     -1003.793          43.000  
  22291489.600   119244433.62208     -3740.574          45.000    22291496.820  
  92745701.43105     -2909.340          37.250  
 20 10 03 08 26 40.0000000  0 16G15G20G18G23G24G11G21G32G10R 7R 8R 1
                                R17R10R24R23
  23636297.480   124209572.68507     -3392.668          44.250    23636297.320  
  96786683.60605     -2643.641          38.500  
  20386334.160   107130906.95409     -1616.477          49.500    20386332.820  
  83478622.80508     -1259.598          45.750  
  24142708.700   126870786.39306     -3837.652          41.000    24142709.560  
  98860376.43104     -2990.379          34.500  
  20425281.080   107335576.95909     -1254.547          49.750    20425280.480  
  83638110.85208      -977.574          47.000  
  20774256.000   109169460.92109     -1194.426          49.500    20774257.440  
  85067122.94209      -930.723          54.750  
  24222404.700   127289596.11106      1500.340          41.000    24222404.680  
  99186703.14903      1169.102          29.500  
  23330371.280   122601936.76908      1139.684          46.250    23330369.820  
  95533977.72706       888.066          39.250  
  22504230.840   118260557.61608      2747.883          48.000    22504232.600  
  92151098.97109      2141.203          52.750  
  20567203.080   108081393.18309      1007.789          51.750    20567204.260  
  84219278.13009       785.285          54.000  
  21746489.060   116410646.72808     -2978.820          44.750    21746492.900  
  90541624.83407     -2316.863          44.250  
  19429340.720   104043241.00708      -211.133          48.250    19429343.440  
  80922536.48708      -164.215          46.500  
  20607188.360   110157242.49208      2528.156          45.000    20607194.900  
  85677892.38906      1966.340          40.500  
  22767673.260   121834417.92307      2318.773          43.500    22767677.660  
  94760120.12606      1803.504          41.250  
  20516813.360   109366177.06408      2531.469          45.000                  
                                                
  21490353.280   114918586.35208     -1294.352          45.500    21490357.520  
  89381146.02807     -1006.723          43.000  
  22294986.960   119263142.09207     -3742.398          44.500    22294994.160  
  92760252.46505     -2910.754          37.750  
 20 10 03 08 26 45.0000000  0 16G15G20G18G23G24G11G21G32G10R 7R 8R 1
                                R17R10R24R23
  23639525.800   124226537.55607     -3393.758          44.250    23639525.640  
  96799902.97506     -2644.492          39.750  
  20387873.520   107138996.32209     -1619.652          49.500    20387872.180  
  83484926.20808     -1262.070          45.250  
  24146360.180   126889975.02307     -3838.500          41.750    24146361.040  
  98875328.59304     -2991.043          34.000  
  20426476.020   107341856.38809     -1257.504          49.750    20426475.420  
  83643003.91308      -979.879          46.750  
  20775394.120   109175441.79509     -1198.199          49.000    20775395.540  
  85071783.36509      -933.660          54.750  
  24220978.880   127282103.44206      1496.738          40.250    24220978.840  
  99180864.72404      1166.289          32.000  
  23329288.200   122596245.22708      1136.785          46.250    23329286.760  
  95529542.76506       885.805          40.000  
  22501616.760   118246820.60708      2746.281          47.500    22501618.540  
  92140394.81009      2139.961          53.000  
  20566245.360   108076360.31209      1004.980          51.750    20566246.540  
  84215356.41409       783.098          54.000  
  21749271.980   116425544.05007     -2980.305          44.000    21749275.840  
  90553211.66207     -2318.016          44.000  
  19429538.980   104044302.66408      -213.887          48.250    19429541.700  
  80923362.21808      -166.359          46.500  
  20604824.320   110144605.41108      2526.336          45.000    20604830.880  
  85668063.55806      1964.930          40.000  
  22765508.480   121822833.70707      2314.637          43.500    22765512.860  
  94751110.17707      1800.270          41.750  
  20514440.680   109353529.48008      2527.340          45.000                  
                                                
  21491565.640   114925069.39108     -1299.070          45.750    21491569.880  
  89386188.37907     -1010.391          42.750  
  22298485.980   119281859.43807     -3744.820          44.000    22298493.180  
  92774810.39105     -2912.641          38.500  
 20 10 03 08 26 50.0000000  0 16G15G20G18G23G24G11G21G32G10R 7R 8R 1
                                R17R10R24R23
  23642754.980   124243506.96107     -3394.082          43.500    23642754.820  
  96813125.88406     -2644.742          39.750  
  20389415.840   107147101.35509     -1622.441          49.500    20389414.520  
  83491241.81408     -1264.242          45.500  
  24150012.440   126909167.68506     -3838.855          41.000    24150013.280  
  98890283.90904     -2991.320          34.750  
  20427673.860   107348151.08509     -1260.496          49.500    20427673.260  
  83647908.86908      -982.207          47.000  
  20776535.700   109181440.91709     -1201.559          49.250    20776537.140  
  85076458.00609      -936.285          55.000  
  24219556.460   127274628.46706      1493.469          39.750    24219556.420  
  99175040.04604      1163.734          33.500  
  23328207.960   122590568.52508      1134.078          45.750    23328206.520  
  95525119.36106       883.691          39.750  
  22499004.120   118233091.12008      2745.449          47.500    22499005.900  
  92129696.51609      2139.313          52.750  
  20565290.420   108071342.08409      1002.191          51.500    20565291.600  
  84211446.10909       780.926          54.000  
  21752056.540   116440449.96207     -2981.914          44.000    21752060.400  
  90564805.13407     -2319.270          43.750  
  19429739.880   104045378.53608      -216.348          48.000    19429742.600  
  80924199.00808      -168.273          46.500  
  20602462.080   110131977.92708      2524.762          45.000    20602468.640  
  85658242.19006      1963.703          40.250  
  22763347.640   121811270.54107      2310.648          43.000    22763351.980  
  94742116.60107      1797.168          41.750  
  20512072.000   109340903.08808      2523.133          45.250                  
                                                
  21492782.420   114931576.08508     -1303.648          46.000    21492786.660  
  89391249.14307     -1013.949          42.750  
  22301987.420   119300589.77107     -3747.063          44.000    22301994.620  
  92789378.41305     -2914.387          38.500  
 20 10 03 08 26 55.0000000  0 16G15G20G18G23G24G11G21G32G10R 7R 8R 1
                                R17R10R24R23
  23645984.900   124260480.28707     -3394.527          43.500    23645984.740  
  96826351.85006     -2645.090          40.000  
  20390961.060   107155221.43609     -1625.063          49.500    20390959.720  
  83497569.15008     -1266.285          45.500  
  24153665.320   126928363.70707     -3839.262          42.000    24153666.140  
  98905241.84805     -2991.637          36.000  
  20428874.480   107354460.39809     -1262.957          49.750    20428873.900  
  83652825.21808      -984.125          46.750  
  20777680.660   109187457.68309     -1204.715          49.250    20777682.100  
  85081146.38709      -938.742          54.750  
  24218137.260   127267170.60206      1490.238          40.500    24218137.200  
  99169228.74704      1161.219          32.750  
  23327130.440   122584906.09308      1131.563          46.250    23327129.000  
  95520707.07606       881.734          40.500  
  22496392.820   118219368.61708      2744.438          47.750    22496394.580  
  92119003.66309      2138.523          52.750  
  20564338.160   108066337.88509       999.738          51.500    20564339.340  
  84207546.72809       779.012          54.000  
  21754842.560   116455363.68907     -2982.930          43.500    21754846.400  
  90576404.69907     -2320.055          43.750  
  19429943.320   104046467.93408      -218.684          47.750    19429946.040  
  80925046.32008      -170.090          46.500  
  20600101.560   110119359.58108      2523.078          44.750    20600108.120  
  85648427.91706      1962.391          40.250  
  22761190.600   121799727.79007      2306.809          42.500    22761194.900  
  94733138.91207      1794.184          41.500  
  20509707.160   109328297.27008      2519.352          45.500                  
                                                
  21494003.540   114938105.88708     -1307.785          46.000    21494007.780  
  89396327.87007     -1017.172          42.750  
  22305491.180   119319332.39607     -3749.535          43.750    22305498.400  
  92803955.97205     -2916.313          37.750  
 20 10 03 08 27  0.0000000  0 16G15G20G18G23G24G11G21G32G10R 7R 8R 1
                                R17R10R24R23
  23649214.920   124277454.19107     -3394.848          44.000    23649214.760  
  96839578.26505     -2645.336          37.000  
  20392508.480   107163353.19309     -1627.602          49.500    20392507.140  
  83503905.58008     -1268.266          45.500  
  24157318.200   126947559.68407     -3839.188          41.750    24157319.000  
  98920199.76003     -2991.574          30.500  
  20430077.260   107360780.95009     -1265.344          49.750    20430076.660  
  83657750.31908      -985.984          46.750  
  20778828.300   109193488.62209     -1207.754          49.250    20778829.760  
  85085845.82409      -941.109          54.750  
  24216720.680   127259726.50506      1487.664          41.000    24216720.600  
  99163428.16304      1159.223          34.500  
  23326054.960   122579254.49108      1129.105          46.500    23326053.520  
  95516303.24106       879.824          39.750  
  22493782.180   118205649.67408      2743.359          48.000    22493783.960  
  92108313.58409      2137.684          52.500  
  20563387.900   108061344.32209       997.480          51.750    20563389.100  
  84203655.64009       777.254          54.000  
  21757629.400   116470281.98707     -2984.395          43.750    21757633.240  
  90588007.84107     -2321.195          44.000  
  19430148.640   104047567.39508      -220.930          47.750    19430151.360  
  80925901.45408      -171.840          46.500  
  20597742.080   110106746.76308      2522.047          44.750    20597748.640  
  85638617.94606      1961.594          40.500  
  22759036.740   121788202.07707      2303.289          43.250    22759041.020  
  94724174.47907      1791.445          42.000  
  20507345.560   109315708.63708      2515.957          45.500                  
                                                
  21495228.300   114944655.28608     -1311.934          46.000    21495232.540  
  89401421.84907     -1020.395          43.000  
  22308996.600   119338084.03207     -3751.039          44.500    22309003.820  
  92818540.57605     -2917.480          38.000  
 20 10 03 08 27  5.0000000  0 16G15G20G18G23G24G11G21G32G10R 7R 8R 1
                                R17R10R24R23
  23652445.560   124294431.36907     -3395.648          44.000    23652445.420  
  96852807.23906     -2645.965          39.750  
  20394058.640   107171499.31309     -1630.422          49.500    20394057.300  
  83510253.20208     -1270.461          45.500  
  24160971.640   126966758.37806     -3839.574          41.250    24160972.440  
  98935159.72004     -2991.883          34.250  
  20431282.680   107367115.48009     -1267.957          49.750    20431282.080  
  83662686.31008      -988.023          46.500  
  20779979.160   109199536.40809     -1210.914          49.250    20779980.600  
  85090558.38509      -943.574          54.750  
  24215307.260   127252298.87506      1484.059          40.500    24215307.180  
  99157640.39504      1156.410          32.250  
  23324982.100   122573616.49008      1126.754          46.250    23324980.640  
  95511909.98706       877.988          39.250  
  22491172.760   118191937.01408      2742.168          47.750    22491174.540  
  92097628.37809      2136.750          52.750  
  20562440.200   108056364.13809       995.016          51.750    20562441.400  
  84199774.97509       775.332          54.000  
  21760417.620   116485207.47207     -2985.496          43.750    21760421.460  
  90599616.55007     -2322.055          44.000  
  19430356.340   104048679.58708      -223.508          48.000    19430359.060  
  80926766.49008      -173.844          46.500  
  20595384.140   110094142.24908      2520.457          45.000    20595390.700  
  85628814.44106      1960.355          40.250  
  22756886.560   121776696.17107      2299.902          42.000    22756890.840  
  94715225.45306      1788.813          41.250  
  20504987.680   109303139.82808      2511.980          46.000                  
                                                
  21496457.260   114951227.13008     -1316.328          45.750    21496461.520  
  89406533.28307     -1023.813          43.250  
  22312504.200   119356847.30008     -3753.734          44.750    22312511.420  
  92833134.22305     -2919.574          38.000  
 20 10 03 08 27 10.0000000  0 16G15G20G18G23G24G11G21G32G10R 7R 8R 1
                                R17R10R24R23
  23655676.200   124311408.48307     -3395.496          44.250    23655676.040  
  96866036.16706     -2645.840          39.750  
  20395610.900   107179656.52309     -1632.676          49.500    20395609.580  
  83516609.46508     -1272.219          45.500  
  24164624.920   126985956.42806     -3840.039          41.000    24164625.680  
  98950119.24604     -2992.242          32.750  
  20432490.120   107373460.64909     -1270.266          50.000    20432489.520  
  83667630.59608      -989.820          46.750  
  20781132.600   109205597.77109     -1213.742          49.500    20781134.060  
  85095281.52009      -945.777          54.500  
  24213896.340   127244884.40906      1481.484          40.250    24213896.240  
  99151862.89704      1154.398          35.250  
  23323911.160   122567988.71208      1124.520          46.750    23323909.720  
  95507524.70406       876.250          39.500  
  22488563.880   118178227.33008      2741.449          47.750    22488565.660  
  92086945.52009      2136.195          52.750  
  20561494.420   108051394.02209       992.813          51.750    20561495.620  
  84195902.16009       773.617          53.750  
  21763206.560   116500136.85707     -2986.559          44.000    21763210.400  
  90611228.28107     -2322.883          44.250  
  19430565.800   104049801.30508      -225.363          48.000    19430568.540  
  80927638.93508      -175.281          46.500  
  20593027.160   110081542.84307      2519.238          44.500    20593033.720  
  85619014.89206      1959.402          40.500  
  22754739.480   121765206.66707      2296.117          42.250    22754743.740  
  94706289.18907      1785.867          41.750  
  20502632.920   109290587.67008      2508.496          46.000                  
                                                
  21497689.780   114957817.94408     -1320.098          46.000    21497694.040  
  89411659.46407     -1026.746          43.250  
  22316013.340   119375618.81907     -3755.227          44.500    22316020.560  
  92847734.29405     -2920.734          37.500  
 20 10 03 08 27 15.0000000  0 16G15G20G18G23G24G11G21G32G10R 7R 8R 1
                                R17R10R24R23
  23658907.680   124328389.90707     -3396.746          44.250    23658907.520  
  96879268.42105     -2646.820          37.500  
  20397166.100   107187829.14309     -1635.855          49.750    20397164.780  
  83522977.74108     -1274.691          45.500  
  24168278.880   127005158.09106     -3840.613          40.250    24168279.620  
  98965081.57304     -2992.695          34.000  
  20433700.420   107379820.79009     -1273.441          49.750    20433699.820  
  83672586.55508      -992.293          46.750  
  20782289.420   109211676.94909     -1217.566          49.500    20782290.880  
  85100018.54209      -948.754          54.500  
  24212488.740   127237487.46606      1477.574          40.750    24212488.640  
  99146099.04503      1151.355          30.000  
  23322843.000   122562375.51708      1121.340          46.750    23322841.560  
  95503150.78706       873.766          39.000  
  22485956.400   118164524.95408      2739.590          48.000    22485958.180  
  92076268.35409      2134.746          53.000  
  20560551.380   108046438.30309       989.734          51.750    20560552.580  
  84192040.56309       771.223          53.750  
  21765997.060   116515074.64907     -2988.453          44.250    21766000.920  
  90622846.55307     -2324.355          44.500  
  19430777.880   104050936.93308      -228.520          48.000    19430780.600  
  80928522.20308      -177.742          46.500  
  20590671.920   110068952.70608      2517.121          45.000    20590678.480  
  85609222.56406      1957.758          40.500  
  22752596.300   121753738.05107      2291.594          42.500    22752600.560  
  94697369.13307      1782.348          41.750  
  20500282.100   109278056.49208      2503.984          46.000                  
                                                
  21498926.680   114964432.12708     -1325.129          46.500    21498930.920  
  89416803.82407     -1030.660          43.500  
  22319524.840   119394402.92308     -3758.168          44.750    22319532.040  
  92862344.13905     -2923.023          37.250  
 20 10 03 08 27 20.0000000  0 16G15G20G18G23G24G11G21G32G10R 7R 8R 1
                                R17R10R24R23
  23662139.860   124345375.10607     -3396.992          44.000    23662139.700  
  96892503.63905     -2647.012          38.500  
  20398724.140   107196016.70909     -1638.703          49.500    20398722.820  
  83529357.66108     -1276.914          45.500  
  24171933.460   127024362.97606     -3841.160          41.250    24171934.180  
  98980046.41204     -2993.117          34.750  
  20434913.480   107386195.42109     -1276.145          50.000    20434912.880  
  83677553.79908      -994.398          46.500  
  20783449.560   109217773.45709     -1220.805          49.750    20783451.000  
  85104769.07009      -951.277          54.500  
  24211084.380   127230107.53806      1474.438          40.750    24211084.280  
  99140348.46003      1148.918          30.000  
  23321777.540   122556776.46308      1118.664          46.750    23321776.100  
  95498787.88806       871.688          40.000  
  22483350.220   118150829.41708      2738.531          48.000    22483352.000  
  92065596.51109      2133.922          52.500  
  20559611.000   108041496.53409       987.234          51.750    20559612.180  
  84188189.83109       769.270          53.750  
  21768789.020   116530020.16007     -2989.563          44.000    21768792.880  
  90634470.83308     -2325.219          44.750  
  19430992.420   104052085.79808      -230.977          48.000    19430995.140  
  80929415.76508      -179.652          46.500  
  20588318.360   110056371.60008      2515.438          44.750    20588324.920  
  85599437.26606      1956.453          40.750  
  22750456.920   121742289.80207      2287.930          43.250    22750461.200  
  94688464.94207      1779.500          41.500  
  20497935.120   109265545.82708      2500.285          45.750                  
                                                
  21500167.860   114971069.29008     -1329.547          46.000    21500172.120  
  89421966.05607     -1034.098          43.500  
  22323038.600   119413199.19907     -3760.180          43.250    22323045.800  
  92876963.47205     -2924.586          37.250  
 20 10 03 08 27 25.0000000  0 16G15G20G18G23G24G11G21G32G10R 7R 8R 1
                                R17R10R24R23
  23665372.420   124362362.39707     -3397.688          44.000    23665372.280  
  96905740.48705     -2647.547          37.500  
  20400284.700   107204217.46009     -1641.398          49.500    20400283.380  
  83535747.85008     -1279.016          45.000  
  24175588.300   127043569.29206     -3841.188          41.000    24175589.000  
  98995012.38504     -2993.137          32.000  
  20436128.960   107392582.84609     -1278.820          50.000    20436128.360  
  83682531.01708      -996.484          46.500  
  20784612.640   109223885.57609     -1223.969          50.000    20784614.100  
  85109531.76809      -953.742          54.250  
  24209682.940   127222742.97406      1471.359          40.750    24209682.820  
  99134609.87203      1146.516          28.750  
  23320714.440   122551189.85108      1115.969          46.750    23320713.000  
  95494434.68206       869.582          40.250  
  22480745.020   118137138.99908      2737.703          48.000    22480746.800  
  92054928.65709      2133.273          52.500  
  20558672.940   108036567.00009       984.660          51.750    20558674.120  
  84184348.63409       767.266          53.750  
  21771582.100   116544971.77607     -2990.875          44.000    21771585.980  
  90646099.86107     -2326.238          44.500  
  19431209.140   104053246.34608      -233.336          48.250    19431211.860  
  80930318.41508      -181.484          46.500  
  20585966.140   110043797.64408      2514.117          45.000    20585972.700  
  85589657.53206      1955.426          40.750  
  22748321.040   121730860.25707      2284.043          42.000    22748325.300  
  94679575.30706      1776.477          41.250  
  20495591.680   109253053.95408      2496.586          45.250                  
                                                
  21501412.980   114977727.56508     -1333.762          46.250    21501417.240  
  89427144.71207     -1037.375          43.250  
  22326554.300   119432005.75407     -3762.461          43.250    22326561.520  
  92891590.77105     -2926.363          37.500  
 20 10 03 08 27 30.0000000  0 16G15G20G18G23G24G11G21G32G10R 7R 8R 1
                                R17R10R24R23
  23668605.400   124379351.81707     -3398.199          43.250    23668605.260  
  96918978.99006     -2647.953          39.000  
  20401847.780   107212431.49609     -1644.410          49.750    20401846.460  
  83542148.39508     -1281.363          45.250  
  24179243.460   127062777.18807     -3842.063          42.000    24179244.140  
  99009979.56604     -2993.824          33.750  
  20437346.900   107398983.17109     -1281.594          49.750    20437346.300  
  83687518.27508      -998.648          46.500  
  20785778.780   109230013.67509     -1227.453          50.000    20785780.240  
  85114306.91209      -956.457          54.250  
  24208284.460   127215393.87306      1467.840          41.000    24208284.360  
  99128883.28305      1143.766          37.000  
  23319653.720   122545615.73208      1113.355          46.750    23319652.280  
  95490091.20706       867.547          40.000  
  22478140.820   118123453.84308      2736.188          48.250    22478142.580  
  92044264.90509      2132.094          52.250  
  20557737.220   108031649.80809       982.004          51.750    20557738.420  
  84180517.06209       765.199          53.750  
  21774376.340   116559929.51907     -2992.582          43.250    21774380.220  
  90657733.65508     -2327.566          44.750  
  19431428.040   104054418.57508      -235.863          48.000    19431430.780  
  80931230.14708      -183.453          46.250  
  20583615.300   110031231.05708      2512.336          45.250    20583621.840  
  85579883.52406      1954.039          40.500  
  22746188.660   121719449.49107      2279.980          41.750    22746192.920  
  94670700.27806      1773.316          39.750  
  20493251.740   109240580.85308      2492.492          45.500                  
                                                
  21502662.100   114984407.11208     -1338.355          46.250    21502666.340  
  89432339.92407     -1040.941          43.250  
  22330071.960   119450822.79907     -3764.605          43.000    22330079.180  
  92906226.22305     -2928.035          37.750  
 20 10 03 08 27 35.0000000  0 16G15G20G18G23G24G11G21G32G10R 7R 8R 1
                                R17R10R24R23
  23671839.060   124396344.80207     -3398.813          43.250    23671838.920  
  96932220.27905     -2648.430          37.750  
  20403413.660   107220660.24009     -1646.992          49.500    20403412.340  
  83548560.40208     -1283.375          45.500  
  24182899.160   127081988.01607     -3842.465          41.750    24182899.820  
  99024949.03404     -2994.133          33.000  
  20438567.580   107405397.77309     -1284.125          49.750    20438566.960  
  83692516.66408     -1000.621          47.250  
  20786948.180   109236158.92409     -1230.617          49.750    20786949.640  
  85119095.42009      -958.922          54.500  
  24206889.200   127208061.61907      1464.828          41.500    24206889.080  
  99123169.82601      1141.426          23.750  
  23318595.640   122540055.54208      1110.734          46.750    23318594.220  
  95485758.60106       865.508          40.250  
  22475537.880   118109775.31508      2735.348          48.500    22475539.660  
  92033606.31509      2131.441          52.250  
  20556804.120   108026746.36109       979.535          52.000    20556805.320  
  84176696.19609       763.270          53.750  
  21777172.000   116574894.89507     -2993.750          44.000    21777175.880  
  90669373.38807     -2328.477          44.250  
  19431649.440   104055604.09208      -238.293          48.250    19431652.160  
  80932152.21008      -185.344          46.500  
  20581266.080   110018673.14908      2510.809          44.750    20581272.620  
  85570116.27106      1952.852          40.500  
  22744060.080   121708059.02407      2276.055          42.000    22744064.340  
  94661841.02806      1770.266          40.500  
  20490915.660   109228128.20808      2488.629          46.000                  
                                                
  21503915.440   114991109.31908     -1342.590          46.250    21503919.700  
  89437552.74107     -1044.242          43.250  
  22333591.820   119469651.63107     -3766.672          43.750    22333599.040  
  92920870.86405     -2929.637          37.750  
 20 10 03 08 27 40.0000000  0 16G15G20G18G23G24G11G21G32G10R 7R 8R 1
                                R17R10R24R23
  23675073.040   124413339.31807     -3399.086          43.500    23675072.880  
  96945462.74506     -2648.641          39.500  
  20404981.940   107228901.63909     -1649.613          49.500    20404980.620  
  83554982.27308     -1285.418          45.000  
  24186555.060   127101199.72606     -3842.605          41.000    24186555.720  
  99039919.16405     -2994.242          37.750  
  20439790.560   107411824.63409     -1286.629          49.750    20439789.960  
  83697524.60508     -1002.566          46.250  
  20788120.460   109242319.33609     -1233.633          49.750    20788121.920  
  85123895.74109      -961.277          54.500  
  24205496.700   127200744.20006      1461.898          41.250    24205496.580  
  99117467.97804      1139.141          34.500  
  23317539.840   122534507.25208      1108.398          47.000    23317538.420  
  95481435.25406       863.684          39.250  
  22472935.820   118096101.41009      2734.309          48.750    22472937.600  
  92022951.32709      2130.629          52.000  
  20555873.260   108021854.65109       977.160          51.750    20555874.460  
  84172884.47609       761.418          53.750  
  21779968.680   116589865.67707     -2994.848          43.000    21779972.560  
  90681017.32207     -2329.328          44.000  
  19431872.880   104056800.64908      -240.461          48.250    19431875.600  
  80933082.87308      -187.023          46.500  
  20578918.120   110006121.99107      2509.625          44.250    20578924.680  
  85560354.25506      1951.926          40.750  
  22741934.880   121696686.64707      2272.875          42.250    22741939.160  
  94652995.84006      1767.789          40.500  
  20488583.000   109215693.81208      2484.906          46.000                  
                                                
  21505172.640   114997832.12508     -1346.762          46.000    21505176.900  
  89442781.60007     -1047.480          43.500  
  22337113.480   119488490.17407     -3768.879          44.250    22337120.700  
  92935523.05505     -2931.355          37.500  
 20 10 03 08 27 45.0000000  0 16G15G20G18G23G24G11G21G32G10R 7R 8R 1
                                R17R10R24R23
  23678307.880   124430338.45407     -3399.836          43.250    23678307.720  
  96958708.80606     -2649.227          39.250  
  20406553.240   107237158.82909     -1652.637          49.750    20406551.920  
  83561416.44708     -1287.773          45.250  
  24190211.700   127120415.45706     -3843.191          41.000    24190212.340  
  99054892.44804     -2994.703          34.750  
  20441016.480   107418266.87909     -1289.656          49.750    20441015.860  
  83702544.54108     -1004.926          46.750  
  20789296.220   109248497.93409     -1237.285          49.500    20789297.680  
  85128710.22909      -964.121          54.500  
  24204107.680   127193444.70107      1458.504          41.500    24204107.560  
  99111780.03204      1136.492          32.250  
  23316486.900   122528974.01008      1105.238          47.000    23316485.460  
  95477123.64506       861.227          40.000  
  22470335.220   118082435.24608      2732.766          48.500    22470337.000  
  92012302.37009      2129.430          52.000  
  20554945.220   108016977.78909       974.164          51.750    20554946.420  
  84169084.32409       759.090          54.000  
  21782766.980   116604845.20707     -2996.449          44.500    21782770.880  
  90692668.05707     -2330.574          43.750  
  19432099.000   104058011.54308      -243.391          48.250    19432101.740  
  80934024.68008      -189.305          46.500  
  20576572.000   109993580.69407      2507.531          44.500    20576578.560  
  85550599.92106      1950.301          40.750  
  22739813.680   121685335.66407      2268.395          42.750    22739817.960  
  94644167.29806      1764.305          40.500  
  20486254.360   109203280.85408      2480.723          46.000                  
                                                
  21506434.260   115004578.65408     -1351.305          45.750    21506438.520  
  89448028.90507     -1051.016          43.250  
  22340637.580   119507341.69607     -3771.273          44.500    22340644.800  
  92950185.35105     -2933.215          38.000  
 20 10 03 08 27 50.0000000  0 17G15G20G18G23G24G11G12G21G32G10R 7R 8
                                R 1R17R10R24R23
  23681542.840   124447338.29707     -3400.121          42.750    23681542.680  
  96971955.43706     -2649.449          39.000  
  20408126.760   107245427.82409     -1654.965          49.500    20408125.460  
  83567859.81608     -1289.586          45.250  
  24193868.340   127139631.21206     -3843.285          41.000    24193868.980  
  99069865.76105     -2994.773          36.750  
  20442244.560   107424720.52209     -1291.902          49.500    20442243.960  
  83707573.35408     -1006.680          46.750  
  20790474.700   109254690.86909     -1240.070          49.500    20790476.160  
  85133535.89109      -966.293          54.500  
  24202721.300   127186159.22506      1455.555          41.250    24202721.180  
  99106103.03804      1134.195          32.250  
  24592924.680   129236688.49806      3388.418          40.250                  
                                                
  23315436.080   122523451.86108      1103.246          47.000    23315434.640  
  95472820.66406       859.668          39.250  
  22467735.360   118068772.87108      2732.293          48.250    22467737.140  
  92001656.37209      2129.059          52.500  
  20554019.260   108012111.83909       972.012          51.750    20554020.460  
  84165292.67009       757.406          54.000  
  21785566.140   116619829.32408     -2997.324          44.750    21785570.040  
  90704322.36807     -2331.258          43.500  
  19432327.060   104059232.78108      -245.219          48.250    19432329.780  
  80934974.53108      -190.727          46.250  
  20574226.980   109981045.21807      2506.496          44.500    20574233.540  
  85540850.10906      1949.492          40.500  
  22737695.720   121674002.02907      2265.078          43.500    22737700.000  
  94635352.24206      1761.723          39.750  
  20483929.020   109190885.40608      2477.434          46.000                  
                                                
  21507699.600   115011344.97908     -1355.258          45.500    21507703.860  
  89453291.59407     -1054.094          43.000  
  22344163.340   119526202.10207     -3772.781          44.000    22344170.560  
  92964854.54405     -2934.391          37.000  
 20 10 03 08 27 55.0000000  0 17G15G20G18G23G24G11G12G21G32G10R 7R 8
                                R 1R17R10R24R23
  23684777.940   124464338.81007     -3400.316          43.000    23684777.800  
  96985202.56505     -2649.602          38.000  
  20409702.560   107253708.64109     -1657.297          49.750    20409701.240  
  83574312.40807     -1291.402          44.500  
  24197525.000   127158846.98706     -3843.371          40.750    24197525.620  
  99084839.07404     -2994.840          32.000  
  20443474.840   107431185.60809     -1294.266          49.500    20443474.220  
  83712611.08308     -1008.523          46.750  
  20791655.900   109260898.15209     -1242.926          49.500    20791657.360  
  85138372.73809      -968.516          54.500  
  24201337.600   127178887.82206      1452.945          41.250    24201337.440  
  99100437.03004      1132.164          34.750  
  24589700.860   129219747.18006      3387.879          40.250    24589700.180  
 100690713.51104      2639.902          34.250  
  23314387.360   122517940.81308      1100.980          47.250    23314385.940  
  95468526.33506       857.902          39.750  
  22465136.220   118055114.31208      2731.395          48.250    22465138.000  
  91991013.34009      2128.359          52.750  
  20553095.380   108007256.80909       969.879          51.750    20553096.580  
  84161509.53009       755.750          54.000  
  21788366.160   116634818.12807     -2998.316          44.250    21788370.060  
  90715980.33707     -2332.023          43.500  
  19432557.000   104060464.12308      -247.375          48.000    19432559.740  
  80935932.24008      -192.406          46.250  
  20571883.060   109968515.59307      2505.289          44.500    20571889.620  
  85531104.83506      1948.555          40.250  
  22735580.980   121662685.67907      2261.293          43.750    22735585.240  
  94626550.64706      1758.781          40.500  
  20481606.960   109178507.51908      2473.648          45.750                  
                                                
  21508968.620   115018131.01008     -1359.336          46.000    21508972.880  
  89458569.62207     -1057.262          42.750  
  22347690.760   119545071.35407     -3775.051          43.250    22347697.960  
  92979530.62205     -2936.156          36.750  
 20 10 03 08 28  0.0000000  0 17G15G20G18G23G24G11G12G21G32G10R 7R 8
                                R 1R17R10R24R23
  23688013.440   124481341.44807     -3400.852          43.000    23688013.280  
  96998451.38305     -2650.016          38.250  
  20411280.860   107262002.74509     -1660.277          49.500    20411279.560  
  83580775.34408     -1293.727          45.250  
  24201181.940   127178064.24507     -3843.844          42.250    24201182.560  
  99099813.55305     -2995.207          36.750  
  20444707.540   107437663.54809     -1297.047          49.500    20444706.920  
  83717658.82708     -1010.688          46.750  
  20792840.100   109267121.13009     -1246.230          49.500    20792841.560  
  85143221.80809      -971.094          54.500  
  24199956.840   127171631.83706      1449.324          41.250    24199956.680  
  99094783.00704      1129.340          34.000  
  24586477.340   129202808.80306      3387.371          40.500    24586477.100  
 100677514.78806      2639.512          40.250  
  23313341.040   122512442.33308      1098.180          47.000    23313339.600  
  95464241.81106       855.723          40.500  
  22462538.060   118041460.99108      2729.945          48.000    22462539.840  
  91980374.40209      2127.230          53.000  
  20552173.840   108002414.14609       967.063          51.750    20552175.040  
  84157736.03109       753.555          54.000  
  21791167.320   116649812.95508     -2999.648          44.750    21791171.220  
  90727642.98207     -2333.063          44.000  
  19432789.160   104061707.24908      -249.992          48.000    19432791.880  
  80936899.11808      -194.441          46.250  
  20569540.520   109955993.37408      2503.426          44.750    20569547.080  
  85521365.34306      1947.109          40.250  
  22733469.780   121651388.28007      2257.449          43.250    22733474.040  
  94617763.79006      1755.793          40.500  
  20479288.480   109166148.62308      2469.887          46.000                  
                                                
  21510241.600   115024938.17708     -1363.680          45.500    21510245.860  
  89463864.08307     -1060.645          42.750  
  22351220.060   119563950.81207     -3777.043          43.500    22351227.280  
  92994214.64505     -2937.703          37.000  
 20 10 03 08 28  5.0000000  0 17G15G20G18G23G24G11G12G21G32G10R 7R 8
                                R 1R17R10R24R23
  23691249.780   124498348.50307     -3401.301          42.750    23691249.640  
  97011703.61906     -2650.367          39.250  
  20412862.140   107270312.41709     -1663.059          49.500    20412860.820  
  83587250.41508     -1295.895          45.500  
  24204839.600   127197285.23806     -3844.230          41.000    24204840.220  
  99114790.91304     -2995.512          34.750  
  20445943.140   107444156.65409     -1299.699          49.500    20445942.520  
  83722718.39008     -1012.754          46.750  
  20794027.700   109273362.06809     -1249.551          49.500    20794029.160  
  85148084.87509      -973.680          54.750  
  24198579.500   127164393.67506      1446.039          40.750    24198579.340  
  99089142.85001      1126.777          25.000  
  24583255.020   129185875.88306      3386.727          40.000    24583255.200  
 100664320.31406      2639.008          39.750  
  23312297.540   122506958.73508      1095.566          46.750    23312296.100  
  95459968.87706       853.684          39.750  
  22459941.360   118027815.22508      2728.898          47.500    22459943.120  
  91969741.35309      2126.414          53.000  
  20551255.120   107997586.16709       964.598          51.750    20551256.320  
  84153973.96909       751.629          54.000  
  21793970.060   116664816.27907     -3001.059          44.250    21793973.960  
  90739312.23607     -2334.156          44.000  
  19433023.940   104062964.54708      -252.559          48.250    19433026.680  
  80937877.01008      -196.438          46.250  
  20567199.780   109943480.85508      2501.906          45.250    20567206.340  
  85511633.38806      1945.926          40.250  
  22731362.560   121640112.05607      2254.008          43.750    22731366.800  
  94608993.39306      1753.113          41.000  
  20476973.980   109153810.99808      2466.012          45.750                  
                                                
  21511518.980   115031768.92108     -1367.941          45.250    21511523.260  
  89469176.87107     -1063.957          42.500  
  22354751.780   119582843.10307     -3779.504          43.750    22354759.000  
  93008908.64305     -2939.617          37.250  
 20 10 03 08 28 10.0000000  0 17G15G20G18G23G24G11G12G21G32G10R 7R 8
                                R 1R17R10R24R23
  23694486.320   124515356.68307     -3401.863          43.500    23694486.180  
  97024956.75406     -2650.801          39.000  
  20414445.760   107278634.37809     -1665.879          49.500    20414444.460  
  83593735.04808     -1298.090          45.250  
  24208497.340   127216506.68907     -3844.551          41.500    24208497.940  
  99129768.66705     -2995.758          36.750  
  20447181.000   107450661.64209     -1302.418          49.250    20447180.380  
  83727787.21408     -1014.875          46.750  
  20795218.120   109279617.81509     -1252.855          49.250    20795219.600  
  85152959.48909      -976.250          54.750  
  24197204.860   127157169.97906      1442.805          40.250    24197204.700  
  99083514.00903      1124.254          28.250  
  24580033.180   129168945.03106      3385.563          40.500    24580033.520  
 100651127.46006      2638.105          40.000  
  23311256.240   122501486.69808      1092.828          47.000    23311254.820  
  95455704.95406       851.551          40.500  
  22457345.480   118014173.77008      2727.453          47.750    22457347.240  
  91959111.64409      2125.289          53.250  
  20550338.560   107992769.60309       961.926          51.750    20550339.760  
  84150220.79709       749.547          54.000  
  21796773.780   116679824.78707     -3002.578          43.750    21796777.680  
  90750985.51807     -2335.344          44.000  
  19433260.720   104064232.47408      -254.906          48.250    19433263.440  
  80938863.17608      -198.266          46.250  
  20564860.240   109930974.70808      2500.348          45.000    20564866.800  
  85501906.39106      1944.715          40.000  
  22729258.680   121628853.73507      2249.461          43.500    22729262.900  
  94600236.91506      1749.578          41.250  
  20474662.840   109141491.36408      2461.852          45.500                  
                                                
  21512800.120   115038619.74908     -1372.543          45.750    21512804.400  
  89474505.28507     -1067.539          42.500  
  22358285.200   119601744.44807     -3781.563          43.750    22358292.420  
  93023609.66805     -2941.219          37.500  
 20 10 03 08 28 15.0000000  0 17G15G20G18G23G24G11G12G21G32G10R 7R 8
                                R 1R17R10R24R23
  23697723.620   124532368.71707     -3402.977          43.250    23697723.480  
  97038212.87505     -2651.676          36.750  
  20416032.220   107286971.28609     -1668.887          49.750    20416030.920  
  83600231.33808     -1300.434          45.250  
  24212155.660   127235731.28807     -3845.379          41.500    24212156.260  
  99144748.86205     -2996.398          36.500  
  20448421.640   107457181.19709     -1305.504          49.250    20448421.020  
  83732867.38008     -1017.281          46.750  
  20796411.880   109285890.98709     -1256.445          49.250    20796413.340  
  85157847.67109      -979.051          54.750  
  24195833.540   127149963.48906      1439.352          40.250    24195833.380  
  99077898.53704      1121.570          35.250  
  24576812.220   129152018.93006      3384.520          38.750    24576812.680  
 100637938.30505      2637.293          38.250  
  23310217.660   122496028.91008      1089.961          46.750    23310216.240  
  95451452.12906       849.320          40.000  
  22454750.900   118000539.23108      2726.176          47.750    22454752.680  
  91948487.32809      2124.293          53.000  
  20549424.680   107987967.11609       959.074          51.750    20549425.880  
  84146478.60309       747.332          54.000  
  21799578.980   116694841.22407     -3003.871          43.000    21799582.880  
  90762664.95607     -2336.348          44.500  
  19433500.020   104065513.89308      -257.668          48.250    19433502.740  
  80939859.84508      -200.410          46.250  
  20562522.420   109918477.63708      2498.551          44.750    20562528.960  
  85492186.44506      1943.313          40.250  
  22727158.660   121617616.11407      2245.355          43.750    22727162.860  
  94591496.55406      1746.387          41.000  
  20472355.640   109129192.65008      2457.539          45.500                  
                                                
  21514085.540   115045493.46008     -1377.191          46.250    21514089.820  
  89479851.50907     -1071.148          42.750  
  22361820.860   119620657.83407     -3783.855          44.250    22361828.080  
  93038320.06905     -2943.004          37.500  
 20 10 03 08 28 20.0000000  0 17G15G20G18G23G24G11G12G21G32G10R 7R 8
                                R 1R17R10R24R23
  23700961.340   124549383.00607     -3402.613          43.000    23700961.200  
  97051470.75805     -2651.391          37.750  
  20417621.240   107295321.63809     -1671.387          49.750    20417619.920  
  83606738.11208     -1302.383          45.250  
  24215814.280   127254957.44506     -3844.883          40.500    24215814.880  
  99159730.28505     -2996.016          37.000  
  20449664.760   107463713.80009     -1307.711          49.500    20449664.120  
  83737957.71608     -1018.996          47.000  
  20797608.620   109292179.91209     -1259.148          49.500    20797610.080  
  85162748.12709      -981.160          54.500  
  24194465.160   127142772.68206      1436.703          40.000    24194464.980  
  99072295.33204      1119.504          32.500  
  24573591.880   129135096.10506      3384.508          40.500    24573592.460  
 100624751.71005      2637.277          37.000  
  23309181.500   122490583.88908      1087.766          46.750    23309180.080  
  95447209.26506       847.609          40.000  
  22452157.380   117986910.20008      2725.219          47.500    22452159.160  
  91937867.30809      2123.547          53.000  
  20548513.200   107983177.23009       956.840          51.750    20548514.400  
  84142746.22009       745.590          54.000  
  21802385.340   116709863.80807     -3005.133          43.500    21802389.240  
  90774349.17207     -2337.328          44.250  
  19433741.540   104066807.30208      -259.707          48.000    19433744.280  
  80940865.82408      -202.000          46.000  
  20560185.980   109905988.01307      2497.477          44.500    20560192.520  
  85482472.29306      1942.477          40.250  
  22725062.200   121606397.57307      2241.828          42.750    22725066.400  
  94582771.01807      1743.641          41.500  
  20470052.020   109116913.06908      2454.129          46.000                  
                                                
  21515374.940   115052388.45308     -1380.910          46.250    21515379.200  
  89485214.28507     -1074.043          42.750  
  22365358.460   119639581.57407     -3785.625          44.250    22365365.680  
  93053038.52505     -2944.379          37.250  
 20 10 03 08 28 25.0000000  0 17G15G20G18G23G24G11G12G21G32G10R 7R 8
                                R 1R17R10R24R23
  23704199.240   124566398.37207     -3403.395          43.500    23704199.100  
  97064729.50306     -2651.992          38.750  
  20419212.580   107303684.18609     -1673.797          50.000    20419211.280  
  83613254.37708     -1304.262          45.000  
  24219473.000   127274183.99307     -3845.574          41.750    24219473.600  
  99174711.98004     -2996.555          33.500  
  20450910.120   107470258.20809     -1310.242          49.500    20450909.480  
  83743057.25908     -1020.969          46.750  
  20798808.140   109298483.46609     -1262.180          49.500    20798809.600  
  85167659.99609      -983.516          54.500  
  24193099.560   127135596.30606      1433.848          40.000    24193099.380  
  99066703.33801      1117.281          24.750  
  24570371.960   129118175.34506      3383.871          41.000    24570372.600  
 100611566.71706      2636.781          39.500  
  23308147.560   122485150.38508      1085.465          46.500    23308146.120  
  95442975.35806       845.813          40.000  
  22449564.660   117973285.34808      2724.504          47.750    22449566.440  
  91927250.54409      2122.988          53.000  
  20547603.860   107978398.69209       954.457          51.750    20547605.060  
  84139022.69209       743.734          54.000  
  21805192.640   116724891.47307     -3006.145          44.250    21805196.560  
  90786037.33907     -2338.121          44.500  
  19433985.080   104068111.39208      -262.055          48.250    19433987.800  
  80941880.11108      -203.824          46.000  
  20557850.720   109893504.79808      2496.039          45.000    20557857.280  
  85472763.12206      1941.359          40.500  
  22722969.080   121595196.85507      2238.344          43.250    22722973.260  
  94574059.35607      1740.934          41.500  
  20467751.780   109104651.44808      2450.430          46.000                  
                                                
  21516668.100   115059303.59808     -1385.168          46.500    21516672.380  
  89490592.71907     -1077.355          42.750  
  22368897.760   119658514.42907     -3787.457          44.250    22368904.980  
  93067764.07905     -2945.805          37.250  
 20 10 03 08 28 30.0000000  0 17G15G20G18G23G24G11G12G21G32G10R 7R 8
                                R 1R17R10R24R23
  23707437.720   124583416.63907     -3403.824          43.250    23707437.580  
  97077990.47805     -2652.336          38.000  
  20420806.600   107312060.82009     -1676.680          49.750    20420805.300  
  83619781.62408     -1306.508          45.000  
  24223132.120   127293412.74107     -3845.707          41.500    24223132.700  
  99189695.41205     -2996.660          36.500  
  20452158.080   107476816.29009     -1312.996          49.500    20452157.460  
  83748167.44608     -1023.117          47.000  
  20800010.800   109304803.48209     -1265.648          49.500    20800012.260  
  85172584.68809      -986.219          54.500  
  24191737.040   127128436.31006      1430.359          39.000    24191736.820  
  99061124.15704      1114.566          31.750  
  24567152.780   129101258.56606      3382.895          41.250    24567153.460  
 100598384.81805      2636.023          38.250  
  23307116.160   122479730.29408      1082.684          46.500    23307114.720  
  95438751.90006       843.645          39.250  
  22446973.100   117959666.61908      2723.293          48.000    22446974.880  
  91916638.55009      2122.047          52.500  
  20546697.060   107973633.40509       951.766          51.750    20546698.260  
  84135309.48109       741.637          54.000  
  21808001.240   116739926.09407     -3007.730          44.500    21808005.160  
  90797730.93107     -2339.352          44.500  
  19434230.960   104069428.12208      -264.520          48.500    19434233.700  
  80942904.23508      -205.742          46.250  
  20555517.040   109881029.89008      2494.160          45.500    20555523.600  
  85463060.41606      1939.898          40.500  
  22720879.660   121584015.95407      2234.109          42.250    22720883.840  
  94565363.10407      1737.641          42.000  
  20465455.280   109092409.90108      2446.344          46.250                  
                                                
  21517965.360   115066240.60108     -1389.469          46.750    21517969.640  
  89495988.15907     -1080.703          43.000  
  22372439.120   119677458.39507     -3789.863          44.250    22372446.340  
  93082498.28305     -2947.672          37.000  
 20 10 03 08 28 35.0000000  0 17G15G20G18G23G24G11G12G21G32G10R 7R 8
                                R 1R17R10R24R23
  23710676.880   124600438.65807     -3405.098          43.500    23710676.760  
  97091254.39906     -2653.328          39.250  
  20422403.460   107320452.32609     -1679.871          49.750    20422402.140  
  83626320.45608     -1308.996          45.500  
  24226791.820   127312644.48407     -3846.840          41.500    24226792.400  
  99204681.16304     -2997.543          33.000  
  20453408.800   107483388.86509     -1316.145          49.500    20453408.180  
  83753288.93208     -1025.570          46.750  
  20801216.760   109311140.85209     -1269.512          49.250    20801218.220  
  85177522.89809      -989.234          54.500  
  24190377.800   127121293.49505      1426.586          37.750    24190377.600  
  99055558.32503      1111.617          31.000  
  24563934.540   129084346.56406      3382.039          40.750    24563935.240  
 100585206.63006      2635.352          40.000  
  23306087.440   122474324.40708      1079.598          46.750    23306086.020  
  95434539.52706       841.242          40.250  
  22444382.860   117946054.80308      2721.590          48.000    22444384.620  
  91906031.94809      2120.719          52.250  
  20545792.920   107968882.17509       948.695          51.750    20545794.120  
  84131607.22609       739.238          53.750  
  21810811.260   116754968.31907     -3009.434          44.500    21810815.160  
  90809430.44507     -2340.672          44.250  
  19434479.360   104070758.27908      -267.520          48.250    19434482.080  
  80943938.80608      -208.070          46.250  
  20553185.040   109868563.99008      2492.105          45.500    20553191.600  
  85453364.71706      1938.301          40.250  
  22718794.080   121572855.68007      2229.770          42.500    22718798.260  
  94556682.88907      1734.266          41.750  
  20463162.660   109080188.95208      2442.145          46.000                  
                                                
  21519266.880   115073200.43508     -1394.551          46.750    21519271.160  
  89501401.37007     -1084.652          42.750  
  22375982.680   119696414.02407     -3792.457          44.250    22375989.900  
  93097241.54005     -2949.691          37.500  
 20 10 03 08 28 40.0000000  0 17G15G20G18G23G24G11G12G21G32G10R 7R 8
                                R 1R17R10R24R23
  23713916.780   124617464.28407     -3405.375          43.500    23713916.640  
  97104521.10306     -2653.543          39.000  
  20424003.120   107328858.64909     -1682.559          49.750    20424001.820  
  83632870.83508     -1311.090          44.750  
  24230452.040   127331879.18507     -3847.094          41.500    24230452.600  
  99219669.28304     -2997.734          33.250  
  20454662.280   107489975.87609     -1318.555          49.500    20454661.640  
  83758421.65708     -1027.449          46.750  
  20802426.020   109317495.55109     -1272.441          49.500    20802427.480  
  85182474.60409      -991.516          54.500  
  24189021.840   127114167.69805      1423.738          35.750    24189021.640  
  99050005.70504      1109.398          34.000  
  24560717.160   129067439.31507      3380.801          41.500    24560717.900  
 100572032.17906      2634.395          39.500  
  23305061.420   122468932.66808      1077.066          46.000    23305060.000  
  95430338.16906       839.270          39.750  
  22441793.900   117932449.82908      2720.465          48.000    22441795.680  
  91895430.68009      2119.844          52.250  
  20544891.460   107964144.95209       946.309          51.750    20544892.680  
  84127915.87809       737.379          53.750  
  21813622.720   116770018.30008     -3010.551          44.750    21813626.620  
  90821135.99307     -2341.539          44.000  
  19434730.260   104072101.76708      -269.898          48.250    19434732.960  
  80944983.73908      -209.926          46.250  
  20550854.720   109856107.10508      2490.680          45.500    20550861.280  
  85443676.02906      1937.195          40.750  
  22716712.360   121561715.96807      2225.844          43.000    22716716.540  
  94548018.66807      1731.207          42.000  
  20460873.920   109067988.66408      2438.152          45.750                  
                                                
  21520572.660   115080182.92808     -1398.484          46.500    21520576.940  
  89506832.18107     -1087.715          42.500  
  22379528.440   119715381.37507     -3794.211          43.750    22379535.660  
  93111993.90105     -2951.059          37.500  
 20 10 03 08 28 45.0000000  0 17G15G20G18G23G24G11G12G21G32G10R 7R 8
                                R 1R17R10R24R23
  23717156.920   124634491.41407     -3405.598          43.500    23717156.780  
  97117789.00405     -2653.715          38.250  
  20425605.200   107337277.62009     -1684.996          49.750    20425603.900  
  83639431.07108     -1312.988          45.250  
  24234112.460   127351114.60207     -3846.730          41.750    24234113.020  
  99234657.87804     -2997.457          33.500  
  20455918.060   107496575.09709     -1320.922          49.500    20455917.440  
  83763563.90708     -1029.289          46.500  
  20803638.120   109323865.19809     -1275.320          49.500    20803639.580  
  85187437.96909      -993.762          54.500  
  24187668.660   127107056.87306      1420.773          38.750    24187668.440  
  99044464.86004      1107.102          34.000  
  24557500.280   129050534.58907      3380.945          41.750    24557501.020  
 100558859.68506      2634.504          39.500  
  23304037.680   122463552.90408      1074.848          45.750    23304036.260  
  95426146.15606       837.543          40.000  
  22439205.860   117918849.52408      2719.605          47.750    22439207.620  
  91884833.03509      2119.168          52.500  
  20543992.240   107959419.52709       944.039          51.750    20543993.460  
  84124233.72809       735.609          54.000  
  21816435.200   116785073.78707     -3011.500          44.500    21816439.120  
  90832845.81207     -2342.281          44.000  
  19434983.220   104073456.43408      -271.941          48.000    19434985.940  
  80946037.36908      -211.516          46.500  
  20548525.640   109843656.94408      2489.703          44.750    20548532.200  
  85433992.57706      1936.438          40.750  
  22714634.060   121550594.58107      2222.988          43.000    22714638.240  
  94539368.71307      1728.992          42.250  
  20458588.660   109055806.91808      2434.539          45.500                  
                                                
  21521882.260   115087185.98308     -1402.512          46.250    21521886.520  
  89512279.01407     -1090.844          43.000  
  22383075.980   119734358.35407     -3796.410          44.000    22383083.220  
  93126753.77305     -2952.766          37.750  
 20 10 03 08 28 50.0000000  0 17G15G20G18G23G24G11G12G21G32G10R 7R 8
                                R 1R17R10R24R23
  23720397.220   124651519.27907     -3405.945          43.250    23720397.080  
  97131057.47205     -2653.984          37.750  
  20427209.560   107345708.47809     -1687.457          49.500    20427208.240  
  83646000.56308     -1314.906          45.500  
  24237772.880   127370350.06207     -3847.246          42.000    24237773.440  
  99249646.50804     -2997.867          34.000  
  20457176.040   107503185.85009     -1323.461          49.500    20457175.420  
  83768715.14808     -1031.273          46.750  
  20804852.940   109330249.12309     -1278.305          49.500    20804854.400  
  85192412.45609      -996.082          54.500  
  24186318.200   127099960.19506      1417.797          39.000    24186317.960  
  99038934.99104      1104.773          35.250  
  24554283.780   129033631.77206      3380.277          41.250    24554284.480  
 100545688.67005      2633.984          38.500  
  23303016.100   122458184.39908      1072.559          45.750    23303014.660  
  95421962.91106       835.762          41.000  
  22436618.540   117905253.17608      2718.777          47.250    22436620.320  
  91874238.48609      2118.527          53.250  
  20543095.140   107954705.20909       941.668          51.750    20543096.340  
  84120560.23309       733.762          54.000  
  21819248.580   116800133.99107     -3012.531          44.250    21819252.500  
  90844559.29907     -2343.082          44.250  
  19435238.140   104074821.49308      -274.117          48.250    19435240.860  
  80947099.08308      -213.203          46.500  
  20546197.700   109831212.80808      2488.148          45.000    20546204.260  
  85424313.81906      1935.227          41.000  
  22712559.060   121539490.92807      2219.020          43.500    22712563.240  
  94530732.55907      1725.906          42.500  
  20456306.740   109043643.02708      2430.813          45.750                  
                                                
  21523195.520   115094208.60408     -1406.570          46.000    21523199.800  
  89517741.05407     -1094.000          42.750  
  22386625.120   119753343.87007     -3798.102          43.000    22386632.360  
  93141520.28205     -2954.082          37.500  
 20 10 03 08 28 55.0000000  0 17G15G20G18G23G24G11G12G21G32G10R 7R 8
                                R 1R17R10R24R23
  23723638.280   124668551.14307     -3406.684          43.250    23723638.140  
  97144329.04705     -2654.563          38.500  
  20428816.800   107354154.61809     -1690.461          49.500    20428815.480  
  83652581.97208     -1317.246          45.500  
  24241433.900   127389588.74707     -3847.969          41.750    24241434.460  
  99264637.66805     -2998.430          35.500  
  20458436.840   107509811.36209     -1326.336          49.500    20458436.220  
  83773877.87808     -1033.512          46.500  
  20806071.100   109336650.57809     -1281.918          49.250    20806072.560  
  85197400.60509      -998.902          54.750  
  24184971.100   127092881.04706      1414.406          39.750    24184970.860  
  99033418.74803      1102.137          29.500  
  24551068.240   129016734.10907      3379.004          41.500    24551068.900  
 100532521.67806      2632.988          40.250  
  23301997.260   122452830.42408      1069.520          45.750    23301995.820  
  95417790.98906       833.391          38.750  
  22434032.620   117891664.03508      2717.441          47.750    22434034.380  
  91863649.55809      2117.488          53.000  
  20542200.780   107950005.26009       938.723          51.750    20542201.980  
  84116897.93609       731.473          54.000  
  21822063.460   116815202.18307     -3014.129          43.500    21822067.380  
  90856278.99207     -2344.328          43.750  
  19435495.620   104076200.27808      -276.898          48.500    19435498.340  
  80948171.47008      -215.367          46.250  
  20543871.540   109818778.13408      2486.266          45.000    20543878.100  
  85414642.41406      1933.762          40.250  
  22710487.960   121528408.16307      2214.625          43.250    22710492.160  
  94522112.64807      1722.484          42.250  
  20454028.780   109031500.21608      2426.723          45.750                  
                                                
  21524513.100   115101254.29308     -1411.477          46.250    21524517.360  
  89523221.04107     -1097.816          42.250  
  22390176.540   119772341.50007     -3800.539          43.500    22390183.800  
  93156296.19405     -2955.980          37.250  
 20 10 03 08 29  0.0000000  0 17G15G20G18G23G24G11G12G21G32G10R 7R 8
                                R 1R17R10R24R23
  23726879.900   124685585.91607     -3406.992          44.000    23726879.760  
  97157602.89206     -2654.805          39.000  
  20430426.720   107362614.82609     -1693.160          49.500    20430425.400  
  83659174.34008     -1319.348          45.500  
  24245095.260   127408829.59207     -3848.422          41.750    24245095.800  
  99279630.60204     -2998.758          34.250  
  20459700.240   107516450.57709     -1328.926          49.500    20459699.620  
  83779051.29208     -1035.531          46.250  
  20807292.400   109343068.60809     -1284.957          49.500    20807293.860  
  85202401.66709     -1001.270          54.500  
  24183627.100   127085818.27406      1411.031          40.500    24183626.880  
  99027915.27804      1099.496          33.250  
  24547853.500   128999840.49407      3378.605          42.000    24547854.120  
 100519357.80805      2632.680          37.500  
  23300981.000   122447489.94208      1067.063          46.250    23300979.580  
  95413629.57205       831.473          38.500  
  22431447.860   117878081.07408      2716.363          47.500    22431449.640  
  91853065.43109      2116.645          53.000  
  20541308.940   107945318.62709       936.266          51.750    20541310.140  
  84113246.01609       729.559          54.000  
  21824879.620   116830277.32207     -3015.371          44.250    21824883.560  
  90868004.09407     -2345.293          43.750  
  19435755.440   104077591.65608      -279.414          48.000    19435758.160  
  80949253.65708      -217.320          46.000  
  20541546.920   109806351.70808      2484.840          45.250    20541553.480  
  85404977.40506      1932.648          39.750  
  22708420.600   121517345.32907      2210.895          43.000    22708424.820  
  94513508.22707      1719.586          42.000  
  20451754.560   109019377.43708      2422.879          45.750                  
                                                
  21525834.760   115108321.88908     -1415.477          46.000    21525839.040  
  89528718.06207     -1100.926          42.500  
  22393730.000   119791350.04607     -3802.508          44.000    22393737.240  
  93171080.61805     -2957.512          36.750  
 20 10 03 08 29  5.0000000  0 17G15G20G18G23G24G11G12G21G32G10R 7R 8
                                R 1R17R10R24R23
  23730121.920   124702622.80407     -3407.668          43.500    23730121.780  
  97170878.38106     -2655.328          39.750  
  20432039.180   107371088.27909     -1696.266          49.500    20432037.860  
  83665777.02908     -1321.770          45.500  
  24248756.940   127428071.77907     -3848.715          41.500    24248757.480  
  99294624.49204     -2999.004          35.000  
  20460966.100   107523102.70509     -1331.801          49.500    20460965.480  
  83784234.76508     -1037.770          46.750  
  20808516.700   109349502.30309     -1288.430          49.750    20808518.160  
  85207414.93709     -1003.977          54.500  
  24182286.080   127078771.11706      1407.852          41.000    24182285.840  
  99022423.98204      1097.020          34.000  
  24544639.360   128982950.20807      3377.590          42.000    24544639.920  
 100506196.57906      2631.891          39.000  
  23299967.160   122442162.13508      1064.094          46.250    23299965.740  
  95409478.02406       829.160          39.750  
  22428864.120   117864503.47608      2714.965          47.750    22428865.900  
  91842485.49009      2115.555          52.750  
  20540419.480   107940644.52609       933.484          51.750    20540420.680  
  84109603.85709       727.387          53.750  
  21827696.960   116845358.65907     -3016.984          44.500    21827700.880  
  90879734.02007     -2346.547          43.500  
  19436017.500   104078994.92208      -282.066          48.250    19436020.200  
  80950345.08608      -219.391          46.000  
  20539223.720   109793932.87208      2482.832          45.250    20539230.280  
  85395318.31306      1931.086          40.000  
  22706356.800   121506301.58507      2206.672          42.250    22706361.020  
  94504918.66706      1716.301          41.250  
  20449484.000   109007273.98308      2418.586          45.750                  
                                                
  21527160.400   115115410.64108     -1420.016          45.500    21527164.680  
  89534231.52807     -1104.461          42.500  
  22397285.340   119810368.72307     -3805.066          44.250    22397292.580  
  93185872.92005     -2959.500          36.750  
 20 10 03 08 29 10.0000000  0 17G15G20G18G23G24G11G12G21G32G10R 7R 8
                                R 1R17R10R24R23
  23733364.200   124719661.16907     -3408.008          43.250    23733364.080  
  97184155.02205     -2655.594          37.750  
  20433654.020   107379574.37609     -1698.938          49.500    20433652.700  
  83672389.56508     -1323.852          45.500  
  24252418.780   127447314.74407     -3849.121          41.500    24252419.320  
  99309618.98104     -2999.324          32.500  
  20462234.300   107529767.14909     -1334.277          49.500    20462233.680  
  83789427.84008     -1039.695          46.500  
  20809743.840   109355950.99109     -1291.477          49.750    20809745.280  
  85212439.89609     -1006.344          54.500  
  24180947.900   127071739.02306      1404.547          40.750    24180947.660  
  99016944.44504      1094.457          34.000  
  24541425.740   128966062.65007      3376.992          42.000    24541426.260  
 100493037.45306      2631.422          38.750  
  23298955.620   122436846.43008      1061.594          46.500    23298954.180  
  95405335.92106       827.215          40.750  
  22426281.300   117850930.64408      2713.949          47.500    22426283.060  
  91831909.26209      2114.762          53.250  
  20539532.300   107935982.35809       931.023          51.750    20539533.520  
  84105970.99709       725.469          54.000  
  21830515.280   116860445.38907     -3018.031          44.500    21830519.200  
  90891468.14407     -2347.359          43.250  
  19436281.640   104080409.33708      -284.105          48.250    19436284.340  
  80951445.18608      -220.977          46.000  
  20536901.800   109781520.83608      2481.324          45.250    20536908.360  
  85385664.50506      1929.918          40.000  
  22704296.460   121495276.36707      2203.148          42.500    22704300.700  
  94496343.50606      1713.559          41.000  
  20447216.900   108995189.14508      2414.824          46.000                  
                                                
  21528489.860   115122519.83208     -1424.094          46.250    21528494.120  
  89539760.89307     -1107.633          42.500  
  22400842.460   119829396.85707     -3806.730          43.750    22400849.720  
  93200672.55705     -2960.793          37.000  
 20 10 03 08 29 15.0000000  0 17G15G20G18G23G24G11G12G21G32G10R 7R 8
                                R 1R17R10R24R23
  23736607.020   124736702.29507     -3408.414          43.500    23736606.900  
  97197433.82006     -2655.910          39.750  
  20435271.520   107388074.35609     -1701.344          49.500    20435270.200  
  83679012.92708     -1325.727          45.500  
  24256080.980   127466559.69107     -3849.320          41.750    24256081.500  
  99324615.02904     -2999.477          34.000  
  20463505.080   107536445.10109     -1336.793          49.500    20463504.460  
  83794631.43308     -1041.660          46.500  
  20810974.080   109362415.96509     -1294.582          49.750    20810975.520  
  85217477.54409     -1008.766          54.500  
  24179612.840   127064723.17706      1401.773          41.000    24179612.600  
  99011477.54805      1092.285          37.250  
  24538212.880   128949179.01707      3376.320          42.000    24538213.340  
 100479881.40005      2630.902          38.250  
  23297946.600   122431544.02808      1059.254          46.500    23297945.180  
  95401204.17906       825.391          39.500  
  22423699.620   117837363.81108      2712.816          47.500    22423701.380  
  91821337.70609      2113.879          52.750  
  20538647.620   107931333.33309       928.629          51.750    20538648.840  
  84102348.37409       723.602          54.000  
  21833334.880   116875538.89707     -3019.313          44.500    21833338.800  
  90903207.53707     -2348.359          43.500  
  19436548.120   104081836.34108      -286.605          48.000    19436550.820  
  80952555.08308      -222.914          46.250  
  20534581.380   109769116.96908      2479.887          45.000    20534587.940  
  85376017.05906      1928.801          40.000  
  22702239.840   121484270.94607      2199.230          42.750    22702244.080  
  94487783.73406      1710.508          41.250  
  20444953.560   108983124.23208      2410.895          46.250                  
                                                
  21529823.380   115129650.76008     -1428.344          46.500    21529827.640  
  89545307.18007     -1110.934          42.500  
  22404401.560   119848435.66907     -3808.797          43.500    22404408.840  
  93215480.50605     -2962.402          37.250  
 20 10 03 08 29 20.0000000  0 17G15G20G18G23G24G11G12G21G32G10R 7R 8
                                R 1R17R10R24R23
  23739850.420   124753746.38007     -3409.066          43.500    23739850.300  
  97210714.91906     -2656.418          39.250  
  20436891.700   107396588.48909     -1704.180          49.500    20436890.380  
  83685647.31308     -1327.938          45.000  
  24259743.580   127485806.80507     -3849.395          42.000    24259744.100  
  99339612.78005     -2999.535          35.500  
  20464778.480   107543136.86309     -1339.707          49.500    20464777.860  
  83799845.79108     -1043.930          47.000  
  20812207.460   109368897.45409     -1297.840          50.000    20812208.900  
  85222528.05509     -1011.305          54.250  
  24178280.900   127057723.86906      1398.672          41.000    24178280.660  
  99006023.55605      1089.871          36.000  
  24535000.820   128932299.65907      3375.379          41.500    24535001.280  
 100466728.65906      2630.164          40.000  
  23296940.160   122426255.16908      1056.547          46.500    23296938.740  
  95397082.99006       823.285          40.000  
  22421119.120   117823803.24208      2711.520          47.500    22421120.880  
  91810771.02609      2112.867          53.000  
  20537765.500   107926697.74809       925.898          51.750    20537766.720  
  84098736.23409       721.480          54.000  
  21836155.840   116890639.59107     -3020.703          43.500    21836159.760  
  90914952.50007     -2349.441          43.500  
  19436816.920   104083275.79308      -288.977          48.250    19436819.620  
  80953674.65208      -224.762          46.250  
  20532262.560   109756721.50108      2478.371          45.250    20532269.120  
  85366376.14206      1927.621          40.250  
  22700186.960   121473285.56707      2195.219          43.500    22700191.220  
  94479239.54306      1707.434          41.000  
  20442694.000   108971079.40908      2407.051          46.250                  
                                                
  21531161.020   115136803.71708     -1432.746          46.000    21531165.280  
  89550870.59107     -1114.359          42.750  
  22407962.720   119867485.32707     -3810.898          44.250    22407969.980  
  93230296.88505     -2964.039          36.250  
 20 10 03 08 29 25.0000000  0 17G15G20G18G23G24G11G12G21G32G10R 7R 8
                                R 1R17R10R24R23
  23743094.100   124770792.00207     -3409.148          43.250    23743093.960  
  97223997.21606     -2656.484          40.250  
  20438514.320   107405115.33809     -1706.508          49.500    20438512.980  
  83692291.61208     -1329.750          45.500  
  24263406.340   127505054.73307     -3849.715          41.750    24263406.880  
  99354611.15104     -2999.781          35.000  
  20466054.220   107549840.94609     -1341.938          49.750    20466053.600  
  83805069.74508     -1045.668          46.250  
  20813443.740   109375394.14209     -1300.648          49.750    20813445.200  
  85227590.40309     -1013.496          54.500  
  24176951.840   127050739.66706      1395.742          41.000    24176951.600  
  99000581.32304      1087.590          34.250  
  24531789.320   128915423.18107      3375.297          41.750    24531789.740  
 100453578.18206      2630.102          39.750  
  23295936.040   122420978.45108      1054.195          46.750    23295934.620  
  95392971.25506       821.445          40.250  
  22418539.540   117810247.48408      2711.008          47.250    22418541.320  
  91800208.09809      2112.473          53.000  
  20536885.660   107922074.15309       923.711          51.750    20536886.860  
  84095133.43709       719.773          54.000  
  21838977.780   116905745.64907     -3021.555          43.750    21838981.700  
  90926701.65407     -2350.102          43.500  
  19437087.900   104084726.82208      -290.938          48.250    19437090.580  
  80954803.22808      -226.289          46.250  
  20529945.040   109744333.09308      2477.215          45.500    20529951.600  
  85356740.71306      1926.723          40.250  
  22698137.540   121462318.71807      2191.836          43.750    22698141.800  
  94470709.77506      1704.758          41.250  
  20440437.960   108959053.42808      2403.480          46.000                  
                                                
  21532502.480   115143977.12508     -1436.664          46.500    21532506.740  
  89556449.89807     -1117.410          42.750  
  22411525.640   119886544.53808     -3812.891          45.000    22411532.900  
  93245120.71205     -2965.586          36.500  
 20 10 03 08 29 30.0000000  0 17G15G20G18G23G24G11G12G21G32G10R 7R 8
                                R 1R17R10R24R23
  23746338.020   124787838.98207     -3409.648          44.000    23746337.900  
  97237280.58506     -2656.871          39.750  
  20440139.300   107413654.68109     -1708.996          49.750    20440137.980  
  83698945.63908     -1331.688          45.000  
  24267069.200   127524303.14506     -3849.828          41.000    24267069.720  
  99369609.91404     -2999.871          33.000  
  20467332.280   107556557.17609     -1344.473          49.750    20467331.660  
  83810303.17308     -1047.645          46.500  
  20814682.840   109381905.67509     -1303.867          49.750    20814684.300  
  85232664.32509     -1016.004          54.500  
  24175625.620   127043770.38106      1392.078          40.750    24175625.360  
  98995150.73504      1084.734          34.750  
  24528578.320   128898549.29407      3374.129          41.750    24528578.720  
 100440429.70206      2629.191          40.250  
  23294934.180   122415713.66208      1051.805          46.750    23294932.760  
  95388868.82706       819.590          40.750  
  22415960.840   117796696.35008      2709.586          47.500    22415962.600  
  91789648.78709      2111.367          52.750  
  20536008.060   107917462.36509       921.172          51.750    20536009.260  
  84091539.84009       717.797          54.000  
  21841800.720   116920857.11007     -3022.805          43.750    21841804.660  
  90938455.00707     -2351.074          43.250  
  19437360.900   104086188.80508      -293.469          48.250    19437363.600  
  80955940.33008      -228.254          46.000  
  20527628.820   109731951.54808      2475.527          45.500    20527635.360  
  85347110.62706      1925.410          40.250  
  22696091.580   121451370.35607      2187.551          43.500    22696095.840  
  94462194.37706      1701.426          41.250  
  20438185.380   108947045.86408      2399.410          45.500                  
                                                
  21533847.760   115151170.84808     -1440.887          46.750    21533852.020  
  89562045.00607     -1120.695          42.750  
  22415090.240   119905612.85108     -3814.543          45.250    22415097.500  
  93259951.63305     -2966.867          36.250  
 20 10 03 08 29 35.0000000  0 17G15G20G18G23G24G11G12G21G32G10R 7R 8
                                R 1R17R10R24R23
  23749582.480   124804888.70307     -3409.996          43.250    23749582.340  
  97250566.08206     -2657.145          40.500  
  20441766.940   107422207.97709     -1711.707          49.750    20441765.620  
  83705610.54308     -1333.801          45.000  
  24270732.420   127543553.58307     -3850.039          41.500    24270732.960  
  99384610.24904     -3000.035          34.500  
  20468612.940   107563287.02109     -1347.078          49.500    20468612.320  
  83815547.20008     -1049.676          46.500  
  20815925.060   109388433.59809     -1306.902          49.750    20815926.520  
  85237751.02209     -1018.371          54.500  
  24174302.520   127036817.43906      1389.277          40.000    24174302.260  
  98989732.86803      1082.555          29.250  
  24525368.080   128881679.45507      3373.723          41.750    24525368.460  
 100427284.40206      2628.879          40.500  
  23293934.880   122410462.29708      1049.301          46.250    23293933.460  
  95384776.85606       817.637          39.750  
  22413383.300   117783151.31808      2708.754          47.750    22413385.060  
  91779094.22309      2110.719          52.500  
  20535133.000   107912863.85409       918.668          52.000    20535134.200  
  84087956.58109       715.840          53.750  
  21844624.960   116935975.34107     -3024.039          42.750    21844628.880  
  90950213.62007     -2352.035          43.500  
  19437636.280   104087663.41808      -295.875          48.000    19437638.980  
  80957087.24908      -230.129          46.250  
  20525314.100   109719578.06508      2474.191          45.000    20525320.640  
  85337486.80906      1924.371          40.250  
  22694049.320   121440441.88307      2184.121          43.000    22694053.580  
  94453694.45907      1698.758          41.750  
  20435936.560   108935058.41408      2395.750          45.500                  
                                                
  21535197.100   115158386.34408     -1445.004          46.500    21535201.360  
  89567657.05207     -1123.895          42.750  
  22418656.860   119924691.86107     -3816.531          44.500    22418664.140  
  93274790.85405     -2968.418          36.500  
 20 10 03 08 29 40.0000000  0 17G15G20G18G23G24G11G12G21G32G10R 7R 8
                                R 1R17R10R24R23
  23752827.400   124821940.67607     -3410.805          43.500    23752827.260  
  97263853.30306     -2657.773          39.750  
  20443397.120   107430774.70709     -1714.875          49.750    20443395.800  
  83712285.92108     -1336.266          44.750  
  24274395.960   127562805.44707     -3850.680          41.500    24274396.480  
  99399611.67905     -3000.539          36.750  
  20469896.060   107570029.89109     -1350.180          49.750    20469895.420  
  83820801.39308     -1052.090          46.500  
  20817170.320   109394977.40709     -1310.688          49.750    20817171.760  
  85242850.09709     -1021.320          54.750  
  24172982.400   127029880.27106      1385.926          40.000    24172982.140  
  98984327.30604      1079.945          32.250  
  24522158.520   128864813.22707      3372.531          41.500    24522158.900  
 100414141.90706      2627.945          40.500  
  23292938.040   122405223.80508      1046.098          46.250    23292936.620  
  95380694.90606       815.141          40.750  
  22410806.820   117769611.82608      2707.180          48.000    22410808.580  
  91768543.97009      2109.492          52.750  
  20534260.340   107908278.06609       915.734          52.000    20534261.560  
  84084383.24309       713.559          53.750  
  21847450.360   116951099.84807     -3025.844          42.500    21847454.280  
  90961977.10907     -2353.438          43.000  
  19437913.900   104089149.98608      -298.828          48.000    19437916.580  
  80958243.46808      -232.422          46.250  
  20523000.840   109707212.30508      2472.246          45.000    20523007.380  
  85327869.00006      1922.859          40.500  
  22692010.700   121429532.79706      2179.859          40.750    22692014.960  
  94445209.60406      1695.441          40.000  
  20433691.420   108923090.51508      2391.316          45.750                  
                                                
  21536550.380   115165622.96908     -1449.746          46.250    21536554.640  
  89573285.54207     -1127.582          42.250  
  22422225.380   119943780.89707     -3819.031          43.500    22422232.640  
  93289637.86205     -2970.363          36.250  
 20 10 03 08 29 45.0000000  0 17G15G20G18G23G24G11G12G21G32G10R 7R 8
                                R 1R17R10R24R23
  23756073.100   124838996.95707     -3411.738          43.500    23756072.960  
  97277143.91806     -2658.500          39.500  
  20445030.280   107439356.94909     -1717.773          49.500    20445028.960  
  83718973.37308     -1338.527          45.250  
  24278060.120   127582060.82207     -3851.359          42.000    24278060.660  
  99414615.85703     -3001.063          30.750  
  20471182.060   107576787.89809     -1352.871          50.000    20471181.440  
  83826067.37008     -1054.184          46.000  
  20818418.960   109401539.03109     -1313.832          49.500    20818420.400  
  85247963.04809     -1023.770          54.500  
  24171665.720   127022961.00806      1382.156          39.000    24171665.460  
  98978935.66804      1077.004          32.000  
  24518950.040   128847952.61207      3371.418          41.500    24518950.440  
 100401003.76506      2627.078          39.500  
  23291944.020   122400000.27308      1043.516          47.000    23291942.620  
  95376624.63006       813.129          40.250  
  22408231.760   117756079.96608      2705.742          48.250    22408233.520  
  91757999.68309      2108.371          52.250  
  20533390.520   107903707.09109       912.953          51.750    20533391.720  
  84080821.44709       711.387          53.750  
  21850277.320   116966232.77607     -3026.922          43.250    21850281.240  
  90973747.16007     -2354.277          43.250  
  19438194.140   104090650.66608      -301.250          48.000    19438196.820  
  80959410.66608      -234.305          46.500  
  20520689.400   109694856.41708      2470.695          45.000    20520695.940  
  85318258.86206      1921.652          40.000  
  22689976.100   121418645.18207      2175.660          43.250    22689980.360  
  94436741.45907      1692.176          41.750  
  20431450.340   108911144.27308      2387.418          45.500                  
                                                
  21537908.020   115172882.86208     -1454.070          46.250    21537912.260  
  89578932.12307     -1130.949          42.750  
  22425796.180   119962882.21907     -3821.207          43.750    22425803.440  
  93304494.42805     -2972.059          36.500  
 20 10 03 08 29 50.0000000  0 17G15G20G18G23G24G11G12G21G32G10R 7R 8
                                R 1R17R10R24R23
  23759319.120   124856054.88407     -3411.887          43.250    23759318.980  
  97290435.79806     -2658.617          39.750  
  20446665.860   107447951.98009     -1720.637          49.500    20446664.520  
  83725670.80708     -1340.762          45.000  
  24281724.460   127601316.99606     -3851.797          41.250    24281725.000  
  99429620.66405     -3001.402          36.000  
  20472470.440   107583558.37809     -1355.531          49.750    20472469.820  
  83831343.06908     -1056.258          46.250  
  20819670.480   109408115.90809     -1317.051          49.500    20819671.940  
  85253087.89109     -1026.273          54.500  
  24170351.940   127016057.07406      1378.766          39.500    24170351.660  
  98973555.99905      1074.371          36.000  
  24515742.120   128831095.03306      3370.602          41.000    24515742.520  
 100387868.01006      2626.441          40.250  
  23290952.360   122394789.03608      1040.918          46.500    23290950.940  
  95372563.93306       811.105          40.000  
  22405657.680   117742553.11808      2704.633          48.250    22405659.440  
  91747459.28609      2107.508          52.250  
  20532523.020   107899148.27709       910.391          51.750    20532524.220  
  84077269.11609       709.391          54.000  
  21853105.320   116981371.34207     -3028.523          43.750    21853109.240  
  90985521.60907     -2355.523          43.250  
  19438476.520   104092162.80308      -303.824          48.000    19438479.180  
  80960586.77808      -236.309          46.250  
  20518379.300   109682507.60808      2468.949          44.750    20518385.840  
  85308654.24206      1920.293          40.250  
  22687945.000   121407776.36107      2171.668          43.000    22687949.260  
  94428287.93407      1689.074          41.500  
  20429212.820   108899216.97108      2383.395          45.500                  
                                                
  21539269.520   115180163.36308     -1458.422          46.250    21539273.760  
  89584594.72707     -1134.332          42.250  
  22429368.720   119981992.92607     -3823.387          44.250    22429375.980  
  93319358.29705     -2973.754          37.000  
 20 10 03 08 29 55.0000000  0 17G15G20G18G23G24G11G12G21G32G10R 7R 8
                                R 1R17R10R24R23
  23762565.720   124873115.80307     -3412.586          43.000    23762565.580  
  97303730.00306     -2659.160          40.250  
  20448304.140   107456561.14709     -1723.180          49.500    20448302.800  
  83732379.23708     -1342.742          45.250  
  24285389.200   127620575.32407     -3851.703          42.000    24285389.740  
  99444627.15305     -3001.332          36.750  
  20473761.440   107590342.63909     -1358.160          49.750    20473760.820  
  83836629.50208     -1058.309          46.500  
  20820925.160   109414709.22709     -1320.320          49.250    20820926.600  
  85258225.54309     -1028.824          54.750  
  24169041.320   127009169.70105      1375.648          38.000    24169041.060  
  98968189.20301      1071.930          25.000  
  24512535.040   128814241.77206      3370.723          41.250    24512535.460  
 100374735.60706      2626.539          40.500  
  23289963.280   122389591.41908      1038.184          46.500    23289961.880  
  95368513.84306       808.973          40.500  
  22403084.800   117729032.55008      2703.508          48.250    22403086.560  
  91736923.78109      2106.613          52.750  
  20531658.060   107894602.95809       907.762          51.750    20531659.280  
  84073727.31109       707.344          54.000  
  21855934.660   116996517.05607     -3029.566          44.250    21855938.580  
  90997301.61907     -2356.328          43.250  
  19438761.280   104093687.68008      -306.227          48.000    19438763.940  
  80961772.79508      -238.180          46.500  
  20516070.800   109670167.36908      2467.145          45.250    20516077.340  
  85299056.28406      1918.891          40.250  
  22685917.660   121396927.68807      2168.168          43.000    22685921.920  
  94419850.08106      1686.246          41.250  
  20426979.080   108887309.92308      2379.520          45.500                  
                                                
  21540635.120   115187465.78408     -1462.645          46.000    21540639.360  
  89590274.38407     -1137.617          42.500  
  22432943.320   120001114.49407     -3825.512          44.500    22432950.580  
  93334230.61605     -2975.402          37.500  
 20 10 03 08 30  0.0000000  0 17G15G20G18G23G24G11G12G21G32G10R 7R 8
                                R 1R17R10R24R23
  23765812.580   124890178.13607     -3412.816          43.250    23765812.460  
  97317025.32106     -2659.340          39.500  
  20449944.820   107465182.96309     -1725.684          49.500    20449943.480  
  83739097.53108     -1344.691          45.250  
  24289054.080   127639834.29307     -3852.000          41.750    24289054.640  
  99459634.08705     -3001.570          35.750  
  20475054.780   107597139.18709     -1360.523          49.750    20475054.160  
  83841925.51308     -1060.152          46.500  
  20822182.680   109421317.52609     -1323.145          49.250    20822184.120  
  85263374.86309     -1031.027          54.750  
  24167733.560   127002297.45706      1372.793          39.250    24167733.300  
  98962834.22004      1069.707          35.250  
  24509328.500   128797391.38807      3369.738          41.500    24509328.920  
 100361605.45206      2625.770          39.750  
  23288976.520   122384405.89808      1035.945          46.250    23288975.120  
  95364473.16206       807.227          40.000  
  22400512.840   117715516.77508      2702.762          48.500    22400514.600  
  91726392.01209      2106.047          52.500  
  20530795.400   107890069.63309       905.414          51.750    20530796.600  
  84070194.85609       705.516          54.000  
  21858765.000   117011668.07407     -3030.934          44.250    21858768.920  
  91009085.74607     -2357.398          43.500  
  19439048.140   104095223.77908      -308.355          48.000    19439050.800  
  80962967.53408      -239.836          46.250  
  20513763.600   109657834.04608      2466.082          45.500    20513770.120  
  85289463.70006      1918.063          40.250  
  22683893.800   121386097.64907      2164.098          43.000    22683898.060  
  94411426.72806      1683.188          41.250  
  20424748.860   108875421.64008      2375.613          45.500                  
                                                
  21542004.520   115194788.55708     -1466.820          46.250    21542008.760  
  89595969.87007     -1140.863          42.250  
  22436519.620   120020245.23707     -3827.016          44.500    22436526.880  
  93349110.06805     -2976.570          37.500  
 20 10 03 08 30  5.0000000  0 17G15G20G18G23G24G11G12G21G32G10R 7R 8
                                R 1R17R10R24R23
  23769059.800   124907242.40307     -3413.137          42.500    23769059.680  
  97330322.15206     -2659.586          40.500  
  20451587.980   107473817.86909     -1728.324          49.500    20451586.660  
  83745826.01708     -1346.750          45.250  
  24292719.140   127659094.31907     -3852.207          42.000    24292719.700  
  99474641.90705     -3001.719          36.500  
  20476350.560   107603948.49109     -1363.098          49.750    20476349.920  
  83847231.46408     -1062.152          46.500  
  20823443.140   109427941.27009     -1326.254          49.250    20823444.600  
  85268536.21309     -1033.449          54.750  
  24166428.800   126995440.72405      1370.531          38.500    24166428.540  
  98957491.27404      1067.938          34.500  
  24506122.600   128780544.36906      3368.934          40.750    24506123.060  
 100348477.89506      2625.141          39.750  
  23287992.140   122379232.96908      1033.359          46.500    23287990.740  
  95360442.31306       805.211          39.500  
  22397941.860   117702006.28408      2701.512          48.500    22397943.620  
  91715864.37109      2105.074          52.000  
  20529935.100   107885548.77409       902.977          51.750    20529936.320  
  84066672.11109       703.617          54.000  
  21861596.480   117026825.14407     -3031.977          44.000    21861600.400  
  91020874.56607     -2358.207          43.250  
  19439337.180   104096771.58308      -310.699          48.250    19439339.840  
  80964171.38608      -241.656          46.250  
  20511457.800   109645508.27508      2464.492          45.500    20511464.340  
  85279876.99106      1916.824          40.750  
  22681873.520   121375286.80607      2160.277          42.500    22681877.800  
  94403018.30107      1680.215          41.500  
  20422522.280   108863552.70008      2371.898          45.500                  
                                                
  21543377.820   115202132.16708     -1470.855          46.750    21543382.040  
  89601681.56007     -1144.004          42.500  
  22440097.720   120039385.67507     -3828.859          44.250    22440105.000  
  93363997.05805     -2978.008          36.250  
 20 10 03 08 30 10.0000000  0 17G15G20G18G23G24G11G12G21G32G10R 7R 8
                                R 1R17R10R24R23
  23772307.700   124924310.08607     -3413.785          41.500    23772307.580  
  97343621.62106     -2660.098          40.250  
  20453233.940   107482467.40809     -1731.707          49.750    20453232.620  
  83752565.92108     -1349.387          45.250  
  24296384.680   127678356.92706     -3852.980          41.250    24296385.220  
  99489651.75405     -3002.324          35.750  
  20477649.040   107610772.04409     -1366.445          49.750    20477648.400  
  83852548.52108     -1064.766          46.250  
  20824706.840   109434581.99009     -1330.211          49.250    20824708.280  
  85273710.79809     -1036.531          54.500  
  24165127.200   126988601.18505      1365.688          38.250    24165126.920  
  98952161.86603      1064.188          30.000  
  24502917.640   128763702.22007      3367.938          41.750    24502918.100  
 100335354.14806      2624.367          38.750  
  23287010.460   122374074.16208      1030.211          46.500    23287009.040  
  95356422.46906       802.758          39.500  
  22395372.200   117688502.60108      2699.629          48.250    22395373.940  
  91705342.02709      2103.605          52.000  
  20529077.480   107881041.91309       899.824          51.750    20529078.680  
  84063160.26909       701.156          53.750  
  21864429.340   117041989.70807     -3033.867          44.000    21864433.260  
  91032669.22907     -2359.680          43.000  
  19439628.680   104098332.65908      -313.848          48.000    19439631.360  
  80965385.55808      -244.105          46.500  
  20509153.700   109633191.54008      2462.145          45.000    20509160.220  
  85270297.31006      1915.000          40.500  
  22679857.100   121364496.61807      2155.906          42.250    22679861.380  
  94394625.94307      1676.816          41.500  
  20420299.600   108851704.68808      2367.180          45.750                  
                                                
  21544755.280   115209498.07308     -1475.566          46.250    21544759.500  
  89607410.59807     -1147.668          42.250  
  22443677.900   120058537.22407     -3831.523          44.250    22443685.160  
  93378892.71205     -2980.074          36.500  
 20 10 03 08 30 15.0000000  0 17G15G20G18G23G24G11G12G21G32G10R 7R 8
                                R 1R17R10R24R23
  23775555.760   124941378.72706     -3413.777          41.250    23775555.620  
  97356921.86306     -2660.086          40.750  
  20454882.220   107491129.13809     -1733.609          50.000    20454880.880  
  83759315.32008     -1350.867          45.500  
  24300050.280   127697619.62707     -3852.441          42.250    24300050.860  
  99504661.59205     -3001.914          37.250  
  20478949.760   107617607.38209     -1368.273          49.500    20478949.120  
  83857874.75608     -1066.191          46.500  
  20825973.260   109441237.18509     -1332.520          49.500    20825974.720  
  85278896.67009     -1038.328          54.500  
  24163828.460   126981776.16305      1363.914          38.000    24163828.180  
  98946843.64004      1062.785          31.750  
  24499713.120   128746862.50307      3367.266          41.500    24499713.600  
 100322232.30506      2623.844          39.250  
  23286030.980   122368927.00408      1028.281          46.750    23286029.580  
  95352411.69906       801.254          40.250  
  22392803.340   117675003.22109      2699.477          48.750    22392805.080  
  91694823.03809      2103.488          52.000  
  20528222.060   107876546.58009       897.918          52.000    20528223.260  
  84059657.40809       699.676          53.750  
  21867263.120   117057159.15207     -3034.348          44.000    21867267.040  
  91044467.68307     -2360.047          43.250  
  19439922.240   104099904.55808      -315.430          48.000    19439924.900  
  80966608.14008      -245.340          46.500  
  20506850.800   109620881.21708      2461.398          45.250    20506857.320  
  85260722.62506      1914.422          40.500  
  22677844.100   121353724.60307      2152.426          42.000    22677848.380  
  94386247.70706      1674.109          41.000  
  20418080.400   108839875.07608      2364.055          45.750                  
                                                
  21546136.480   115216883.90508     -1479.113          46.000    21546140.700  
  89613155.12807     -1150.426          42.750  
  22447259.740   120077697.58307     -3832.730          44.000    22447267.000  
  93393795.21105     -2981.012          37.000  
 20 10 03 08 30 20.0000000  0 17G15G20G18G23G24G11G12G21G32G10R 7R 8
                                R 1R17R10R24R23
  23778804.300   124958449.78907     -3414.457          41.500    23778804.180  
  97370223.96206     -2660.625          39.500  
  20456533.060   107499804.46609     -1736.445          49.750    20456531.740  
  83766075.32408     -1353.074          45.000  
  24303716.140   127716883.91207     -3852.844          41.500    24303716.720  
  99519672.73906     -3002.219          38.750  
  20480253.020   107624456.01209     -1371.082          49.500    20480252.380  
  83863211.34308     -1068.379          46.500  
  20827242.720   109447908.25509     -1335.879          49.250    20827244.180  
  85284094.90909     -1040.949          54.500  
  24162532.820   126974967.43705      1359.953          38.500    24162532.540  
  98941538.13501      1059.699          21.250  
  24496509.360   128730026.74907      3366.605          42.000    24496509.820  
 100309113.56206      2623.332          39.500  
  23285054.020   122363793.01608      1025.375          46.500    23285052.620  
  95348411.18406       798.988          40.000  
  22390235.600   117661509.68308      2697.977          48.500    22390237.360  
  91684308.58809      2102.320          52.000  
  20527369.100   107872064.26109       895.098          51.750    20527370.300  
  84056164.69809       697.477          54.000  
  21870098.140   117072335.14507     -3035.848          43.750    21870102.060  
  91056271.22107     -2361.219          43.500  
  19440218.060   104101488.69808      -318.180          48.250    19440220.720  
  80967840.25508      -247.473          46.250  
  20504549.400   109608578.96308      2459.613          45.500    20504555.920  
  85251154.20306      1913.027          40.750  
  22675834.760   121342972.30207      2148.543          43.250    22675839.040  
  94377884.81406      1671.090          41.250  
  20415864.880   108828065.19808      2359.828          45.750                  
                                                
  21547521.660   115224291.08808     -1483.566          46.250    21547525.880  
  89618916.26207     -1153.891          43.250  
  22450843.440   120096868.05507     -3835.191          44.500    22450850.720  
  93408705.58105     -2982.930          36.250  
 20 10 03 08 30 25.0000000  0 17G15G20G18G23G24G11G12G21G32G10R 7R 8
                                R 1R17R10R24R23
  23782053.460   124975524.21607     -3415.215          41.500    23782053.360  
  97383528.69006     -2661.215          40.750  
  20458186.700   107508494.34809     -1739.387          49.500    20458185.380  
  83772846.65608     -1355.371          45.750  
  24307382.500   127736150.68007     -3853.574          41.500    24307383.080  
  99534685.78204     -3002.789          35.250  
  20481558.980   107631318.84209     -1373.988          49.500    20481558.340  
  83868559.00208     -1070.645          46.500  
  20828515.400   109454596.14209     -1339.309          49.250    20828516.860  
  85289306.24309     -1043.621          54.750  
  24161240.380   126968175.66306      1356.746          39.000    24161240.100  
  98936245.85004      1057.203          33.000  
  24493306.540   128713195.95807      3365.395          42.750    24493307.040  
 100295998.65606      2622.387          40.250  
  23284079.740   122358673.07408      1022.660          46.250    23284078.320  
  95344421.61506       796.875          39.750  
  22387669.160   117648022.89708      2696.637          48.000    22387670.900  
  91673799.41109      2101.273          52.750  
  20526518.800   107867595.89309       892.238          51.750    20526520.000  
  84052682.85109       695.246          54.000  
  21872934.500   117087518.46107     -3037.629          44.250    21872938.440  
  91068080.45607     -2362.605          43.250  
  19440516.340   104103085.92808      -320.758          48.250    19440519.000  
  80969082.54508      -249.480          46.250  
  20502249.680   109596285.63608      2457.871          45.500    20502256.180  
  85241592.73506      1911.676          40.500  
  22673829.300   121332240.67207      2144.070          42.500    22673833.560  
  94369537.99907      1667.609          41.750  
  20413653.300   108816276.19808      2355.691          46.000                  
                                                
  21548911.000   115231720.54808     -1488.254          46.500    21548915.220  
  89624694.73507     -1157.535          43.000  
  22454429.220   120116049.52807     -3837.367          44.250    22454436.480  
  93423624.51005     -2984.617          36.000  
 20 10 03 08 30 30.0000000  0 17G15G20G18G23G24G11G12G21G32G10R 7R 8
                                R 1R17R10R24R23
  23785303.160   124992601.46007     -3415.809          42.000    23785303.060  
  97396835.62406     -2661.672          40.500  
  20459843.000   107517198.21609     -1742.000          49.250    20459841.680  
  83779628.87808     -1357.406          45.500  
  24311049.220   127755419.39707     -3853.777          42.000    24311049.800  
  99549700.36904     -3002.945          35.000  
  20482867.520   107638195.30809     -1376.449          49.500    20482866.880  
  83873917.29108     -1072.559          46.750  
  20829791.180   109461300.44809     -1342.254          49.500    20829792.640  
  85294530.38209     -1045.918          54.500  
  24159951.120   126961400.37206      1353.367          39.500    24159950.840  
  98930966.35803      1054.563          28.500  
  24490104.560   128696369.46107      3364.879          41.750    24490105.060  
 100282887.10407      2621.984          41.500  
  23283108.020   122353566.67208      1019.996          45.750    23283106.600  
  95340442.59906       794.797          40.750  
  22385103.880   117634542.31208      2695.605          48.250    22385105.620  
  91663295.07309      2100.473          52.750  
  20525671.060   107863140.96109       889.773          51.750    20525672.260  
  84049211.47309       693.324          54.000  
  21875772.200   117102708.75707     -3038.785          44.000    21875776.120  
  91079895.12107     -2363.504          43.000  
  19440816.980   104104695.87908      -323.180          48.000    19440819.640  
  80970334.73008      -251.367          46.250  
  20499951.520   109584000.65408      2456.508          45.500    20499958.020  
  85232037.74706      1910.617          40.750  
  22671827.600   121321529.18707      2140.395          43.000    22671831.880  
  94361206.83607      1664.746          41.750  
  20411445.500   108804507.48308      2351.930          46.000                  
                                                
  21550304.400   115239171.66608     -1492.320          46.250    21550308.620  
  89630490.05707     -1160.695          42.750  
  22458016.960   120135241.60907     -3839.520          44.500    22458024.220  
  93438551.69705     -2986.293          36.000  
 20 10 03 08 30 35.0000000  0 17G15G20G18G23G24G11G12G21G32G10R 7R 8
                                R 1R17R10R24R23
  23788553.000   125009679.51407     -3415.941          42.000    23788552.900  
  97410143.21206     -2661.773          39.000  
  20461501.580   107525914.09409     -1744.598          49.250    20461500.260  
  83786420.46608     -1359.430          45.500  
  24314715.920   127774688.06507     -3853.898          42.000    24314716.500  
  99564714.90905     -3003.043          36.500  
  20484178.300   107645083.45809     -1379.027          49.500    20484177.660  
  83879284.68408     -1074.570          46.750  
  20831069.700   109468019.08709     -1345.309          49.500    20831071.160  
  85299765.68709     -1048.293          54.500  
  24158664.600   126954639.69106      1350.234          39.500    24158664.360  
  98925698.27704      1052.121          31.500  
  24486903.020   128679545.33107      3364.297          42.000    24486903.520  
 100269777.39806      2621.531          39.750  
  23282138.480   122348471.82608      1017.473          45.750    23282137.080  
  95336472.60106       792.836          39.500  
  22382539.400   117621065.98608      2694.609          48.000    22382541.160  
  91652794.04009      2099.695          52.750  
  20524825.480   107858697.47609       887.355          51.750    20524826.680  
  84045749.01809       691.441          54.000  
  21878610.760   117117903.77507     -3039.684          44.250    21878614.680  
  91091713.45907     -2364.203          42.500  
  19441119.620   104106316.49708      -325.387          48.000    19441122.280  
  80971595.21208      -253.078          46.250  
  20497654.580   109571722.12108      2455.023          45.000    20497661.080  
  85222487.77906      1909.461          40.750  
  22669829.300   121310835.90407      2136.695          43.750    22669833.560  
  94352889.84407      1661.875          42.250  
  20409241.160   108792757.08108      2347.875          45.750                  
                                                
  21551701.500   115246642.58708     -1496.344          46.000    21551705.720  
  89636300.76907     -1163.828          42.750  
  22461606.320   120154442.17407     -3841.293          43.750    22461613.580  
  93453485.45505     -2987.676          37.000  
 20 10 03 08 30 40.0000000  0 17G15G20G18G23G24G11G12G21G32G10R 7R 8
                                R 1R17R10R24R23
  23791803.340   125026760.01807     -3416.504          42.000    23791803.220  
  97423452.67406     -2662.215          39.000  
  20463162.740   107534643.59109     -1747.160          49.500    20463161.420  
  83793222.66908     -1361.426          45.250  
  24318382.920   127793958.24307     -3854.324          42.000    24318383.520  
  99579730.61405     -3003.375          37.000  
  20485491.600   107651984.90409     -1381.453          49.500    20485490.960  
  83884662.43208     -1076.461          46.250  
  20832351.240   109474753.65109     -1348.410          49.500    20832352.700  
  85305013.40409     -1050.711          54.500  
  24157381.140   126947895.13106      1347.621          40.250    24157380.900  
  98920442.78704      1050.094          32.000  
  24483702.240   128662725.23607      3363.301          42.750    24483702.740  
 100256670.85206      2620.754          39.000  
  23281171.480   122343390.12508      1014.887          45.750    23281170.080  
  95332512.82006       790.820          39.750  
  22379976.060   117607595.52008      2693.621          48.250    22379977.800  
  91642297.57109      2098.922          52.500  
  20523982.400   107854267.05609       884.785          51.750    20523983.600  
  84042296.74409       689.438          54.000  
  21881450.520   117133105.31807     -3040.652          44.500    21881454.460  
  91103536.88407     -2364.953          42.750  
  19441424.560   104107949.38908      -327.754          48.250    19441427.220  
  80972865.23108      -254.922          46.000  
  20495359.140   109559451.69508      2453.285          44.750    20495365.640  
  85212944.11806      1908.109          40.250  
  22667834.700   121300162.36707      2132.594          43.500    22667838.940  
  94344588.21107      1658.684          42.000  
  20407040.560   108781026.66308      2344.113          45.500                  
                                                
  21553102.580   115254134.81008     -1500.625          46.000    21553106.800  
  89642128.05407     -1167.156          42.250  
  22465197.560   120173652.82707     -3843.074          44.000    22465204.840  
  93468427.04905     -2989.063          36.500  
 20 10 03 08 30 45.0000000  0 17G15G20G18G23G24G11G12G21G32G10R 7R 8
                                R 1R17R10R24R23
  23795054.360   125043844.28907     -3417.566          42.000    23795054.240  
  97436765.10606     -2663.043          39.000  
  20464826.780   107543388.10909     -1750.395          49.500    20464825.460  
  83800036.57308     -1363.949          45.750  
  24322050.460   127813231.32207     -3854.574          41.750    24322051.060  
  99594748.60205     -3003.566          38.500  
  20486807.700   107658901.00409     -1384.508          49.500    20486807.060  
  83890051.59008     -1078.840          46.750  
  20833636.100   109481505.66509     -1352.113          49.250    20833637.560  
  85310274.71309     -1053.594          54.500  
  24156101.040   126941168.11806      1343.750          40.000    24156100.800  
  98915200.95404      1047.074          35.250  
  24480502.500   128645910.49507      3362.543          42.750    24480503.000  
 100243568.47006      2620.164          39.250  
  23280207.220   122338322.95208      1012.246          45.750    23280205.820  
  95328564.38506       788.758          39.750  
  22377414.100   117594132.27208      2691.918          48.500    22377415.840  
  91631806.73409      2097.598          52.250  
  20523142.060   107849851.07109       881.707          52.000    20523143.260  
  84038855.72509       687.039          53.750  
  21884291.780   117148314.71207     -3042.707          44.500    21884295.700  
  91115366.41407     -2366.555          42.750  
  19441732.060   104109596.05408      -330.484          48.000    19441734.720  
  80974145.97408      -257.047          46.000  
  20493065.460   109547190.70908      2451.262          45.000    20493071.960  
  85203407.79806      1906.535          40.500  
  22665844.040   121289510.00807      2128.152          43.250    22665848.300  
  94336303.04807      1655.227          42.000  
  20404843.960   108769317.62608      2339.719          45.500                  
                                                
  21554507.880   115261649.64808     -1505.164          46.250    21554512.100  
  89647972.93607     -1170.684          42.000  
  22468790.920   120192874.87807     -3845.395          44.250    22468798.200  
  93483377.52705     -2990.867          37.000  
 20 10 03 08 30 50.0000000  0 17G15G20G18G23G24G11G12G21G32G10R 7R 8
                                R 1R17R10R24R23
  23798305.700   125060930.16707     -3417.113          41.500    23798305.600  
  97450078.75506     -2662.691          38.750  
  20466493.240   107552145.44509     -1752.664          49.500    20466491.920  
  83806860.47508     -1365.715          45.250  
  24325718.140   127832505.14507     -3854.840          42.500    24325718.740  
  99609767.16504     -3003.773          35.000  
  20488126.160   107665829.61609     -1386.844          49.500    20488125.520  
  83895450.50408     -1080.660          46.750  
  20834923.840   109488272.78209     -1354.766          49.250    20834925.300  
  85315547.79509     -1055.660          54.500  
  24154823.860   126934456.50806      1340.785          40.750    24154823.600  
  98909971.14604      1044.773          33.750  
  24477303.360   128629099.03207      3362.340          43.250    24477303.840  
 100230468.66006      2620.008          38.750  
  23279245.340   122333268.23008      1009.691          45.750    23279243.920  
  95324625.65206       786.773          39.750  
  22374853.080   117580674.11308      2691.184          48.250    22374854.820  
  91621319.86309      2097.027          52.500  
  20522304.080   107845447.39309       879.645          52.000    20522305.260  
  84035424.29009       685.438          53.750  
  21887134.080   117163529.72907     -3043.273          44.500    21887138.000  
  91127200.31007     -2366.996          43.000  
  19442041.680   104111254.12708      -332.742          48.000    19442044.360  
  80975435.58508      -258.805          46.250  
  20490773.160   109534937.00908      2450.195          45.250    20490779.640  
  85193877.14606      1905.707          40.750  
  22663856.940   121278876.70107      2124.785          44.000    22663861.200  
  94328032.70507      1652.609          42.500  
  20402650.940   108757627.63308      2336.070          45.500                  
                                                
  21555917.040   115269185.00108     -1509.031          46.500    21555921.260  
  89653833.76607     -1173.695          42.000  
  22472386.020   120212106.20407     -3847.219          44.500    22472393.320  
  93498335.22005     -2992.285          37.000  
 20 10 03 08 30 55.0000000  0 17G15G20G18G23G24G11G12G21G32G10R 7R 8
                                R 1R17R10R24R23
  23801557.080   125078016.32907     -3417.711          42.250    23801556.980  
  97463392.65406     -2663.156          39.750  
  20468161.880   107560914.26509     -1755.156          49.500    20468160.580  
  83813693.32208     -1367.656          45.500  
  24329385.720   127851778.34207     -3855.086          42.500    24329386.340  
  99624785.21805     -3003.969          36.000  
  20489446.760   107672769.34209     -1389.320          49.500    20489446.120  
  83900858.07908     -1082.590          46.750  
  20836214.200   109495053.63509     -1357.941          49.250    20836215.640  
  85320831.57909     -1058.141          54.750  
  24153549.340   126927758.87606      1337.957          40.750    24153549.080  
  98904752.20804      1042.559          31.750  
  24474104.580   128612289.50507      3361.180          43.500    24474105.080  
 100217370.35006      2619.102          38.750  
  23278285.540   122328224.51308      1007.324          45.750    23278284.160  
  95320695.47406       784.930          39.500  
  22372292.780   117567219.66108      2690.344          48.500    22372294.520  
  91610835.87309      2096.371          52.500  
  20521468.160   107841054.65109       877.250          51.750    20521469.360  
  84032001.37609       683.570          54.000  
  21889977.180   117178749.09008     -3044.578          44.750    21889981.100  
  91139037.58707     -2368.008          43.250  
  19442353.240   104112922.44208      -334.961          48.000    19442355.900  
  80976733.16108      -260.527          46.250  
  20488481.940   109522689.19208      2448.910          45.000    20488488.440  
  85184351.06806      1904.707          40.500  
  22661873.140   121268261.02707      2120.980          44.000    22661877.380  
  94319776.08007      1649.652          42.250  
  20400461.280   108745955.56108      2332.359          45.500                  
                                                
  21557329.760   115276739.43108     -1513.004          47.000    21557333.980  
  89659709.43407     -1176.781          42.250  
  22475982.580   120231345.31307     -3848.973          44.250    22475989.860  
  93513298.96805     -2993.648          36.750  
 20 10 03 08 31  0.0000000  0 17G15G20G18G23G24G11G12G21G32G10R 7R 8
                                R 1R17R10R24R23
  23804809.200   125095106.27707     -3418.125          42.250    23804809.100  
  97476709.49606     -2663.473          39.500  
  20469833.400   107569698.11709     -1758.395          49.500    20469832.100  
  83820537.87808     -1370.176          45.750  
  24333053.840   127871054.42407     -3855.727          42.500    24333054.460  
  99639805.54005     -3004.461          36.500  
  20490770.140   107679723.78309     -1392.598          49.500    20490769.500  
  83906277.13208     -1085.141          46.750  
  20837507.860   109501851.91409     -1361.637          49.500    20837509.320  
  85326128.93909     -1061.020          54.500  
  24152278.200   126921078.92407      1333.813          41.500    24152277.940  
  98899547.03903      1039.332          28.250  
  24470906.880   128595485.43607      3359.883          43.000    24470907.380  
 100204276.27206      2618.090          39.250  
  23277328.520   122323195.42608      1004.090          45.500    23277327.120  
  95316776.72906       782.406          41.250  
  22369733.880   117553772.51709      2688.445          49.000    22369735.600  
  91600357.58509      2094.891          52.250  
  20520635.020   107836676.43109       874.023          51.750    20520636.200  
  84028589.77609       681.059          54.000  
  21892821.760   117193976.33308     -3046.461          45.250    21892825.680  
  91150880.99407     -2369.473          43.000  
  19442667.340   104114604.50008      -337.992          48.000    19442670.000  
  80978041.43408      -262.883          46.000  
  20486192.540   109510450.99708      2446.438          45.500    20486199.020  
  85174832.47606      1902.785          40.500  
  22659893.320   121257666.68007      2116.512          43.000    22659897.560  
  94311536.04707      1646.176          42.000  
  20398275.640   108734304.98708      2327.813          45.250                  
                                                
  21558746.720   115284316.61408     -1517.895          47.000    21558750.940  
  89665602.79207     -1180.590          42.000  
  22479581.300   120250596.04407     -3851.551          44.500    22479588.600  
  93528271.75205     -2995.656          36.250  
 20 10 03 08 31  5.0000000  0 17G15G20G18G23G24G11G12G21G32G10R 7R 8
                                R 1R17R10R24R23
  23808062.080   125112200.27107     -3419.074          42.750    23808061.980  
  97490029.48606     -2664.215          40.250  
  20471507.800   107578497.13509     -1761.156          49.500    20471506.480  
  83827394.25808     -1372.332          45.250  
  24336722.520   127890333.55507     -3855.660          42.750    24336723.140  
  99654828.25305     -3004.410          38.000  
  20492096.340   107686693.04209     -1395.078          49.250    20492095.700  
  83911707.71708     -1087.078          46.750  
  20838804.820   109508667.53809     -1364.637          49.500    20838806.280  
  85331439.82109     -1063.352          54.500  
  24151010.420   126914416.64807      1330.684          41.750    24151010.160  
  98894355.64904      1036.895          32.750  
  24467710.220   128578687.02207      3359.145          42.750    24467710.720  
 100191186.61906      2617.516          38.750  
  23276374.340   122318181.12108      1001.699          45.750    23276372.940  
  95312869.47506       780.543          40.250  
  22367176.380   117540332.78709      2687.379          49.000    22367178.100  
  91589885.06809      2094.059          52.000  
  20519804.660   107832312.86009       871.563          51.750    20519805.840  
  84025189.59109       679.141          54.000  
  21895667.840   117209211.61708     -3047.578          45.250    21895671.760  
  91162730.66607     -2370.340          43.000  
  19442984.040   104116300.34208      -340.289          48.250    19442986.700  
  80979360.42508      -264.668          46.000  
  20483904.940   109498222.43408      2445.078          45.250    20483911.420  
  85165321.37206      1901.723          40.000  
  22657917.500   121247093.72407      2112.574          43.250    22657921.760  
  94303312.63707      1643.113          42.000  
  20396094.040   108722675.95408      2323.934          45.500                  
                                                
  21560168.000   115291916.73808     -1522.094          47.250    21560172.220  
  89671513.98807     -1183.855          42.000  
  22483182.180   120269858.21107     -3853.227          44.250    22483189.480  
  93543253.41905     -2996.957          35.750  
 20 10 03 08 31 10.0000000  0 17G15G20G18G23G24G11G12G21G32G10R 7R 8
                                R 1R17R10R24R23
  23811315.080   125129294.96707     -3418.922          42.750    23811315.000  
  97503350.03005     -2664.098          38.250  
  20473184.460   107587308.08509     -1763.281          49.500    20473183.160  
  83834259.92908     -1373.988          45.250  
  24340391.200   127909612.49307     -3855.402          43.250    24340391.820  
  99669850.77405     -3004.215          36.000  
  20493424.760   107693673.93109     -1397.297          49.500    20493424.120  
  83917147.37308     -1088.809          46.500  
  20840104.520   109515497.47809     -1367.313          49.750    20840105.980  
  85336761.85309     -1065.438          54.250  
  24149745.380   126907768.94707      1328.078          42.250    24149745.120  
  98889175.65304      1034.871          31.500  
  24464514.020   128561891.00907      3359.227          43.250    24464514.520  
 100178098.85205      2617.582          38.500  
  23275422.340   122313178.38008       999.617          46.000    23275420.940  
  95308971.23506       778.922          40.000  
  22364619.680   117526897.27209      2686.715          48.750    22364621.420  
  91579415.83809      2093.543          52.250  
  20518976.480   107827960.74809       869.359          52.000    20518977.660  
  84021798.33809       677.422          53.750  
  21898514.820   117224451.72708     -3048.359          45.000    21898518.760  
  91174584.07407     -2370.949          43.000  
  19443302.700   104118006.80508      -342.359          48.250    19443305.380  
  80980687.66608      -266.285          46.000  
  20481618.540   109486000.29708      2443.668          45.250    20481625.020  
  85155815.25906      1900.625          40.000  
  22655945.120   121236539.03207      2109.090          43.250    22655949.360  
  94295103.43007      1640.398          42.000  
  20393915.900   108711065.28208      2320.531          45.500                  
                                                
  21561592.900   115299536.31608     -1525.855          47.250    21561597.120  
  89677440.32207     -1186.781          41.750  
  22486784.600   120289128.67607     -3854.824          44.500    22486791.900  
  93558241.54604     -2998.199          34.500  
 20 10 03 08 31 15.0000000  0 17G15G20G18G23G24G11G12G21G32G10R 7R 8
                                R 1R17R10R24R23
  23814568.280   125146390.67207     -3419.090          43.500    23814568.180  
  97516671.37705     -2664.227          37.500  
  20474863.480   107596131.32109     -1765.957          49.250    20474862.160  
  83841135.18008     -1376.070          45.500  
  24344059.900   127928891.54207     -3855.785          42.750    24344060.540  
  99684873.38905     -3004.516          37.000  
  20494755.460   107700666.73109     -1399.805          49.500    20494754.820  
  83922596.30208     -1090.762          46.500  
  20841406.980   109522341.97609     -1370.383          49.500    20841408.420  
  85342095.23309     -1067.832          54.250  
  24148483.180   126901136.06207      1324.887          42.000    24148482.920  
  98884007.16704      1032.375          31.750  
  24461318.380   128545097.82107      3358.293          43.250    24461318.880  
 100165013.25005      2616.852          37.500  
  23274472.620   122308187.50708       996.797          46.250    23274471.240  
  95305082.23106       776.723          40.750  
  22362063.840   117513466.28409      2685.711          48.750    22362065.560  
  91568950.15109      2092.762          52.250  
  20518150.540   107823620.38809       866.789          52.000    20518151.720  
  84018416.23809       675.418          53.750  
  21901362.760   117239696.93808     -3049.570          45.250    21901366.680  
  91186441.45807     -2371.891          42.750  
  19443623.400   104119724.18208      -344.563          48.500    19443626.060  
  80982023.41308      -267.992          46.000  
  20479333.400   109473784.90308      2442.332          45.750    20479339.880  
  85146314.40406      1899.590          40.000  
  22653976.160   121226002.75907      2105.418          44.250    22653980.420  
  94286908.54807      1637.543          41.500  
  20391741.220   108699473.19308      2316.605          45.750                  
                                                
  21563021.540   115307175.82108     -1529.797          47.250    21563025.760  
  89683382.14907     -1189.848          42.000  
  22490388.620   120308407.78708     -3856.910          44.750    22490395.940  
  93573236.40204     -2999.824          35.250  
 20 10 03 08 31 20.0000000  0 17G15G20G18G23G24G11G12G21G32G10R 7R 8
                                R 1R17R10R24R23
  23817822.140   125163489.88207     -3419.930          43.250    23817822.040  
  97529995.45805     -2664.879          38.250  
  20476545.280   107604969.23709     -1769.094          49.500    20476543.980  
  83848021.85908     -1378.520          45.250  
  24347729.080   127948173.14207     -3856.555          43.500    24347729.720  
  99699897.99005     -3005.117          37.250  
  20496088.880   107707673.88409     -1402.672          49.500    20496088.220  
  83928056.42408     -1092.992          46.000  
  20842712.660   109529203.35709     -1374.086          49.500    20842714.100  
  85347441.76809     -1070.715          54.250  
  24147224.280   126894520.51306      1321.285          41.000    24147224.020  
  98878852.20203      1029.578          30.750  
  24458123.740   128528309.83707      3357.535          43.250    24458124.220  
 100151931.71306      2616.258          39.500  
  23273525.600   122303210.92008       993.953          46.750    23273524.220  
  95301204.36706       774.504          39.000  
  22359509.340   117500042.30108      2684.246          48.500    22359511.060  
  91558489.89709      2091.617          52.500  
  20517327.300   107819294.25309       863.910          52.000    20517328.480  
  84015045.22009       673.172          53.750  
  21904212.100   117254949.63708     -3051.211          45.000    21904216.020  
  91198304.67107     -2373.164          43.250  
  19443946.640   104121455.01608      -347.180          48.250    19443949.280  
  80983369.61308      -270.031          46.250  
  20477049.980   109461578.73408      2440.363          45.250    20477056.460  
  85136820.71606      1898.059          40.000  
  22652011.140   121215487.52108      2100.875          45.000    22652015.380  
  94278730.03006      1634.012          41.000  
  20389570.540   108687902.33708      2312.141          45.750                  
                                                
  21564454.320   115314837.62808     -1534.375          47.000    21564458.540  
  89689341.33207     -1193.406          42.500  
  22493994.700   120327697.83607     -3859.004          44.500    22494002.000  
  93588239.77505     -3001.449          35.500  
 20 10 03 08 31 25.0000000  0 17G15G20G18G23G24G11G12G21G32G10R 7R 8
                                R 1R17R10R24R23
  23821076.380   125180590.99007     -3420.293          43.000    23821076.280  
  97543320.97905     -2665.168          37.750  
  20478229.560   107613820.20409     -1771.293          49.500    20478228.260  
  83854918.70808     -1380.230          45.250  
  24351398.420   127967455.64807     -3856.281          43.500    24351399.040  
  99714923.33405     -3004.898          37.250  
  20497424.720   107714693.80209     -1404.973          49.500    20497424.080  
  83933526.48808     -1094.789          46.000  
  20844021.260   109536080.07009     -1376.738          49.500    20844022.700  
  85352800.24409     -1072.785          54.500  
  24145968.360   126887920.65406      1318.371          40.000    24145968.100  
  98873709.46905      1027.305          36.500  
  24454929.760   128511525.53507      3356.473          42.750    24454930.240  
 100138853.06705      2615.438          36.250  
  23272581.000   122298247.01608       991.984          46.500    23272579.620  
  95297336.39606       772.977          39.500  
  22356955.860   117486623.68108      2683.391          48.000    22356957.560  
  91548033.84809      2090.992          52.750  
  20516506.460   107814980.73409       861.598          51.750    20516507.640  
  84011684.03809       671.371          53.750  
  21907062.540   117270208.34108     -3052.375          45.000    21907066.460  
  91210172.55407     -2374.070          43.250  
  19444272.060   104123197.66208      -349.473          48.250    19444274.720  
  80984725.00708      -271.813          46.000  
  20474768.000   109449380.20008      2439.086          45.750    20474774.460  
  85127332.97006      1897.066          39.750  
  22650049.740   121204991.71308      2097.250          44.750    22650053.980  
  94270566.63906      1631.234          40.500  
  20387403.540   108676351.01108      2308.555          46.000                  
                                                
  21565890.980   115322520.10508     -1538.605          47.250    21565895.200  
  89695316.59607     -1196.691          42.250  
  22497602.560   120346997.37907     -3860.652          44.250    22497609.860  
  93603250.51404     -3002.734          35.250  
 20 10 03 08 31 30.0000000  0 17G15G20G18G23G24G11G12G21G32G10R 7R 8
                                R 1R17R10R24R23
  23824330.900   125197693.70007     -3420.910          43.250    23824330.820  
  97556647.77505     -2665.645          37.500  
  20479916.280   107622684.01209     -1774.207          49.500    20479915.000  
  83861825.57208     -1382.504          45.250  
  24355067.900   127986738.81207     -3856.711          43.250    24355068.540  
  99729949.15304     -3005.238          35.000  
  20498762.960   107721726.26209     -1407.883          49.250    20498762.300  
  83939006.32408     -1097.055          46.500  
  20845332.740   109542971.94209     -1380.086          49.250    20845334.180  
  85358170.53109     -1075.391          54.250  
  24144715.400   126881336.24406      1315.605          41.000    24144715.100  
  98868578.76804      1025.148          33.250  
  24451736.460   128494744.61507      3355.789          43.000    24451736.940  
 100125777.03306      2614.902          39.750  
  23271638.780   122293295.62708       988.961          46.750    23271637.400  
  95293478.17106       770.613          39.500  
  22354403.360   117473210.20609      2681.961          48.750    22354405.060  
  91537581.79309      2089.840          52.500  
  20515687.980   107810679.59209       858.828          51.750    20515689.160  
  84008332.49909       669.211          53.750  
  21909914.060   117285472.65708     -3053.355          45.000    21909917.980  
  91222044.79807     -2374.832          43.250  
  19444599.620   104124951.70508      -352.023          48.250    19444602.280  
  80986089.26008      -273.801          46.250  
  20472487.380   109437189.04608      2437.336          45.500    20472493.860  
  85117850.96506      1895.703          39.750  
  22648091.920   121194515.02307      2093.387          44.500    22648096.180  
  94262418.09406      1628.188          40.500  
  20385240.160   108664819.07908      2304.367          45.750                  
                                                
  21567331.480   115330223.05308     -1542.902          47.500    21567335.680  
  89701307.77707     -1200.035          41.750  
  22501212.100   120366305.96507     -3862.805          44.000    22501219.400  
  93618268.29304     -3004.406          35.250  
 20 10 03 08 31 35.0000000  0 17G15G20G18G23G24G11G12G21G32G10R 7R 8
                                R 1R17R10R24R23
  23827586.020   125214799.48907     -3421.395          43.250    23827585.940  
  97569976.96105     -2666.023          37.250  
  20481605.740   107631562.07609     -1776.848          49.500    20481604.440  
  83868743.54008     -1384.559          44.750  
  24358737.760   128006024.07507     -3856.961          42.750    24358738.400  
  99744976.62905     -3005.426          35.500  
  20500103.840   107728772.64909     -1410.559          49.500    20500103.200  
  83944497.00908     -1099.141          46.000  
  20846647.380   109549880.40009     -1383.137          49.250    20846648.820  
  85363553.74809     -1077.770          54.500  
  24143465.660   126874768.85306      1311.926          40.250    24143465.380  
  98863461.32505      1022.277          35.750  
  24448544.060   128477968.55807      3354.945          43.000    24448544.540  
 100112704.80506      2614.246          39.000  
  23270699.220   122288358.15608       986.273          47.000    23270697.840  
  95289630.78006       768.520          39.250  
  22351852.100   117459803.32809      2680.883          48.750    22351853.800  
  91527134.87909      2089.000          52.500  
  20514872.140   107806392.28209       856.340          51.750    20514873.320  
  84004991.73809       667.277          53.750  
  21912766.900   117300744.14608     -3054.699          44.750    21912770.820  
  91233922.62507     -2375.879          43.250  
  19444929.620   104126718.91208      -354.383          48.500    19444932.280  
  80987463.75308      -275.637          46.250  
  20470208.440   109425006.73308      2435.793          45.000    20470214.900  
  85108375.83306      1894.504          40.000  
  22646137.960   121184059.00707      2089.336          44.500    22646142.220  
  94254285.63106      1625.035          40.750  
  20383080.660   108653307.85208      2300.238          46.000                  
                                                
  21568776.060   115337947.85508     -1546.918          47.250    21568780.260  
  89707315.96107     -1203.160          42.000  
  22504823.600   120385625.08507     -3864.613          43.750    22504830.900  
  93633294.27104     -3005.813          35.000  
 20 10 03 08 31 40.0000000  0 17G15G20G18G23G24G11G12G21G32G10R 7R 8
                                R 1R17R10R24R23
  23830841.620   125231907.78007     -3422.129          42.750    23830841.540  
  97583308.09305     -2666.594          36.000  
  20483297.780   107640453.86209     -1779.926          49.500    20483296.480  
  83875672.21008     -1386.961          45.000  
  24362407.940   128025310.87707     -3857.480          43.500    24362408.580  
  99760005.28304     -3005.836          34.250  
  20501447.280   107735832.44809     -1413.648          49.250    20501446.620  
  83949998.14708     -1101.547          46.250  
  20847965.060   109556804.87109     -1386.930          49.000    20847966.500  
  85368949.43609     -1080.727          54.500  
  24142219.060   126868217.78706      1308.246          40.000    24142218.760  
  98858356.57504      1019.414          33.000  
  24445352.500   128461196.86007      3353.605          42.500    24445352.980  
 100099635.95405      2613.199          37.250  
  23269762.180   122283434.03008       983.051          46.750    23269760.800  
  95285793.80905       766.012          38.250  
  22349302.020   117446402.47809      2679.402          48.750    22349303.700  
  91516692.66209      2087.848          52.500  
  20514058.820   107802118.25909       853.195          51.750    20514060.000  
  84001661.33609       664.828          53.750  
  21915620.980   117316022.32208     -3056.922          44.750    21915624.920  
  91245805.64807     -2377.605          43.500  
  19445261.940   104128498.40908      -357.582          48.250    19445264.600  
  80988847.80608      -278.125          46.250  
  20467931.020   109412832.70108      2433.656          44.750    20467937.480  
  85098907.14806      1892.844          40.000  
  22644187.760   121173623.06907      2085.043          44.250    22644192.020  
  94246168.79406      1621.695          40.500  
  20380924.980   108641816.96608      2295.711          46.250                  
                                                
  21570224.620   115345694.01008     -1551.617          46.500    21570228.820  
  89713340.74607     -1206.813          42.000  
  22508436.980   120404954.21007     -3867.066          43.250    22508444.280  
  93648328.02905     -3007.723          35.500  
 20 10 03 08 31 45.0000000  0 17G15G20G18G23G24G11G12G21G32G10R 7R 8
                                R 1R17R10R24R23
  23834097.760   125249018.95107     -3422.344          43.750    23834097.700  
  97596641.48105     -2666.762          36.750  
  20484992.520   107649359.80709     -1782.387          49.750    20484991.240  
  83882611.89508     -1388.875          45.000  
  24366078.460   128044599.60907     -3857.387          43.750    24366079.100  
  99775035.46204     -3005.762          35.000  
  20502793.340   107742906.03809     -1415.688          49.500    20502792.680  
  83955510.04008     -1103.137          46.500  
  20849285.860   109563745.69809     -1389.504          49.250    20849287.300  
  85374357.87209     -1082.730          54.500  
  24140975.620   126861683.49706      1305.383          40.250    24140975.320  
  98853264.93705      1017.180          36.000  
  24442161.840   128444429.93607      3353.344          43.250    24442162.320  
 100086570.83305      2612.996          37.500  
  23268827.760   122278523.70708       980.977          46.750    23268826.400  
  95281967.58106       764.395          39.500  
  22346753.140   117433008.09708      2678.590          48.500    22346754.820  
  91506255.48409      2087.207          52.500  
  20513248.100   107797857.92609       850.969          52.000    20513249.280  
  83998341.59609       663.090          53.750  
  21918476.360   117331307.36208     -3057.223          44.750    21918480.280  
  91257694.01707     -2377.840          43.500  
  19445596.640   104130290.75008      -359.426          48.250    19445599.300  
  80990241.84708      -279.555          46.250  
  20465655.260   109400667.38508      2432.504          45.250    20465661.700  
  85089445.23706      1891.945          40.250  
  22642241.400   121163207.63907      2081.414          43.500    22642245.640  
  94238067.89406      1618.875          40.000  
  20378773.180   108630346.73508      2292.145          46.000                  
                                                
  21571677.240   115353461.84908     -1555.270          46.500    21571681.460  
  89719382.39907     -1209.656          42.500  
  22512052.300   120424293.68607     -3868.395          42.750    22512059.580  
  93663369.83505     -3008.754          35.500  
 20 10 03 08 31 50.0000000  0 17G15G20G18G23G24G11G12G21G32G10R 7R 8
                                R 1R17R10R24R23
  23837353.960   125266130.33907     -3422.711          43.250    23837353.880  
  97609975.03005     -2667.051          37.250  
  20486689.440   107658277.13909     -1785.004          49.500    20486688.160  
  83889560.46208     -1390.918          44.750  
  24369748.840   128063887.53307     -3858.016          43.750    24369749.480  
  99790065.00305     -3006.250          36.500  
  20504141.520   107749990.74109     -1418.480          49.250    20504140.860  
  83961030.58508     -1105.309          46.750  
  20850609.240   109570700.05509     -1392.520          49.000    20850610.680  
  85379776.84309     -1085.086          54.750  
  24139734.860   126855163.30906      1302.145          39.000    24139734.560  
  98848184.28105      1014.652          36.750  
  24438971.600   128427665.07507      3352.664          43.500    24438972.060  
 100073507.31706      2612.465          39.750  
  23267895.480   122273624.49508       978.262          46.750    23267894.120  
  95278150.00706       762.277          40.000  
  22344205.000   117419617.47609      2677.309          48.750    22344206.680  
  91495821.22609      2086.211          52.500  
  20512439.480   107793608.59909       848.375          52.000    20512440.660  
  83995030.42809       661.066          53.750  
  21921332.520   117346596.61608     -3058.492          44.750    21921336.460  
  91269585.65007     -2378.832          43.500  
  19445933.240   104132093.20008      -361.938          48.000    19445935.900  
  80991643.75708      -281.508          46.250  
  20463380.600   109388508.00208      2430.680          45.500    20463387.040  
  85079987.93606      1890.523          40.250  
  22640298.360   121152810.03707      2077.500          43.250    22640302.620  
  94229980.85906      1615.828          40.750  
  20376624.740   108618894.45008      2288.375          45.750                  
                                                
  21573133.420   115361248.60908     -1559.699          47.000    21573137.620  
  89725438.76407     -1213.098          42.500  
  22515669.060   120443640.84907     -3870.523          42.750    22515676.340  
  93678417.61205     -3010.410          35.750  
 20 10 03 08 31 55.0000000  0 17G15G20G18G23G24G11G12G21G32G10R 7R 8
                                R 1R17R10R24R23
  23840610.700   125283244.57907     -3423.430          43.500    23840610.620  
  97623310.78705     -2667.613          38.000  
  20488389.040   107667208.59809     -1787.754          49.750    20488387.760  
  83896520.03208     -1393.059          45.000  
  24373419.580   128083177.35507     -3858.074          43.500    24373420.240  
  99805096.01005     -3006.301          36.750  
  20505492.300   107757089.21909     -1421.074          49.250    20505491.660  
  83966561.87108     -1107.332          46.250  
  20851935.720   109577670.80109     -1395.711          49.250    20851937.160  
  85385208.59609     -1087.570          54.750  
  24138497.320   126848659.91906      1298.828          39.000    24138497.020  
  98843116.68604      1012.074          33.250  
  24435782.240   128410905.00607      3351.563          43.250    24435782.720  
 100060447.53105      2611.605          37.500  
  23266965.820   122268739.04908       975.617          46.750    23266964.460  
  95274343.15406       760.219          39.500  
  22341658.060   117406233.26008      2676.195          48.500    22341659.740  
  91485391.97909      2085.348          52.750  
  20511633.480   107789372.97009       845.750          51.750    20511634.640  
  83991729.93809       659.023          54.000  
  21924190.020   117361892.95707     -3059.816          44.500    21924193.940  
  91281482.79807     -2379.859          43.750  
  19446272.260   104133908.67208      -364.441          48.250    19446274.920  
  80993055.79108      -283.457          46.000  
  20461107.560   109376357.39108      2429.117          45.250    20461114.020  
  85070537.46506      1889.313          40.500  
  22638359.140   121142432.94607      2073.434          43.750    22638363.380  
  94221909.81606      1612.672          40.750  
  20374480.180   108607462.84308      2284.145          46.000                  
                                                
  21574593.620   115369057.04008     -1563.867          46.500    21574597.840  
  89731511.99207     -1216.340          43.000  
  22519287.740   120462998.22907     -3872.598          44.000    22519295.000  
  93693473.33905     -3012.023          36.000  
 20 10 03 08 32  0.0000000  0 17G15G20G18G23G24G11G12G21G32G10R 7R 8
                                R 1R17R10R24R23
  23843868.140   125300362.55707     -3423.758          43.500    23843868.060  
  97636649.48605     -2667.863          37.750  
  20490091.500   107676155.00109     -1790.586          49.750    20490090.220  
  83903491.25108     -1395.266          44.750  
  24377090.840   128102469.92507     -3858.621          43.750    24377091.500  
  99820129.17105     -3006.723          37.750  
  20506845.900   107764202.35609     -1423.973          49.500    20506845.240  
  83972104.56908     -1109.594          46.500  
  20853265.500   109584658.80809     -1399.102          49.250    20853266.940  
  85390653.79809     -1090.215          54.750  
  24137263.080   126842174.18606      1295.461          40.000    24137262.760  
  98838062.93404      1009.449          32.250  
  24432593.980   128394150.59507      3350.449          43.500    24432594.440  
 100047392.16406      2610.738          38.750  
  23266038.940   122263868.26408       972.945          46.250    23266037.560  
  95270547.74506       758.137          39.250  
  22339112.520   117392856.38609      2675.000          49.000    22339114.200  
  91474968.44509      2084.414          52.250  
  20510830.240   107785151.92309       842.941          51.750    20510831.400  
  83988440.80809       656.832          54.000  
  21927048.960   117377197.08407     -3061.543          44.250    21927052.880  
  91293386.01007     -2381.199          44.000  
  19446613.820   104135737.71808      -366.941          48.000    19446616.480  
  80994478.38208      -285.398          46.250  
  20458836.320   109364216.29608      2427.344          45.250    20458842.760  
  85061094.39706      1887.934          40.500  
  22636423.940   121132077.31907      2069.445          43.250    22636428.180  
  94213855.44106      1609.594          40.000  
  20372339.680   108596052.85908      2280.031          45.750                  
                                                
  21576058.100   115376888.11308     -1568.180          46.000    21576062.300  
  89737602.81407     -1219.699          42.500  
  22522908.460   120482366.78707     -3874.938          44.250    22522915.740  
  93708537.78405     -3013.840          35.750  
 20 10 03 08 32  5.0000000  0 17G15G20G18G23G24G11G12G21G32G10R 7R 8
                                R 1R17R10R24R23
  23847125.860   125317482.04407     -3424.004          44.000    23847125.800  
  97649989.33505     -2668.059          35.500  
  20491796.340   107685114.07709     -1793.082          49.500    20491795.060  
  83910472.35308     -1397.207          45.250  
  24380762.200   128121762.96507     -3858.504          43.500    24380762.860  
  99835162.68905     -3006.633          37.250  
  20508201.840   107771327.86609     -1426.398          49.500    20508201.180  
  83977656.91308     -1111.480          45.750  
  20854598.120   109591661.83409     -1402.113          49.250    20854599.560  
  85396110.69909     -1092.559          54.500  
  24136031.820   126835703.82906      1292.426          40.500    24136031.520  
  98833021.07203      1007.078          29.000  
  24429406.360   128377399.56207      3350.258          44.250    24429406.820  
 100034339.41205      2610.590          37.500  
  23265114.420   122259009.84708       970.559          46.000    23265113.040  
  95266761.96206       756.277          39.000  
  22336567.960   117379484.55409      2673.910          49.000    22336569.620  
  91464548.83409      2083.566          52.250  
  20510029.340   107780943.16009       840.457          51.750    20510030.500  
  83985161.25709       654.902          54.000  
  21929908.920   117392506.71307     -3062.477          44.250    21929912.860  
  91305293.50407     -2381.926          44.500  
  19446957.540   104137578.26208      -369.141          48.250    19446960.180  
  80995909.92008      -287.109          46.250  
  20456566.460   109352082.57508      2426.031          45.500    20456572.900  
  85051657.06006      1886.914          40.000  
  22634492.320   121121740.77907      2065.547          43.500    22634496.560  
  94205815.90406      1606.531          40.500  
  20370202.780   108584662.04308      2276.309          46.000                  
                                                
  21577526.320   115384739.39008     -1572.281          47.000    21577530.520  
  89743709.36307     -1222.891          42.250  
  22526530.880   120501744.22207     -3876.574          43.750    22526538.140  
  93723609.12005     -3015.117          36.000  
 20 10 03 08 32 10.0000000  0 17G15G20G18G23G24G11G12G21G32G10R 7R 8
                                R 1R17R10R24R23
  23850384.060   125334603.98207     -3424.297          43.750    23850384.000  
  97663331.10705     -2668.285          36.500  
  20493503.820   107694086.87409     -1795.504          49.500    20493502.540  
  83917464.14108     -1399.098          45.000  
  24384433.840   128141057.44007     -3858.641          43.250    24384434.480  
  99850197.33605     -3006.738          36.250  
  20509560.320   107778466.77109     -1428.824          49.500    20509559.680  
  83983219.69408     -1113.375          45.750  
  20855933.780   109598680.79809     -1405.066          49.250    20855935.220  
  85401580.02809     -1094.855          54.500  
  24134803.680   126829249.89106      1289.332          40.250    24134803.380  
  98827992.03203      1004.680          28.000  
  24426219.580   128360653.00207      3348.852          43.750    24426220.040  
 100021290.15805      2609.496          37.500  
  23264192.440   122254164.88008       968.063          46.250    23264191.060  
  95262986.67606       754.336          40.000  
  22334024.520   117366118.78909      2672.938          49.000    22334026.180  
  91454133.96209      2082.809          52.500  
  20509230.960   107776747.73409       838.086          51.750    20509232.140  
  83981892.09409       653.051          54.000  
  21932770.120   117407822.83407     -3063.379          44.000    21932774.040  
  91317206.02807     -2382.633          44.500  
  19447303.580   104139431.32808      -371.691          48.250    19447306.240  
  80997351.18508      -289.098          46.250  
  20454298.120   109339957.09108      2424.492          45.000    20454304.560  
  85042226.13406      1885.715          40.500  
  22632564.460   121111424.41907      2061.523          43.000    22632568.680  
  94197792.07606      1603.406          40.250  
  20368069.720   108573291.67008      2272.336          45.500                  
                                                
  21578998.520   115392611.91608     -1576.301          46.750    21579002.720  
  89749832.43207     -1226.016          42.500  
  22530155.140   120521131.54207     -3877.980          44.250    22530162.400  
  93738688.13405     -3016.211          36.750  
 20 10 03 08 32 15.0000000  0 17G15G20G18G23G24G11G12G21G32G10R 7R 8
                                R 1R17R10R24R23
  23853642.260   125351725.83407     -3424.441          43.250    23853642.180  
  97676672.79105     -2668.398          36.250  
  20495213.400   107703070.80709     -1798.070          49.250    20495212.120  
  83924464.60808     -1401.098          45.000  
  24388105.240   128160350.81407     -3858.711          43.500    24388105.900  
  99865231.12405     -3006.793          36.500  
  20510920.880   107785616.50209     -1431.160          49.250    20510920.220  
  83988790.91008     -1115.195          46.500  
  20857272.000   109605713.16809     -1407.918          49.500    20857273.440  
  85407059.80109     -1097.078          54.500  
  24133578.160   126822809.81306      1286.555          39.500    24133577.860  
  98822973.80201      1002.512          24.250  
  24423033.160   128343908.26507      3348.488          43.500    24423033.640  
 100008242.31106      2609.211          38.750  
  23263272.540   122249330.72908       965.668          45.750    23263271.160  
  95259219.80006       752.469          39.000  
  22331481.780   117352756.56408      2671.930          48.500    22331483.440  
  91443721.84009      2082.023          53.000  
  20508434.660   107772563.09409       835.656          51.750    20508435.820  
  83978631.34109       651.160          54.000  
  21935632.040   117423142.86507     -3064.570          44.000    21935635.980  
  91329121.59307     -2383.559          44.000  
  19447651.460   104141294.24108      -373.777          48.000    19447654.120  
  80998800.12008      -290.715          46.250  
  20452030.900   109327837.51408      2423.211          45.500    20452037.340  
  85032799.80506      1884.719          40.250  
  22630639.900   121101125.68007      2057.820          43.000    22630644.120  
  94189781.94206      1600.523          39.500  
  20365940.000   108561939.10208      2268.641          45.750                  
                                                
  21580474.220   115400503.07008     -1580.219          47.000    21580478.420  
  89755969.99007     -1229.063          42.500  
  22533780.740   120540526.05507     -3879.988          43.500    22533788.000  
  93753772.74705     -3017.773          35.500  
 20 10 03 08 32 20.0000000  0 17G15G20G18G23G24G11G12G21G32G10R 7R 8
                                R 1R17R10R24R23
  23856901.060   125368851.01407     -3425.445          43.500    23856900.980  
  97690017.10206     -2669.184          39.000  
  20496925.760   107712069.30609     -1801.188          49.500    20496924.480  
  83931476.42408     -1403.527          44.750  
  24391777.100   128179646.54007     -3859.328          42.250    24391777.760  
  99880266.75405     -3007.270          35.500  
  20512284.140   107792780.52409     -1434.203          49.500    20512283.500  
  83994373.26308     -1117.566          46.500  
  20858613.420   109612762.41209     -1411.637          49.500    20858614.860  
  85412552.71409     -1099.980          54.500  
  24132355.980   126816387.08806      1282.988          40.500    24132355.680  
  98817969.06103       999.727          29.250  
  24419847.760   128327168.89307      3347.238          44.250    24419848.220  
  99995198.65105      2608.238          38.500  
  23262355.340   122244510.87808       962.414          46.000    23262353.940  
  95255464.09306       749.934          39.000  
  22328940.360   117339401.27508      2670.391          48.500    22328942.000  
  91433315.12409      2080.824          53.000  
  20507641.060   107768392.68209       832.633          51.750    20507642.220  
  83975381.67009       648.801          53.750  
  21938495.380   117438470.53507     -3066.066          44.500    21938499.320  
  91341043.10507     -2384.723          43.750  
  19448001.820   104143170.43308      -376.648          48.000    19448004.480  
  81000259.38408      -292.949          46.250  
  20449765.420   109315727.15808      2420.941          45.750    20449771.840  
  85023380.64006      1882.949          40.000  
  22628719.260   121090848.00407      2053.590          43.250    22628723.480  
  94181788.20806      1597.238          39.750  
  20363814.260   108550607.76208      2264.137          46.000                  
                                                
  21581954.040   115408416.31908     -1584.930          47.000    21581958.240  
  89762124.74307     -1232.723          42.250  
  22537408.360   120559931.26807     -3882.188          43.500    22537415.620  
  93768865.67205     -3019.484          36.000  
 20 10 03 08 32 25.0000000  0 17G15G20G18G23G24G11G12G21G32G10R 7R 8
                                R 1R17R10R24R23
  23860160.480   125385979.38507     -3426.102          43.500    23860160.400  
  97703363.88005     -2669.695          36.000  
  20498640.860   107721082.16509     -1803.938          49.500    20498639.560  
  83938499.42908     -1405.668          44.750  
  24395449.360   128198944.35907     -3859.820          43.250    24395450.020  
  99895304.00805     -3007.656          36.000  
  20513650.080   107799958.61809     -1437.004          49.500    20513649.440  
  83999966.57708     -1119.746          46.000  
  20859957.980   109619828.14109     -1414.672          49.500    20859959.420  
  85418058.48109     -1102.340          54.500  
  24131137.040   126809981.47606      1279.773          40.500    24131136.740  
  98812977.65401       997.227          12.500  
  24416663.340   128310434.71907      3346.617          44.250    24416663.800  
  99982159.05105      2607.754          38.000  
  23261440.840   122239705.13308       959.988          45.750    23261439.440  
  95251719.35606       748.043          40.000  
  22326400.200   117326052.76508      2669.273          48.500    22326401.860  
  91422913.70009      2079.953          52.750  
  20506850.120   107764236.30109       830.000          51.750    20506851.280  
  83972142.93109       646.750          53.750  
  21941360.060   117453805.31107     -3067.406          44.250    21941364.000  
  91352970.14307     -2385.766          43.500  
  19448354.680   104145059.93708      -379.039          48.000    19448357.340  
  81001728.99608      -294.813          46.250  
  20447501.620   109303625.91708      2419.551          45.500    20447508.060  
  85013968.56106      1881.867          40.250  
  22626802.520   121080591.21807      2049.262          43.500    22626806.720  
  94173810.72506      1593.871          39.250  
  20361692.480   108539297.55008      2260.027          45.500                  
                                                
  21583437.960   115416351.53308     -1588.883          46.750    21583442.140  
  89768296.58307     -1235.797          42.500  
  22541037.940   120579347.05307     -3884.094          43.250    22541045.200  
  93783966.82305     -3020.965          36.750  
 20 10 03 08 32 30.0000000  0 17G15G20G18G23G24G11G12G21G32G10R 7R 8
                                R 1R17R10R24R23
  23863420.200   125403109.25507     -3426.828          43.000    23863420.120  
  97716711.82705     -2670.258          37.250  
  20500358.360   107730107.77309     -1806.867          49.500    20500357.080  
  83945532.37007     -1407.949          44.500  
  24399121.720   128218242.65207     -3860.293          42.250    24399122.360  
  99910341.63305     -3008.023          35.750  
  20515018.400   107807149.17009     -1439.785          49.250    20515017.760  
  84005569.60508     -1121.914          46.250  
  20861305.380   109626908.73909     -1418.164          49.250    20861306.820  
  85423575.83209     -1105.066          54.500  
  24129921.060   126803591.41306      1275.844          41.000    24129920.740  
  98807998.37601       994.168          13.500  
  24413479.600   128293704.11507      3345.242          44.250    24413480.060  
  99969122.22506      2606.684          39.250  
  23260528.720   122234911.88108       957.004          45.750    23260527.340  
  95247984.33605       745.715          38.500  
  22323861.060   117312709.41509      2667.820          48.750    22323862.700  
  91412516.28609      2078.820          52.500  
  20506061.560   107760092.36109       827.027          51.750    20506062.720  
  83968913.88809       644.434          54.000  
  21944225.760   117469145.68607     -3069.051          44.250    21944229.720  
  91364901.55007     -2387.039          43.250  
  19448709.680   104146960.88708      -381.871          48.250    19448712.340  
  81003207.50708      -297.016          46.500  
  20445239.220   109291532.08708      2417.500          45.250    20445245.660  
  85004562.24706      1880.273          41.000  
  22624889.380   121070353.68707      2045.082          41.750    22624893.600  
  94165848.20305      1590.621          38.500  
  20359574.360   108528006.83708      2255.629          45.750                  
                                                
  21584925.680   115424307.05908     -1593.777          46.000    21584929.880  
  89774484.20807     -1239.609          43.000  
  22544669.140   120598771.56207     -3886.184          43.750    22544676.400  
  93799074.77205     -3022.590          36.000  
 20 10 03 08 32 35.0000000  0 17G15G20G18G23G24G11G12G21G32G10R 7R 8
                                R 1R17R10R24R23
  23866680.460   125420242.05307     -3426.613          43.000    23866680.360  
  97730062.07006     -2670.094          39.000  
  20502078.560   107739147.52109     -1809.203          49.500    20502077.280  
  83952576.33607     -1409.770          44.500  
  24402794.420   128237542.85007     -3859.977          42.500    24402795.080  
  99925380.74005     -3007.777          36.750  
  20516389.360   107814353.56109     -1442.207          49.250    20516388.720  
  84011183.40808     -1123.801          46.500  
  20862655.900   109634005.79109     -1420.902          48.750    20862657.340  
  85429105.99609     -1107.199          54.750  
  24128708.240   126797218.16606      1272.957          39.500    24128707.900  
  98803032.25501       991.910          24.750  
  24410296.800   128276978.50707      3344.770          44.000    24410297.260  
  99956089.31805      2606.316          37.750  
  23259619.240   122230132.48708       954.730          45.500    23259617.840  
  95244260.13506       743.941          40.250  
  22321323.140   117299372.60009      2667.004          49.000    22321324.780  
  91402123.96509      2078.184          52.750  
  20505275.620   107755962.23709       824.805          51.750    20505276.780  
  83965695.60509       642.703          54.000  
  21947092.800   117484493.15707     -3070.145          43.500    21947096.760  
  91376838.46807     -2387.895          43.250  
  19449067.080   104148874.79308      -383.953          48.000    19449069.740  
  81004696.10708      -298.629          46.500  
  20442978.480   109279447.04508      2416.172          45.000    20442984.900  
  84995162.76506      1879.246          40.500  
  22622980.160   121060137.03507      2041.270          43.000    22622984.360  
  94157901.92006      1587.648          38.750  
  20357460.140   108516736.91308      2252.117          45.500                  
                                                
  21586417.460   115432284.23908     -1597.508          46.250    21586421.660  
  89780688.67107     -1242.512          42.750  
  22548302.260   120618206.27707     -3887.785          43.500    22548309.520  
  93814190.66005     -3023.836          35.750  
 20 10 03 08 32 40.0000000  0 17G15G20G18G23G24G11G12G21G32G10R 7R 8
                                R 1R17R10R24R23
  23869941.080   125437376.59807     -3427.797          42.500    23869941.000  
  97743413.63205     -2671.016          38.000  
  20503801.240   107748200.24709     -1812.059          49.500    20503799.960  
  83959630.40208     -1411.996          44.750  
  24406467.280   128256843.67307     -3860.398          42.000    24406467.940  
  99940420.30905     -3008.109          37.250  
  20517762.720   107821570.59809     -1444.863          49.250    20517762.060  
  84016807.07908     -1125.867          46.250  
  20864009.320   109641118.04209     -1424.105          49.000    20864010.760  
  85434648.01509     -1109.695          55.000  
  24127498.440   126790860.66406      1270.031          40.000    24127498.100  
  98798078.35304       989.629          32.500  
  24407114.740   128260256.71007      3343.566          42.500    24407115.200  
  99943059.34104      2605.371          35.250  
  23258712.160   122225365.77008       951.977          46.250    23258710.760  
  95240545.80806       741.801          38.750  
  22318786.260   117286041.18209      2665.547          49.000    22318787.900  
  91391735.84709      2077.051          52.750  
  20504492.080   107751844.76209       822.117          51.750    20504493.260  
  83962487.18709       640.605          54.000  
  21949960.900   117499846.39307     -3071.473          44.000    21949964.860  
  91388779.87807     -2388.922          43.500  
  19449426.680   104150800.47208      -386.438          48.250    19449429.340  
  81006193.85908      -300.559          46.500  
  20440719.160   109267369.67908      2414.543          45.000    20440725.580  
  84985769.25906      1877.977          40.750  
  22621074.560   121049939.76607      2037.215          42.750    22621078.760  
  94149970.69906      1584.496          39.000  
  20355349.640   108505486.82408      2247.926          45.500                  
                                                
  21587913.060   115440281.79408     -1601.695          46.750    21587917.260  
  89786908.98507     -1245.766          43.000  
  22551937.060   120637649.95807     -3889.582          42.750    22551944.300  
  93829313.51905     -3025.234          35.500  
 20 10 03 08 32 45.0000000  0 17G15G20G18G23G24G11G12G21G32G10R 7R 8
                                R 1R17R10R24R23
  23873202.040   125454513.05607     -3427.887          41.750    23873201.940  
  97756766.71605     -2671.086          38.000  
  20505526.420   107757266.12709     -1814.555          49.750    20505525.140  
  83966694.72608     -1413.941          45.000  
  24410140.280   128276145.41807     -3860.504          43.000    24410140.960  
  99955460.61805     -3008.191          38.250  
  20519138.520   107828800.53109     -1447.223          49.500    20519137.880  
  84022440.79308     -1127.707          46.750  
  20865365.660   109648245.64909     -1427.047          49.250    20865367.100  
  85440201.98809     -1111.988          54.750  
  24126291.760   126784519.14206      1266.504          39.000    24126291.440  
  98793136.81504       986.875          33.000  
  24403933.460   128243539.02407      3342.887          43.250    24403933.920  
  99930032.59905      2604.848          37.750  
  23257807.540   122220612.02008       949.375          46.250    23257806.140  
  95236841.59606       739.773          39.000  
  22316250.440   117272715.35809      2664.504          49.000    22316252.080  
  91381352.09009      2076.234          53.000  
  20503711.000   107747740.16109       819.645          51.750    20503712.180  
  83959288.79509       638.680          54.000  
  21952830.160   117515205.64107     -3072.277          43.750    21952834.100  
  91400725.95507     -2389.555          43.500  
  19449788.520   104152738.12508      -388.621          48.250    19449791.180  
  81007700.92008      -302.262          46.500  
  20438461.300   109255300.24708      2412.957          45.500    20438467.740  
  84976381.93506      1876.746          41.000  
  22619172.660   121039762.32307      2033.430          42.750    22619176.840  
  94142054.91406      1581.555          39.500  
  20353242.880   108494256.62408      2244.141          45.750                  
                                                
  21589412.500   115448300.07508     -1605.637          47.000    21589416.700  
  89793145.43407     -1248.828          43.000  
  22555573.560   120657102.85607     -3891.867          43.500    22555580.820  
  93844443.54405     -3027.012          36.000  
