     2.11           OBSERVATION DATA    M                   RINEX VERSION / TYPE
LEICA GEO OFFICE 8.4                    4-10-20 00:24       PGM / RUN BY / DATE
                                                            OBSERVER / AGENCY
UGLR                                                        MARKER NAME
UGLR                                                        MARKER NUMBER
470879              LEICA GX1230GG      8.50                REC # / TYPE / VERS
                    LEIAX1203+GNSS                          ANT # / TYPE
 -1194789.1276  3840598.0587  4934478.6766                  APPROX POSITION XYZ
        1.4190        0.0000        0.0000                  ANTENNA: DELTA H/E/N
L1PhaOff:   0.0585  L2PhaOff:   0.0555                      COMMENT
     1     1                                                WAVELENGTH FACT L1/2
     8    C1    L1    D1    S1    P2    L2    D2    S2      # / TYPES OF OBSERV
  2020    10     3     6    43   55.0000000     GPS         TIME OF FIRST OBS
  2020    10     3     8    16   20.0000000     GPS         TIME OF LAST OBS
    18                                                      LEAP SECONDS
    21                                                      # OF SATELLITES
          C1    L1    D1    S1    P2    L2    D2    S2      COMMENT
   G 1     0     0     0     0     0     0     0     0      PRN / # OF OBS
   G 2     0     0     0     0     0     0     0     0      PRN / # OF OBS
   G 3     0     0     0     0     0     0     0     0      PRN / # OF OBS
   G 4     0     0     0     0     0     0     0     0      PRN / # OF OBS
   G 5     0     0     0     0     0     0     0     0      PRN / # OF OBS
   G 6     0     0     0     0     0     0     0     0      PRN / # OF OBS
   G 7     0     0     0     0     0     0     0     0      PRN / # OF OBS
   G 8   548   548   548   548   547   547   547   547      PRN / # OF OBS
   G 9     0     0     0     0     0     0     0     0      PRN / # OF OBS
   G10  1110  1110  1110  1110  1110  1110  1110  1110      PRN / # OF OBS
   G11     0     0     0     0     0     0     0     0      PRN / # OF OBS
   G12     0     0     0     0     0     0     0     0      PRN / # OF OBS
   G13   648   648   648   648   647   647   647   647      PRN / # OF OBS
   G14     0     0     0     0     0     0     0     0      PRN / # OF OBS
   G15  1110  1110  1110  1110  1110  1110  1110  1110      PRN / # OF OBS
   G16     0     0     0     0     0     0     0     0      PRN / # OF OBS
   G17     0     0     0     0     0     0     0     0      PRN / # OF OBS
   G18  1110  1110  1110  1110  1110  1110  1110  1110      PRN / # OF OBS
   G19     0     0     0     0     0     0     0     0      PRN / # OF OBS
   G20  1110  1110  1110  1110  1110  1110  1110  1110      PRN / # OF OBS
   G21   807   807   807   807   807   807   807   807      PRN / # OF OBS
   G22     0     0     0     0     0     0     0     0      PRN / # OF OBS
   G23  1110  1110  1110  1110  1110  1110  1110  1110      PRN / # OF OBS
   G24  1110  1110  1110  1110  1110  1110  1110  1110      PRN / # OF OBS
   G25     0     0     0     0     0     0     0     0      PRN / # OF OBS
   G26     0     0     0     0     0     0     0     0      PRN / # OF OBS
   G27   768   768   768   768   768   768   768   768      PRN / # OF OBS
   G28     0     0     0     0     0     0     0     0      PRN / # OF OBS
   G29     0     0     0     0     0     0     0     0      PRN / # OF OBS
   G30     0     0     0     0     0     0     0     0      PRN / # OF OBS
   G31     0     0     0     0     0     0     0     0      PRN / # OF OBS
   G32   620   620   620   620   619   619   619   619      PRN / # OF OBS
   R 1   903   903   903   903   883   883   883   883      PRN / # OF OBS
   R 2     0     0     0     0     0     0     0     0      PRN / # OF OBS
   R 3     0     0     0     0     0     0     0     0      PRN / # OF OBS
   R 4     0     0     0     0     0     0     0     0      PRN / # OF OBS
   R 5     0     0     0     0     0     0     0     0      PRN / # OF OBS
   R 6   345   345   345   345     0     0     0     0      PRN / # OF OBS
   R 7  1110  1110  1110  1110  1110  1110  1110  1110      PRN / # OF OBS
   R 8  1110  1110  1110  1110  1110  1110  1110  1110      PRN / # OF OBS
   R 9     0     0     0     0     0     0     0     0      PRN / # OF OBS
   R10   755   755   755   755     0     0     0     0      PRN / # OF OBS
   R11     0     0     0     0     0     0     0     0      PRN / # OF OBS
   R12     0     0     0     0     0     0     0     0      PRN / # OF OBS
   R13     0     0     0     0     0     0     0     0      PRN / # OF OBS
   R14     0     0     0     0     0     0     0     0      PRN / # OF OBS
   R15     0     0     0     0     0     0     0     0      PRN / # OF OBS
   R16   894   894   894   894   894   894   894   894      PRN / # OF OBS
   R17   141   141   141   141   105   105   105   105      PRN / # OF OBS
   R18     0     0     0     0     0     0     0     0      PRN / # OF OBS
   R19     0     0     0     0     0     0     0     0      PRN / # OF OBS
   R20     0     0     0     0     0     0     0     0      PRN / # OF OBS
   R21     0     0     0     0     0     0     0     0      PRN / # OF OBS
   R22   563   563   563   563   515   515   515   515      PRN / # OF OBS
   R23  1110  1110  1110  1110  1110  1110  1110  1110      PRN / # OF OBS
   R24  1110  1110  1110  1110  1110  1110  1110  1110      PRN / # OF OBS
                                                            END OF HEADER
 20 10 03 06 43 55.0000000  0 15G15G20G18G23G24G27G10G13R 7R 8R 6R22
                                R16R24R23
  20446074.380   107444845.57109     -1636.359          50.500    20446073.060  
  83723251.25309     -1275.090          53.500  
  20471336.500   107577598.32509      1608.445          49.750    20471335.160  
  83826694.35707      1253.332          44.500  
  20676456.000   108655509.63409     -1498.777          49.500    20676455.520  
  84666626.84208     -1167.883          45.250  
  20797374.980   109290942.64009      1711.668          48.750    20797374.580  
  85161772.25107      1333.766          43.750  
  21842779.220   114784578.71608      2831.359          47.500    21842781.360  
  89442536.76209      2206.254          52.750  
  23868473.840   125429677.84004      -323.074          34.000    23868474.640  
  97737409.93007      -251.754          44.500  
  23120276.220   121497873.16406      2960.559          40.500    23120278.860  
  94673675.30707      2306.938          43.750  
  22562647.140   118567511.09108     -3114.477          47.000    22562645.840  
  92390262.95105     -2426.867          38.500  
  19477157.240   104262745.75309      -753.230          49.750    19477160.420  
  81093260.08008      -585.879          46.750  
  20763353.020   111186806.70408      2388.852          44.750    20763356.280  
  86478641.34707      1857.996          43.750  
  22128651.740   118082727.77905     -3279.355          38.000                  
                                                
  21427207.560   114379882.89806     -3806.383          41.000    21427212.320  
  88962156.85104     -2960.520          31.500  
  21642585.220   115610819.35906        83.816          40.000    21642589.480  
  89919534.21406        65.191          39.500  
  23096799.260   123508964.04505      3643.008          35.750    23096804.100  
  96062548.81003      2833.449          31.250  
  20568067.040   110025293.47208      1270.227          45.000    20568073.240  
  85575251.36405       987.953          37.500  
 20 10 03 06 44  0.0000000  0 15G15G20G18G23G24G27G10G13R 7R 8R 6R22
                                R16R24R23
  20447632.200   107453031.86509     -1641.262          50.250    20447630.880  
  83729630.17309     -1278.910          54.000  
  20469806.720   107569559.25009      1604.000          49.750    20469805.380  
  83820430.14108      1249.871          46.250  
  20677883.140   108663009.32409     -1504.250          49.750    20677882.640  
  84672470.75008     -1172.145          45.750  
  20795746.960   109282387.41609      1707.410          49.750    20795746.580  
  85155105.84708      1330.449          45.750  
  21840086.040   114770425.95208      2826.602          47.500    21840088.200  
  89431508.65709      2202.551          53.000  
  23868782.540   125431299.66404      -329.723          34.000    23868783.320  
  97738673.64008      -256.930          45.750  
  23117459.420   121483070.84508      2957.641          47.250    23117462.120  
  94662141.01909      2304.652          51.750  
  22565610.640   118583084.34408     -3118.039          46.250    22565609.400  
  92402397.92605     -2429.645          38.000  
  19477861.520   104266515.88609      -757.918          49.250    19477864.700  
  81096192.41208      -589.492          46.750  
  20761122.980   111174864.97008      2384.754          45.000    20761126.260  
  86469353.33008      1854.809          45.750  
  22131724.740   118099126.18105     -3283.020          38.000                  
                                                
  21430773.380   114398917.34806     -3810.992          41.000    21430778.120  
  88976961.43404     -2964.105          32.500  
  21642508.200   115610408.08206        77.348          39.250    21642512.500  
  89919214.32306        60.160          39.500  
  23093394.300   123490756.28505      3637.570          36.000    23093399.100  
  96048387.24804      2829.227          33.250  
  20566881.380   110018951.10608      1263.305          47.250    20566887.640  
  85570318.42705       982.574          38.250  
 20 10 03 06 44  5.0000000  0 15G15G20G18G23G24G27G10G13R 7R 8R 6R22
                                R16R24R23
  20449193.140   107461234.97309     -1641.828          50.000    20449191.860  
  83736022.26409     -1279.344          54.000  
  20468279.700   107561534.91609      1603.918          49.750    20468278.360  
  83814177.46408      1249.809          46.250  
  20679314.040   108670528.98009     -1505.473          49.750    20679313.540  
  84678330.27108     -1173.090          45.500  
  20794121.540   109273845.91509      1707.410          49.750    20794121.180  
  85148450.17908      1330.453          45.750  
  21837395.940   114756289.54608      2826.039          47.750    21837398.120  
  89420493.32509      2202.113          53.250  
  23869095.180   125432942.59607      -330.504          43.250    23869095.980  
  97739953.89209      -257.535          51.000  
  23114644.100   121468276.56708      2958.664          47.000    23114646.820  
  94650613.08609      2305.461          51.250  
  22568576.180   118598668.63708     -3117.434          46.250    22568574.980  
  92414541.58105     -2429.168          38.250  
  19478568.780   104270302.15809      -758.324          49.500    19478571.980  
  81099137.34308      -589.855          46.500  
  20758895.380   111162936.49808      2384.781          45.500    20758898.660  
  86460075.70108      1854.836          45.000  
  22134799.360   118115532.99305     -3281.617          38.250                  
                                                
  21434342.380   114417969.04607     -3811.473          41.500    21434347.160  
  88991779.44604     -2964.480          32.750  
  21642436.300   115610024.42206        74.836          39.500    21642440.640  
  89918916.00006        58.215          39.500  
  23089992.380   123472564.82907      3636.723          42.000    23089997.100  
  96034238.39006      2828.566          39.750  
  20565700.840   110012636.26408      1260.848          47.000    20565707.160  
  85565406.95206       980.668          40.250  
 20 10 03 06 44 10.0000000  0 15G15G20G18G23G24G27G10G13R 7R 8R 6R22
                                R16R24R23
  20450756.540   107469450.70609     -1644.711          50.000    20450755.260  
  83742424.13809     -1281.594          54.000  
  20466754.740   107553521.17609      1601.488          49.750    20466753.400  
  83807933.00008      1247.914          46.000  
  20680748.000   108678064.37509     -1508.836          49.750    20680747.480  
  84684202.00008     -1175.715          45.500  
  20792497.980   109265313.98409      1705.121          49.750    20792497.600  
  85141801.93308      1328.664          45.250  
  21834708.220   114742165.41908      2823.313          47.750    21834710.420  
  89409487.51009      2199.984          53.000  
  23869411.040   125434602.51507      -333.934          43.500    23869411.920  
  97741247.35309      -260.207          51.500  
  23111829.560   121453486.15408      2957.469          47.000    23111832.300  
  94639088.09709      2304.523          51.250  
  22571543.040   118614259.73908     -3119.164          46.250    22571541.880  
  92426690.51006     -2430.516          39.000  
  19479278.340   104274100.40309      -761.176          49.500    19479281.560  
  81102091.53508      -592.027          46.750  
  20756669.520   111151017.26908      2382.777          45.500    20756672.820  
  86450805.20608      1853.273          45.000  
  22137874.680   118131943.61805     -3282.500          37.750                  
                                                
  21437913.840   114437033.57406     -3814.145          41.250    21437918.640  
  89006607.39504     -2966.563          32.500  
  21642368.820   115609664.07606        69.422          38.750    21642373.240  
  89918635.73706        53.996          39.750  
  23086592.820   123454385.85607      3634.117          42.000    23086597.460  
  96020099.19706      2826.535          39.750  
  20564524.660   110006344.62308      1255.711          47.000    20564531.040  
  85560513.46806       976.664          39.500  
 20 10 03 06 44 15.0000000  0 15G15G20G18G23G24G27G10G13R 7R 8R 6R22
                                R16R24R23
  20452322.280   107477678.66509     -1646.328          50.000    20452321.020  
  83748835.52909     -1282.855          54.000  
  20465231.720   107545517.64709      1600.148          49.500    20465230.400  
  83801696.47508      1246.863          46.250  
  20682184.840   108685615.12209     -1511.188          49.500    20682184.360  
  84690085.69508     -1177.551          45.750  
  20790876.160   109256791.22309      1704.137          49.500    20790875.800  
  85135160.81308      1327.895          45.750  
  21832022.780   114728053.21308      2821.727          47.500    21832024.980  
  89398490.98209      2198.789          53.250  
  23869730.060   125436278.95507      -336.598          43.000    23869731.040  
  97742553.65609      -262.289          52.000  
  23109015.700   121438699.23108      2957.473          47.000    23109018.440  
  94627565.81509      2304.523          51.750  
  22574511.140   118629857.21008     -3119.371          46.250    22574510.000  
  92438844.37505     -2430.680          38.000  
  19479990.020   104277910.03309      -762.492          49.500    19479993.260  
  81105054.57508      -593.055          46.750  
  20754445.260   111139106.50908      2381.785          45.750    20754448.580  
  86441541.27708      1852.500          45.000  
  22140950.680   118148357.82605     -3282.734          37.750                  
                                                
  21441487.600   114456110.59306     -3815.969          41.250    21441492.440  
  89021445.06204     -2967.980          33.000  
  21642305.640   115609326.63606        65.621          39.000    21642310.120  
  89918373.27706        51.039          39.750  
  23083195.460   123436218.69607      3632.723          41.500    23083200.040  
  96005969.21106      2825.449          39.750  
  20563352.760   110000075.70508      1252.168          47.250    20563359.200  
  85555637.62406       973.906          39.750  
 20 10 03 06 44 20.0000000  0 15G15G20G18G23G24G27G10G13R 7R 8R 6R22
                                R16R24R23
  20453889.340   107485913.58409     -1647.926          50.000    20453888.080  
  83755252.34709     -1284.102          54.250  
  20463709.640   107537519.04109      1599.066          49.750    20463708.320  
  83795463.79308      1246.027          46.250  
  20683623.620   108693175.91809     -1513.254          49.500    20683623.140  
  84695977.21808     -1179.164          46.000  
  20789255.060   109248272.32209      1703.164          49.250    20789254.720  
  85128522.70808      1327.137          45.750  
  21829338.560   114713947.54008      2820.324          47.000    21829340.760  
  89387499.55209      2197.656          53.250  
  23870051.220   125437966.62807      -339.230          43.250    23870052.300  
  97743868.71409      -264.340          51.500  
  23106201.480   121423910.51308      2957.844          47.000    23106204.240  
  94616042.13609      2304.809          51.250  
  22577479.460   118645455.82908     -3119.906          45.750    22577478.340  
  92450999.12405     -2431.102          38.000  
  19480702.860   104281725.90309      -764.102          49.500    19480706.120  
  81108022.47808      -594.301          46.500  
  20752221.620   111127199.08208      2380.930          45.750    20752224.940  
  86432279.94508      1851.836          44.750  
  22144026.300   118164770.17705     -3282.496          38.000                  
                                                
  21445062.700   114475194.70607     -3818.125          41.500    21445067.580  
  89036288.25104     -2969.656          32.750  
  21642245.700   115609006.51406        62.082          39.750    21642250.220  
  89918124.29806        48.285          39.250  
  23079799.340   123418058.16507      3631.293          41.500    23079803.880  
  95991844.35106      2824.340          39.750  
  20562184.080   109993824.21608      1248.438          47.500    20562190.580  
  85550775.36706       971.008          39.750  
 20 10 03 06 44 25.0000000  0 15G15G20G18G23G24G27G10G13R 7R 8R 6R22
                                R16R24R23
  20455458.820   107494161.33609     -1650.965          50.000    20455457.580  
  83761679.17009     -1286.465          54.250  
  20462189.620   107529531.31909      1596.203          49.750    20462188.320  
  83789239.59808      1243.789          46.000  
  20685065.420   108700752.71209     -1517.082          49.500    20685064.940  
  84701881.21708     -1182.145          46.250  
  20787635.860   109239763.28209      1700.660          49.250    20787635.500  
  85121892.28708      1325.188          45.750  
  21826656.760   114699854.46208      2817.148          47.500    21826658.940  
  89376517.93309      2195.180          53.250  
  23870375.620   125439671.43007      -342.664          43.250    23870376.780  
  97745197.14109      -267.016          51.500  
  23103388.060   121409125.94108      2956.535          47.500    23103390.820  
  94604521.69109      2303.793          51.500  
  22580449.100   118661061.55808     -3122.270          46.000    22580448.000  
  92463159.44106     -2432.938          39.250  
  19481417.960   104285553.87909      -766.969          49.500    19481421.240  
  81110999.78808      -596.531          46.500  
  20749999.700   111115300.93008      2378.727          45.250    20750003.040  
  86423025.82408      1850.117          45.000  
  22147102.760   118181186.84005     -3283.809          38.250                  
                                                
  21448640.280   114494291.90307     -3820.934          41.750    21448645.140  
  89051141.61004     -2971.840          31.500  
  21642190.140   115608709.97906        56.977          39.750    21642194.720  
  89917893.67405        44.316          38.250  
  23076405.580   123399910.21306      3627.801          41.250    23076410.080  
  95977729.28206      2821.621          40.250  
  20561019.800   109987596.16208      1243.160          48.000    20561026.340  
  85545931.32706       966.902          39.250  
 20 10 03 06 44 30.0000000  0 15G15G20G18G23G24G27G10G13R 7R 8R 6R22
                                R16R24R23
  20457030.540   107502420.75709     -1653.188          50.000    20457029.320  
  83768115.07909     -1288.203          54.000  
  20460671.440   107521553.27909      1594.504          49.750    20460670.160  
  83783022.94608      1242.469          45.750  
  20686510.060   108708344.31009     -1519.910          49.500    20686509.580  
  84707796.74008     -1184.348          45.750  
  20786018.280   109231262.87309      1699.109          49.500    20786017.940  
  85115268.59208      1323.977          45.750  
  21823977.100   114685772.75608      2815.121          47.500    21823979.280  
  89365545.17309      2193.598          53.500  
  23870703.040   125441392.17507      -345.602          43.750    23870704.300  
  97746537.98209      -269.301          51.000  
  23100575.220   121394344.37508      2955.859          46.750    23100577.980  
  94593003.58909      2303.262          51.000  
  22583419.900   118676673.12308     -3123.074          45.750    22583418.800  
  92475324.28006     -2433.566          38.750  
  19482135.120   104289392.86509      -769.066          49.500    19482138.400  
  81113985.67508      -598.164          46.500  
  20747779.320   111103410.92508      2377.012          46.000    20747782.660  
  86413778.04908      1848.785          45.250  
  22150179.760   118197606.47305     -3283.918          37.000                  
                                                
  21452220.040   114513400.92606     -3823.152          41.250    21452224.900  
  89066004.18304     -2973.566          32.500  
  21642138.820   115608435.87906        52.578          39.250    21642143.420  
  89917680.48106        40.891          39.000  
  23073013.940   123381773.71506      3626.258          41.250    23073018.440  
  95963623.11106      2820.418          40.250  
  20559859.700   109981390.40908      1238.922          48.000    20559866.280  
  85541104.63306       963.605          39.500  
 20 10 03 06 44 35.0000000  0 15G15G20G18G23G24G27G10G13R 7R 8R 6R22
                                R16R24R23
  20458604.860   107510693.82709     -1655.684          49.750    20458603.640  
  83774561.62309     -1290.148          54.000  
  20459155.480   107513586.93509      1592.285          49.500    20459154.220  
  83776815.40708      1240.738          46.250  
  20687957.880   108715952.69409     -1523.105          49.500    20687957.420  
  84713725.34908     -1186.840          46.250  
  20784402.720   109222773.11609      1697.141          49.500    20784402.380  
  85108653.19908      1322.445          45.750  
  21821300.000   114671704.39608      2812.707          47.500    21821302.160  
  89354582.80809      2191.715          53.500  
  23871033.880   125443130.91207      -349.238          44.000    23871035.220  
  97747892.84709      -272.133          51.250  
  23097763.300   121379567.76708      2955.207          46.250    23097766.060  
  94581489.34909      2302.758          51.250  
  22586392.160   118692292.53608     -3124.336          46.250    22586391.100  
  92487495.23905     -2434.551          38.000  
  19482854.700   104293244.81209      -771.617          49.500    19482857.980  
  81116981.63508      -600.148          46.750  
  20745560.820   111091531.10808      2374.871          45.750    20745564.160  
  86404538.19808      1847.121          45.000  
  22153257.720   118214031.11605     -3285.152          38.250                  
                                                
  21455802.420   114532523.85007     -3825.648          41.500    21455807.260  
  89080877.58304     -2975.504          33.250  
  21642092.060   115608186.14106        47.750          39.500    21642096.660  
  89917486.23406        37.137          39.000  
  23069624.820   123363650.64207      3623.703          42.000    23069629.300  
  95949527.39606      2818.438          40.500  
  20558704.140   109975208.93208      1234.105          47.750    20558710.720  
  85536296.81906       959.859          39.250  
 20 10 03 06 44 40.0000000  0 15G15G20G18G23G24G27G10G13R 7R 8R 6R22
                                R16R24R23
  20460181.120   107518977.20009     -1657.969          49.750    20460179.920  
  83781016.19909     -1291.926          54.250  
  20457641.120   107505628.91609      1590.605          49.750    20457639.860  
  83770614.35408      1239.434          46.000  
  20689408.260   108723574.52209     -1525.910          49.750    20689407.820  
  84719664.43308     -1189.023          45.750  
  20782788.580   109214290.68809      1695.484          49.250    20782788.220  
  85102043.52008      1321.156          46.000  
  21818624.820   114657646.15908      2810.285          47.500    21818626.960  
  89343628.34009      2189.828          53.500  
  23871367.520   125444884.25907      -352.551          43.250    23871368.920  
  97749259.09209      -274.719          49.500  
  23094951.700   121364792.79608      2954.566          47.000    23094954.460  
  94569976.40109      2302.258          51.000  
  22589365.300   118707916.45808     -3125.344          46.750    22589364.220  
  92499669.71805     -2435.336          38.000  
  19483576.060   104297106.26609      -773.559          49.500    19483579.340  
  81119984.98008      -601.660          46.750  
  20743343.600   111079658.02208      2373.539          46.250    20743346.920  
  86395303.58007      1846.086          44.500  
  22156336.000   118230457.42305     -3285.801          37.000                  
                                                
  21459386.760   114551657.22506     -3828.055          41.250    21459391.580  
  89095759.08904     -2977.379          32.750  
  21642049.200   115607957.20706        43.398          39.250    21642053.800  
  89917308.17806        33.754          38.750  
  23066237.620   123345537.81807      3621.316          42.750    23066242.080  
  95935439.63106      2816.574          40.500  
  20557552.500   109969048.38108      1229.699          48.000    20557559.100  
  85531505.26706       956.430          39.250  
 20 10 03 06 44 45.0000000  0 15G15G20G18G23G24G27G10G13R 7R 8R 6R22
                                R16R24R23
  20461759.780   107527273.14409     -1660.496          49.750    20461758.600  
  83787480.56709     -1293.898          54.000  
  20456128.760   107497681.53409      1588.441          49.750    20456127.520  
  83764421.58808      1237.746          45.750  
  20690861.640   108731212.06709     -1529.090          49.500    20690861.200  
  84725615.76908     -1191.504          45.750  
  20781176.240   109205817.85209      1693.730          49.500    20781175.900  
  85095441.30908      1319.789          45.750  
  21815951.980   114643600.16108      2807.945          47.500    21815954.080  
  89332683.41309      2188.008          53.250  
  23871704.360   125446654.47107      -355.547          44.000    23871705.820  
  97750638.47109      -277.055          51.250  
  23092140.840   121350021.72408      2953.953          46.750    23092143.600  
  94558466.47509      2301.781          51.000  
  22592339.700   118723547.13508     -3126.785          46.750    22592338.640  
  92511849.47305     -2436.461          38.500  
  19484299.640   104300979.64609      -775.914          49.250    19484302.940  
  81122997.60708      -603.492          46.750  
  20741128.080   111067794.13108      2371.863          45.750    20741131.400  
  86386076.10508      1844.777          45.250  
  22159414.980   118246887.52005     -3286.637          36.750                  
                                                
  21462973.500   114570803.34606     -3830.383          40.750    21462978.300  
  89110650.51404     -2979.191          32.750  
  21642010.720   115607751.64806        38.230          39.000    21642015.320  
  89917148.29506        29.730          39.000  
  23062852.720   123327437.31706      3618.898          41.250    23062857.160  
  95921361.48206      2814.699          40.750  
  20556405.180   109962910.95708      1225.066          47.750    20556411.780  
  85526731.71106       952.824          39.000  
 20 10 03 06 44 50.0000000  0 15G15G20G18G23G24G27G10G13R 7R 8R 6R22
                                R16R24R23
  20463340.660   107535580.77709     -1662.539          50.000    20463339.500  
  83793954.04709     -1295.488          54.000  
  20454618.280   107489743.92409      1586.676          49.750    20454617.040  
  83758236.44608      1236.371          46.000  
  20692317.840   108738864.46509     -1531.832          50.000    20692317.400  
  84731578.67108     -1193.641          45.500  
  20779565.580   109197353.76609      1692.070          49.750    20779565.240  
  85088845.91708      1318.492          45.250  
  21813281.300   114629565.64608      2805.836          47.750    21813283.400  
  89321747.43309      2186.367          53.000  
  23872044.260   125448440.70707      -358.797          44.250    23872045.760  
  97752030.34009      -279.586          51.500  
  23089330.560   121335253.77108      2953.262          47.500    23089333.320  
  94546958.99009      2301.242          50.500  
  22595315.260   118739183.70608     -3127.949          46.500    22595314.200  
  92524033.80505     -2437.367          37.500  
  19485025.280   104304864.08109      -777.934          49.000    19485028.580  
  81126018.83408      -605.063          46.750  
  20738914.080   111055938.33908      2370.543          45.750    20738917.400  
  86376854.93508      1843.750          45.250  
  22162494.500   118263320.55405     -3286.176          36.750                  
                                                
  21466562.440   114589961.32706     -3832.523          39.750    21466567.220  
  89125551.16204     -2980.855          33.000  
  21641976.380   115607568.34106        34.465          38.750    21641980.980  
  89917005.74206        26.805          39.250  
  23059469.980   123309348.40106      3616.707          41.250    23059474.420  
  95907292.34406      2812.996          40.500  
  20555262.040   109956795.92108      1221.004          47.500    20555268.640  
  85521975.57406       949.668          39.000  
 20 10 03 06 44 55.0000000  0 15G15G20G18G23G24G27G10G13R 7R 8R 6R22
                                R16R24R23
  20464923.960   107543901.09509     -1665.363          50.000    20464922.800  
  83800437.40809     -1297.691          54.000  
  20453109.840   107481817.11109      1584.238          49.750    20453108.620  
  83752059.70808      1234.473          45.750  
  20693777.060   108746532.70209     -1535.297          49.750    20693776.640  
  84737553.91408     -1196.340          45.750  
  20777956.760   109188899.42309      1689.918          49.500    20777956.420  
  85082258.11908      1316.820          45.750  
  21810613.020   114615543.67908      2803.195          48.000    21810615.100  
  89310821.22509      2184.309          52.750  
  23872387.380   125450243.95207      -362.574          43.500    23872388.940  
  97753435.46709      -282.527          51.500  
  23086521.080   121320489.87508      2952.230          47.250    23086523.820  
  94535454.65309      2300.438          50.500  
  22598292.100   118754827.19008     -3129.348          46.750    22598291.060  
  92536223.53105     -2438.457          38.500  
  19485753.180   104308760.55409      -780.535          49.000    19485756.480  
  81129049.42008      -607.086          46.750  
  20736701.780   111044091.65608      2368.309          45.500    20736705.100  
  86367640.85908      1842.020          45.250  
  22165574.820   118279757.82305     -3287.410          36.500                  
                                                
  21470153.780   114609132.09006     -3835.758          40.250    21470158.580  
  89140461.73704     -2983.371          32.750  
  21641946.480   115607408.60406        30.055          39.250    21641951.080  
  89916881.49806        23.371          39.000  
  23056089.620   123291272.16106      3613.637          41.250    23056094.080  
  95893233.04006      2810.605          40.750  
  20554123.280   109950704.33108      1215.949          47.250    20554129.880  
  85517237.67106       945.734          39.000  
 20 10 03 06 45  0.0000000  0 15G15G20G18G23G24G27G10G13R 7R 8R 6R22
                                R16R24R23
  20466509.800   107552234.73609     -1667.418          50.000    20466508.660  
  83806931.15009     -1299.289          53.750  
  20451603.600   107473901.72909      1582.496          49.750    20451602.380  
  83745891.87408      1233.109          46.250  
  20695239.400   108754217.39509     -1537.898          49.750    20695238.980  
  84743541.98708     -1198.367          45.500  
  20776349.940   109180455.45309      1688.301          49.500    20776349.580  
  85075678.40908      1315.559          45.500  
  21807947.240   114601534.85608      2801.031          48.000    21807949.300  
  89299905.26509      2182.645          53.000  
  23872733.880   125452064.83507      -365.449          43.250    23872735.460  
  97754854.33509      -284.770          52.000  
  23083712.480   121305730.67208      2952.145          47.250    23083715.220  
  94523953.98709      2300.371          51.500  
  22601270.400   118770478.20708     -3130.469          46.750    22601269.360  
  92548419.12905     -2439.328          37.750  
  19486483.420   104312669.63209      -782.512          49.000    19486486.740  
  81132089.81808      -608.625          47.000  
  20734491.360   111032254.95808      2367.020          45.750    20734494.660  
  86358434.54208      1841.016          45.250  
  22168656.020   118296199.83205     -3288.453          37.000                  
                                                
  21473747.660   114628316.34906     -3837.531          40.500    21473752.460  
  89155382.81004     -2984.750          33.250  
  21641921.080   115607272.94906        25.133          39.500    21641925.680  
  89916775.99006        19.547          39.250  
  23052711.760   123273209.18806      3611.828          40.250    23052716.200  
  95879184.06706      2809.199          40.500  
  20552989.040   109944636.85008      1211.723          47.750    20552995.620  
  85512518.51706       942.449          39.500  
 20 10 03 06 45  5.0000000  0 15G15G20G18G23G24G27G10G13R 7R 8R 6R22
                                R16R24R23
  20468097.800   107560579.83409     -1670.582          49.750    20468096.680  
  83813433.82209     -1301.758          54.000  
  20450099.160   107465995.96209      1579.852          49.750    20450097.960  
  83739731.53608      1231.051          46.000  
  20696704.540   108761916.72909     -1541.727          49.750    20696704.140  
  84749541.46408     -1201.348          45.750  
  20774744.720   109172020.05509      1685.855          49.750    20774744.380  
  85069105.36708      1313.648          45.750  
  21805283.620   114587537.36408      2798.039          48.250    21805285.640  
  89288998.13309      2180.289          52.750  
  23873083.360   125453901.50607      -369.383          43.250    23873085.000  
  97756285.49809      -287.836          52.000  
  23080904.420   121290974.36408      2950.660          47.250    23080907.160  
  94512455.57809      2299.215          51.250  
  22604249.760   118786134.87808     -3132.484          47.250    22604248.720  
  92560619.13405     -2440.898          38.000  
  19487215.720   104316589.65909      -785.297          49.250    19487219.040  
  81135138.72008      -610.855          46.750  
  20732282.420   111020426.28308      2364.582          46.000    20732285.720  
  86349234.46208      1839.117          45.250  
  22171737.720   118312644.54505     -3289.742          37.250                  
                                                
  21477343.700   114647512.20406     -3840.824          41.250    21477348.500  
  89170312.91104     -2987.313          33.750  
  21641899.840   115607159.45706        19.945          40.000    21641904.440  
  89916687.70606        15.508          39.000  
  23049336.020   123255157.66906      3609.008          40.750    23049340.460  
  95865144.00506      2807.008          40.750  
  20551858.900   109938591.40408      1206.539          47.500    20551865.480  
  85507816.51106       938.418          39.500  
 20 10 03 06 45 10.0000000  0 15G15G20G18G23G24G27G10G13R 7R 8R 6R22
                                R16R24R23
  20469688.380   107568938.37009     -1672.785          50.000    20469687.260  
  83819946.96509     -1303.473          54.000  
  20448596.960   107458101.76909      1577.949          49.750    20448595.740  
  83733580.21708      1229.570          46.000  
  20698172.840   108769632.64809     -1544.445          49.750    20698172.420  
  84755553.86608     -1203.469          45.750  
  20773141.520   109163595.19009      1684.309          49.500    20773141.180  
  85062540.53708      1312.445          45.500  
  21802622.540   114573553.19208      2795.918          48.000    21802624.540  
  89278101.37309      2178.621          52.750  
  23873436.240   125455755.96907      -372.434          43.500    23873437.920  
  97757730.52509      -290.211          51.750  
  23078097.300   121276222.90408      2950.207          47.000    23078100.020  
  94500960.93809      2298.863          51.000  
  22607230.600   118801799.20908     -3133.281          47.250    22607229.540  
  92572825.10205     -2441.523          38.250  
  19487950.380   104320522.38309      -787.531          49.250    19487953.700  
  81138197.51208      -612.492          46.750  
  20730075.340   111008607.53208      2363.125          45.500    20730078.640  
  86340042.10008      1837.984          45.250  
  22174820.360   118329094.20105     -3290.137          37.000                  
                                                
  21480942.260   114666721.63606     -3842.777          41.000    21480947.060  
  89185253.58904     -2988.828          32.750  
  21641883.140   115607070.16806        15.926          40.250    21641887.740  
  89916618.25506        12.383          38.750  
  23045962.800   123237119.65306      3606.469          40.750    23045967.260  
  95851114.43906      2805.031          40.500  
  20550733.300   109932570.16508      1202.105          47.500    20550739.860  
  85503133.32806       934.969          39.250  
 20 10 03 06 45 15.0000000  0 15G15G20G18G23G24G27G10G13R 7R 8R 6R22
                                R16R24R23
  20471281.200   107577308.79609     -1675.199          50.000    20471280.100  
  83826469.37409     -1305.355          54.000  
  20447096.640   107450217.66009      1575.957          49.750    20447095.440  
  83727436.75708      1228.020          46.250  
  20699644.000   108777363.65609     -1547.543          49.500    20699643.600  
  84761578.02608     -1205.883          46.000  
  20771540.040   109155179.35509      1682.367          49.500    20771539.700  
  85055982.74808      1310.934          45.750  
  21799963.700   114559580.83308      2793.379          48.000    21799965.660  
  89267213.82909      2176.660          53.000  
  23873792.200   125457626.65107      -375.547          43.750    23873793.920  
  97759188.21009      -292.633          52.500  
  23075290.820   121261474.79908      2949.402          47.250    23075293.540  
  94489468.90609      2298.230          51.000  
  22610212.600   118817469.66208     -3134.527          47.000    22610211.540  
  92585035.83205     -2442.492          38.250  
  19488687.140   104324466.34709      -789.828          49.250    19488690.460  
  81141265.04108      -614.316          47.000  
  20727869.860   110996797.34008      2361.320          45.500    20727873.140  
  86330856.40708      1836.582          45.500  
  22177903.560   118345546.89905     -3290.793          37.750                  
                                                
  21484543.100   114685943.09806     -3845.242          41.000    21484547.880  
  89200203.60704     -2990.746          32.750  
  21641870.660   115607003.58006        11.117          39.750    21641875.260  
  89916566.46406         8.645          38.750  
  23042591.800   123219093.47806      3604.164          41.000    23042596.240  
  95837094.10206      2803.238          41.000  
  20549611.940   109926571.60808      1197.516          47.250    20549618.500  
  85498467.76906       931.398          39.000  
 20 10 03 06 45 20.0000000  0 15G15G20G18G23G24G27G10G13R 7R 8R 6R22
                                R16R24R23
  20472875.580   107585687.33809     -1676.813          50.250    20472874.480  
  83832998.10809     -1306.609          53.750  
  20445597.540   107442339.83109      1574.684          49.750    20445596.320  
  83721298.19808      1227.027          46.000  
  20701117.300   108785105.95009     -1549.898          49.750    20701116.920  
  84767610.97608     -1207.719          45.750  
  20769939.560   109146768.76609      1681.336          49.750    20769939.220  
  85049429.04408      1310.129          45.750  
  21797306.400   114545616.55408      2791.910          48.000    21797308.340  
  89256332.57009      2175.516          53.000  
  23874150.540   125459509.82507      -378.000          44.000    23874152.300  
  97760655.61409      -294.551          51.500  
  23072484.280   121246726.26908      2949.445          47.750    23072486.980  
  94477976.53509      2298.266          50.750  
  22613195.020   118833142.42608     -3135.051          47.000    22613193.960  
  92597248.38205     -2442.898          38.250  
  19489425.300   104328417.77209      -791.523          49.250    19489428.620  
  81144338.36808      -615.633          47.000  
  20725665.240   110984991.86308      2360.293          45.500    20725668.520  
  86321674.37808      1835.785          45.250  
  22180986.700   118361999.25305     -3290.328          38.000                  
                                                
  21488145.480   114705172.79306     -3847.199          41.000    21488150.260  
  89215160.03004     -2992.270          32.750  
  21641861.720   115606955.79206         7.281          39.250    21641866.300  
  89916529.29806         5.664          39.000  
  23039222.320   123201075.47506      3602.395          40.000    23039226.800  
  95823080.09106      2801.859          41.000  
  20548494.080   109920591.89408      1193.883          47.000    20548500.640  
  85493816.89006       928.574          39.000  
 20 10 03 06 45 25.0000000  0 15G15G20G18G23G24G27G10G13R 7R 8R 6R22
                                R16R24R23
  20474472.340   107594078.36009     -1679.469          50.000    20474471.240  
  83839536.56709     -1308.680          54.000  
  20444100.460   107434472.65709      1572.313          49.500    20444099.260  
  83715167.92808      1225.180          46.250  
  20702593.580   108792863.87209     -1553.129          49.750    20702593.200  
  84773656.11408     -1210.230          45.750  
  20768340.900   109138367.79009      1679.203          49.500    20768340.580  
  85042882.82708      1308.465          46.000  
  21794651.460   114531664.65808      2789.105          47.750    21794653.360  
  89245460.96509      2173.320          53.250  
  23874512.080   125461409.80407      -381.742          43.750    23874513.860  
  97762136.12109      -297.461          50.000  
  23069678.480   121231981.68508      2948.516          47.000    23069681.140  
  94466487.25709      2297.543          51.250  
  22616178.740   118848821.84408     -3136.754          47.000    22616177.660  
  92609466.11705     -2444.227          38.250  
  19490165.660   104332380.96409      -793.805          49.250    19490169.000  
  81147420.84608      -617.406          47.000  
  20723462.320   110973195.35408      2358.277          45.500    20723465.600  
  86312499.31708      1834.215          45.500  
  22184070.560   118378455.29405     -3291.535          37.750                  
                                                
  21491750.200   114724414.97806     -3849.520          40.500    21491754.960  
  89230126.16904     -2994.074          32.250  
  21641857.100   115606931.17406         2.621          39.750    21641861.680  
  89916510.15906         2.039          39.750  
  23035855.180   123183069.96606      3599.754          40.250    23035859.680  
  95809075.81406      2799.809          41.250  
  20547380.580   109914635.45108      1189.070          47.000    20547387.140  
  85489184.10206       924.832          39.000  
 20 10 03 06 45 30.0000000  0 15G15G20G18G23G24G27G10G13R 7R 8R 6R22
                                R16R24R23
  20476071.540   107602482.21509     -1682.113          50.000    20476070.460  
  83846085.02809     -1310.738          54.000  
  20442605.480   107426616.56509      1570.016          49.750    20442604.280  
  83709046.30408      1223.391          46.500  
  20704072.920   108800637.85909     -1556.582          49.500    20704072.540  
  84779713.76208     -1212.926          45.750  
  20766744.160   109129976.84609      1677.078          49.250    20766743.840  
  85036344.42808      1306.809          45.750  
  21791998.960   114517725.57708      2786.234          47.500    21792000.820  
  89234599.34309      2171.090          53.000  
  23874876.900   125463327.01907      -385.359          44.250    23874878.720  
  97763630.05709      -300.281          50.750  
  23066873.500   121217241.43908      2947.594          47.000    23066876.140  
  94455001.35509      2296.828          51.750  
  22619163.800   118864508.41208     -3138.012          47.000    22619162.720  
  92621689.41006     -2445.207          39.000  
  19490908.320   104336356.42209      -796.398          49.000    19490911.660  
  81150512.86108      -619.426          46.750  
  20721261.200   110961408.45108      2356.457          45.750    20721264.460  
  86303331.72608      1832.801          45.000  
  22187155.220   118394915.56205     -3292.727          37.500                  
                                                
  21495357.360   114743670.20306     -3852.598          40.250    21495362.120  
  89245102.44504     -2996.469          32.750  
  21641856.940   115606930.34106        -2.684          40.000    21641861.520  
  89916509.51306        -2.086          40.000  
  23032490.480   123165077.48306      3596.648          40.250    23032495.000  
  95795081.66106      2797.395          41.000  
  20546271.520   109908702.68608      1183.984          47.000    20546278.060  
  85484569.73106       920.871          39.250  
 20 10 03 06 45 35.0000000  0 15G15G20G18G23G24G27G10G13R 7R 8R 6R22
                                R16R24R23
  20477673.120   107610898.63609     -1684.418          50.000    20477672.040  
  83852643.27909     -1312.535          54.000  
  20441112.560   107418771.22809      1568.164          49.500    20441111.380  
  83702933.04808      1221.941          46.250  
  20705555.260   108808427.54509     -1559.328          49.750    20705554.880  
  84785783.64608     -1215.066          45.750  
  20765149.260   109121595.61109      1675.410          49.500    20765148.920  
  85029813.60108      1305.516          46.000  
  21789348.820   114503799.00008      2784.383          47.500    21789350.660  
  89223747.46909      2169.648          53.250  
  23875244.960   125465261.16907      -388.559          43.750    23875246.800  
  97765137.17709      -302.777          51.000  
  23064069.260   121202505.21908      2946.980          47.000    23064071.880  
  94443518.61509      2296.348          51.500  
  22622150.140   118880201.66808     -3139.105          46.750    22622149.060  
  92633917.90906     -2446.059          39.250  
  19491653.180   104340343.79709      -798.516          49.250    19491656.520  
  81153614.16008      -621.066          46.750  
  20719061.760   110949630.65908      2354.789          45.500    20719065.020  
  86294171.22808      1831.504          45.250  
  22190240.600   118411379.77805     -3293.113          37.250                  
                                                
  21498966.880   114762937.94506     -3854.316          41.250    21498971.620  
  89260088.45904     -2997.805          32.250  
  21641861.140   115606952.77906        -6.738          40.000    21641865.720  
  89916526.97506        -5.242          39.750  
  23029128.140   123147097.63606      3594.773          41.000    23029132.660  
  95781097.34806      2795.844          40.500  
  20545166.820   109902793.30908      1179.523          47.000    20545173.340  
  85479973.55106       917.406          39.750  
 20 10 03 06 45 40.0000000  0 15G15G20G18G23G24G27G10G13R 7R 8R 6R22
                                R16R24R23
  20479277.360   107619328.97909     -1687.578          50.250    20479276.300  
  83859212.36809     -1315.000          54.000  
  20439621.940   107410938.04609      1565.223          49.750    20439620.760  
  83696829.27408      1219.652          46.250  
  20707040.840   108816234.33909     -1563.285          49.750    20707040.460  
  84791866.85608     -1218.148          46.000  
  20763556.480   109113225.49609      1672.754          49.500    20763556.160  
  85023291.42908      1303.441          45.750  
  21786701.360   114489886.38008      2780.988          47.250    21786703.160  
  89212906.46509      2167.098          53.250  
  23875616.460   125467213.55207      -392.422          43.750    23875618.300  
  97766658.53009      -305.785          51.250  
  23061266.100   121187774.45908      2945.590          47.500    23061268.700  
  94432040.09209      2295.262          51.500  
  22625138.020   118895903.00508     -3141.133          46.500    22625136.940  
  92646152.70705     -2447.641          38.000  
  19492400.540   104344344.44609      -801.543          49.250    19492403.880  
  81156725.77908      -623.477          46.750  
  20716864.300   110937863.38508      2352.305          45.500    20716867.540  
  86285018.91108      1829.570          45.250  
  22193327.040   118427849.55505     -3294.434          36.750                  
                                                
  21502578.980   114782219.63406     -3858.051          41.000    21502583.720  
  89275085.33204     -3000.711          32.750  
  21641870.000   115607000.05706       -12.012          39.750    21641874.560  
  89916563.74906        -9.344          39.750  
  23025768.440   123129131.97406      3591.336          40.250    23025772.980  
  95767124.07206      2793.211          41.000  
  20544066.760   109896908.78408      1174.313          47.000    20544073.280  
  85475396.70806       913.355          39.750  
 20 10 03 06 45 45.0000000  0 15G15G20G18G23G24G27G10G13R 7R 8R 6R22
                                R16R24R23
  20480884.140   107627772.64409     -1689.883          50.250    20480883.080  
  83865791.85109     -1316.797          53.750  
  20438133.520   107403116.39609      1563.367          49.750    20438132.340  
  83690734.48208      1218.207          46.000  
  20708529.560   108824057.61809     -1566.238          49.750    20708529.200  
  84797962.91108     -1220.449          45.750  
  20761965.700   109104865.88809      1671.020          49.500    20761965.360  
  85016777.45108      1302.094          45.750  
  21784056.420   114475987.12608      2778.465          47.500    21784058.200  
  89202075.88609      2165.039          53.250  
  23875991.340   125469183.63807      -395.563          42.500    23875993.200  
  97768193.67909      -308.227          50.750  
  23058463.860   121173048.52508      2944.750          47.500    23058466.420  
  94420565.33709      2294.609          50.750  
  22628127.320   118911611.83308     -3142.387          46.750    22628126.240  
  92658393.35806     -2448.617          40.000  
  19493150.240   104348357.72109      -803.824          49.250    19493153.600  
  81159847.21708      -625.195          46.750  
  20714668.700   110926106.09708      2350.438          46.000    20714671.940  
  86275874.35008      1828.113          45.000  
  22196414.320   118444323.91505     -3295.016          37.000                  
                                                
  21506193.620   114801514.74507     -3860.379          41.500    21506198.340  
  89290092.62804     -3002.520          32.750  
  21641883.380   115607071.57306       -16.613          39.750    21641887.960  
  89916619.36906       -12.926          39.750  
  23022411.300   123111179.86706      3589.305          41.000    23022415.860  
  95753161.32006      2791.676          40.500  
  20542971.220   109891048.46608      1169.957          47.000    20542977.740  
  85470838.68806       909.965          39.500  
 20 10 03 06 45 50.0000000  0 15G15G20G18G23G24G27G10G13R 7R 8R 6R22
                                R16R24R23
  20482493.020   107636227.40709     -1692.285          50.250    20482491.960  
  83872379.97209     -1318.668          53.750  
  20436646.900   107395304.12609      1561.250          49.750    20436645.720  
  83684646.99908      1216.559          46.000  
  20710021.000   108831895.18609     -1569.219          49.750    20710020.640  
  84804070.10508     -1222.773          45.500  
  20760376.500   109096514.59409      1669.059          49.500    20760376.160  
  85010269.95308      1300.566          45.000  
  21781413.600   114462099.09808      2776.207          47.500    21781415.400  
  89191254.04909      2163.289          53.250  
  23876369.180   125471169.24807      -399.055          42.750    23876371.060  
  97769740.88709      -310.957          51.000  
  23055662.120   121158325.23708      2944.102          47.750    23055664.660  
  94409092.64109      2294.102          50.500  
  22631117.620   118927325.94908     -3143.609          46.750    22631116.540  
  92670638.12805     -2449.570          38.250  
  19493901.920   104352381.54209      -806.094          49.500    19493905.280  
  81162976.85508      -626.961          46.750  
  20712474.540   110914356.51308      2348.918          46.250    20712477.780  
  86266735.78108      1826.934          45.000  
  22199502.040   118460800.58905     -3295.492          36.250                  
                                                
  21509810.320   114820821.00207     -3862.707          41.750    21509815.040  
  89305108.59904     -3004.332          33.500  
  21641900.840   115607164.78806       -20.926          39.250    21641905.420  
  89916691.86106       -16.281          39.250  
  23019056.240   123093239.02406      3586.621          41.250    23019060.820  
  95739207.34206      2789.594          40.750  
  20541879.780   109885210.02508      1165.285          48.000    20541886.280  
  85466297.68006       906.332          39.250  
 20 10 03 06 45 55.0000000  0 15G15G20G18G23G24G27G10G13R 7R 8R 6R22
                                R16R24R23
  20484103.880   107644692.53109     -1694.109          50.000    20484102.820  
  83878976.17909     -1320.086          53.750  
  20435161.900   107387500.49309      1559.879          50.000    20435160.740  
  83678566.25208      1215.488          46.000  
  20711515.020   108839746.30109     -1571.516          49.750    20711514.660  
  84810187.85808     -1224.559          46.000  
  20758788.740   109088170.88509      1667.992          49.250    20758788.400  
  85003768.36208      1299.730          45.500  
  21778772.800   114448221.47408      2774.426          47.750    21778774.560  
  89180440.31709      2161.891          53.250  
  23876749.820   125473169.54607      -401.840          44.250    23876751.700  
  97771299.56309      -313.121          50.500  
  23052860.720   121143603.85408      2944.145          48.000    23052863.240  
  94397621.45209      2294.137          51.250  
  22634108.800   118943044.58308     -3144.199          46.750    22634107.700  
  92682886.40606     -2450.027          39.500  
  19494655.420   104356415.01409      -807.676          49.250    19494658.760  
  81166114.00208      -628.191          47.000  
  20710281.680   110902613.97808      2348.035          46.000    20710284.920  
  86257602.71308      1826.250          45.000  
  22202590.120   118477279.11105     -3295.953          37.250                  
                                                
  21513428.980   114840137.52106     -3864.043          41.000    21513433.700  
  89320132.54004     -3005.371          33.750  
  21641922.280   115607279.26006       -25.336          39.500    21641926.860  
  89916780.90106       -19.711          39.500  
  23015703.160   123075308.73007      3584.898          42.000    23015707.740  
  95725261.59006      2788.258          40.500  
  20540792.320   109879392.80508      1161.262          48.000    20540798.820  
  85461773.15906       903.199          39.500  
 20 10 03 06 46  0.0000000  0 15G15G20G18G23G24G27G10G13R 7R 8R 6R22
                                R16R24R23
  20485717.060   107653169.83909     -1696.902          50.000    20485716.000  
  83885581.87109     -1322.266          53.750  
  20433678.920   107379707.36509      1557.273          50.000    20433677.740  
  83672493.68508      1213.461          45.750  
  20713011.960   108847612.79209     -1575.094          49.750    20713011.600  
  84816317.59008     -1227.352          45.750  
  20757202.780   109079836.60109      1665.594          49.500    20757202.440  
  84997274.11408      1297.863          45.750  
  21776134.300   114434356.13408      2771.555          47.750    21776136.060  
  89169636.15909      2159.652          53.750  
  23877133.620   125475186.40207      -405.367          44.250    23877135.500  
  97772871.13709      -315.871          51.000  
  23050060.060   121128886.21908      2942.820          47.750    23050062.540  
  94386153.16409      2293.102          51.250  
  22637101.180   118958769.58808     -3146.043          46.500    22637100.080  
  92695139.65505     -2451.461          38.250  
  19495411.080   104360460.15409      -810.316          49.500    19495414.440  
  81169260.21308      -630.250          47.000  
  20708090.480   110890880.26908      2345.660          46.000    20708093.700  
  86248476.50308      1824.402          45.250  
  22205678.860   118493761.18805     -3296.578          38.000                  
                                                
  21517049.920   114859466.31006     -3867.031          41.000    21517054.620  
  89335166.03904     -3007.695          33.750  
  21641948.020   115607416.78006       -29.852          39.000    21641952.600  
  89916887.86706       -23.219          39.000  
  23012352.420   123057390.90007      3582.047          42.250    23012357.020  
  95711325.48806      2786.035          40.500  
  20539709.160   109873598.66908      1156.160          47.750    20539715.660  
  85457266.60906       899.230          39.500  
 20 10 03 06 46  5.0000000  0 15G15G20G18G23G24G27G10G13R 7R 8R 6R22
                                R16R24R23
  20487332.920   107661661.26409     -1699.430          50.000    20487331.880  
  83892198.56009     -1324.234          54.000  
  20432198.300   107371926.70409      1555.133          49.750    20432197.120  
  83666430.83608      1211.793          46.750  
  20714512.200   108855496.62209     -1578.219          49.500    20714511.860  
  84822460.82608     -1229.785          46.000  
  20755618.980   109071513.72309      1663.664          49.500    20755618.640  
  84990788.75108      1296.359          45.750  
  21773498.540   114420505.03508      2769.063          47.500    21773500.280  
  89158843.09309      2157.711          53.750  
  23877520.920   125477221.78807      -408.891          43.750    23877522.820  
  97774457.15609      -318.617          50.750  
  23047260.480   121114174.29208      2942.035          47.250    23047262.940  
  94374689.33309      2292.496          51.500  
  22640095.140   118974502.88108     -3147.152          46.750    22640094.040  
  92707399.36306     -2452.332          39.000  
  19496169.280   104364518.87909      -812.883          49.500    19496172.640  
  81172416.99808      -632.254          46.750  
  20705901.320   110879157.33108      2343.824          46.000    20705904.520  
  86239358.65108      1822.969          45.250  
  22208768.600   118510248.70205     -3297.645          37.500                  
                                                
  21520673.520   114878809.21006     -3869.750          40.500    21520678.220  
  89350210.49004     -3009.813          33.000  
  21641978.440   115607579.32906       -34.863          39.500    21641983.040  
  89917014.29406       -27.117          38.750  
  23009004.420   123039487.60707      3579.512          42.750    23009009.020  
  95697400.69506      2784.063          40.750  
  20538630.700   109867829.70208      1151.516          48.000    20538637.200  
  85452779.64106       895.621          39.500  
 20 10 03 06 46 10.0000000  0 15G15G20G18G23G24G27G10G13R 7R 8R 6R22
                                R16R24R23
  20488951.200   107670165.37009     -1702.016          50.000    20488950.160  
  83898825.13009     -1326.250          54.000  
  20430719.780   107364157.07109      1552.883          49.750    20430718.620  
  83660376.57708      1210.039          46.250  
  20716015.480   108863396.33309     -1581.352          49.750    20716015.140  
  84828616.44308     -1232.227          46.000  
  20754037.080   109063200.80109      1661.648          49.500    20754036.720  
  84984311.15908      1294.789          45.250  
  21770865.200   114406666.78208      2766.559          47.250    21770866.940  
  89148060.04109      2155.746          53.500  
  23877911.500   125479274.27608      -412.000          45.250    23877913.400  
  97776056.48909      -321.043          51.000  
  23044461.720   121099466.65408      2941.234          48.000    23044464.160  
  94363228.83809      2291.871          51.500  
  22643090.420   118990243.07808     -3148.563          46.000    22643089.300  
  92719664.44406     -2453.430          39.500  
  19496929.740   104368589.64909      -815.363          49.500    19496933.100  
  81175583.15208      -634.164          46.750  
  20703713.920   110867443.97308      2341.730          46.000    20703717.120  
  86230248.26808      1821.348          45.000  
  22211859.140   118526740.42305     -3298.734          37.750                  
                                                
  21524299.460   114898164.81006     -3872.391          40.750    21524304.180  
  89365264.84704     -3011.863          32.000  
  21642013.280   115607765.49406       -39.742          39.750    21642017.900  
  89917159.08905       -30.910          38.500  
  23005658.840   123021597.29507      3576.773          42.250    23005663.460  
  95683486.00606      2781.930          40.750  
  20537556.660   109862084.33608      1146.836          48.000    20537563.160  
  85448311.02906       891.984          39.000  
 20 10 03 06 46 15.0000000  0 15G15G20G18G23G24G27G10G13R 7R 8R 6R22
                                R16R24R23
  20490571.300   107678679.01809     -1703.621          50.250    20490570.260  
  83905459.13609     -1327.500          54.000  
  20429242.760   107356395.31809      1551.625          49.750    20429241.600  
  83654328.45308      1209.055          46.000  
  20717521.160   108871308.79009     -1583.660          50.000    20717520.820  
  84834781.99008     -1234.023          45.750  
  20752456.480   109054894.70509      1660.605          49.500    20752456.120  
  84977838.87508      1293.977          45.000  
  21768233.700   114392838.11908      2764.672          47.500    21768235.420  
  89137284.47209      2154.289          53.500  
  23878304.720   125481340.69007      -414.605          44.000    23878306.620  
  97777666.70009      -323.070          50.000  
  23041663.160   121084760.17408      2941.238          48.000    23041665.560  
  94351769.26809      2291.875          51.000  
  22646086.380   119005986.94108     -3149.035          45.750    22646085.260  
  92731932.38905     -2453.793          38.250  
  19497691.840   104372669.21409      -816.785          49.250    19497695.200  
  81178756.14708      -635.281          46.500  
  20701527.680   110855736.76208      2340.594          46.000    20701530.880  
  86221142.65808      1820.457          45.250  
  22214949.880   118543233.09705     -3298.047          37.750                  
                                                
  21527927.200   114917529.86506     -3873.746          40.250    21527931.900  
  89380326.55304     -3012.914          32.000  
  21642051.920   115607971.85906       -43.035          39.500    21642056.540  
  89917319.59405       -33.477          38.500  
  23002315.120   123003716.89807      3574.953          42.250    23002319.720  
  95669579.03206      2780.516          40.500  
  20536486.480   109856359.46908      1143.023          48.000    20536492.960  
  85443858.34806       889.016          39.000  
 20 10 03 06 46 20.0000000  0 15G15G20G18G23G24G27G10G13R 7R 8R 6R22
                                R16R24R23
  20492193.860   107687205.63709     -1707.008          50.000    20492192.820  
  83912103.25609     -1330.137          54.000  
  20427767.900   107348644.91609      1548.547          49.750    20427766.740  
  83648289.17908      1206.656          46.250  
  20719029.940   108879237.43809     -1587.746          49.750    20719029.600  
  84840960.15508     -1237.207          46.000  
  20750877.840   109046598.91909      1657.605          49.500    20750877.480  
  84971374.62608      1291.637          45.500  
  21765604.680   114379022.64908      2761.238          47.750    21765606.420  
  89126519.18109      2151.684          53.500  
  23878701.240   125483424.49807      -419.020          43.750    23878703.140  
  97779290.44909      -326.508          51.250  
  23038865.500   121070058.31908      2939.441          47.500    23038867.900  
  94340313.26909      2290.473          51.500  
  22649083.720   119021737.97208     -3151.223          46.000    22649082.600  
  92744205.90906     -2455.504          39.000  
  19498456.280   104376761.26209      -820.074          49.500    19498459.640  
  81181938.85508      -637.836          46.500  
  20699343.280   110844039.43108      2338.207          46.000    20699346.480  
  86212044.73408      1818.605          45.250  
  22218041.420   118559730.13905     -3299.930          37.750                  
                                                
  21531557.360   114936907.94906     -3877.203          40.500    21531562.080  
  89395398.37904     -3015.605          32.500  
  21642095.020   115608202.20106       -48.977          39.500    21642099.660  
  89917498.74805       -38.098          38.250  
  22998973.860   122985849.74307      3571.660          42.500    22998978.460  
  95655682.36206      2777.957          40.500  
  20535420.740   109850658.55708      1137.258          47.750    20535427.220  
  85439424.30906       884.535          39.250  
 20 10 03 06 46 25.0000000  0 15G15G20G18G23G24G27G10G13R 7R 8R 6R22
                                R16R24R23
  20493818.860   107695745.14009     -1708.480          50.000    20493817.840  
  83918757.41409     -1331.289          54.000  
  20426295.180   107340905.75409      1547.383          49.750    20426294.040  
  83642258.66308      1205.754          46.250  
  20720541.760   108887182.17609     -1589.914          49.750    20720541.440  
  84847150.86008     -1238.898          45.500  
  20749301.140   109038313.31009      1656.855          49.500    20749300.780  
  84964918.30808      1291.055          45.500  
  21762978.200   114365220.31208      2759.797          47.500    21762979.920  
  89115764.11709      2150.492          53.250  
  23879101.080   125485525.60807      -421.191          43.500    23879102.980  
  97780927.66509      -328.203          50.750  
  23036068.700   121055360.98108      2939.578          47.500    23036071.060  
  94328860.79809      2290.578          51.500  
  22652082.380   119037496.05008     -3151.711          45.750    22652081.260  
  92756484.93305     -2455.883          38.500  
  19499223.000   104380865.62809      -821.352          49.500    19499226.380  
  81185131.14008      -638.828          46.500  
  20697160.680   110832351.73708      2337.117          45.750    20697163.860  
  86202954.31108      1817.758          45.500  
  22221133.760   118576231.47105     -3299.953          38.000                  
                                                
  21535189.920   114956298.84306     -3878.563          41.250    21535194.620  
  89410480.19404     -3016.660          32.500  
  21642142.580   115608456.30906       -52.641          39.500    21642147.220  
  89917696.39005       -40.945          38.250  
  22995635.100   122967995.92807      3570.258          42.000    22995639.700  
  95641796.06706      2776.867          40.250  
  20534359.500   109844981.54708      1133.695          47.750    20534365.960  
  85435008.85306       881.758          39.000  
 20 10 03 06 46 30.0000000  0 15G15G20G18G23G24G27G10G13R 7R 8R 6R22
                                R16R24R23
  20495445.840   107704294.92309     -1711.320          50.250    20495444.800  
  83925419.58309     -1333.500          53.750  
  20424824.100   107333175.18709      1544.730          49.750    20424822.940  
  83636234.85108      1203.688          46.000  
  20722056.160   108895140.33609     -1593.410          49.500    20722055.820  
  84853352.02208     -1241.621          45.750  
  20747725.880   109030035.26509      1654.430          49.750    20747725.520  
  84958467.88708      1289.160          45.000  
  21760353.660   114351428.27908      2756.980          47.750    21760355.380  
  89105017.08109      2148.281          53.250  
  23879503.680   125487641.35907      -425.129          44.000    23879505.600  
  97782576.30409      -331.270          50.000  
  23033272.260   121040665.50808      2938.402          47.500    23033274.620  
  94317409.77609      2289.664          51.250  
  22655081.880   119053258.50008     -3153.270          46.000    22655080.780  
  92768767.35705     -2457.098          38.000  
  19499991.520   104384979.56209      -824.094          49.500    19499994.880  
  81188330.86908      -640.965          46.500  
  20694979.360   110820670.98508      2334.957          46.000    20694982.540  
  86193869.29208      1816.078          45.750  
  22224226.400   118592734.34605     -3300.809          38.250                  
                                                
  21538824.380   114975699.89406     -3881.777          40.750    21538829.080  
  89425569.90404     -3019.160          33.250  
  21642194.100   115608731.51206       -57.965          39.750    21642198.740  
  89917910.44005       -45.082          38.000  
  22992298.340   122950152.81307      3567.355          42.000    22992302.940  
  95627918.09906      2774.609          40.250  
  20533302.200   109839325.69208      1128.660          48.000    20533308.660  
  85430609.85106       877.844          39.250  
 20 10 03 06 46 35.0000000  0 15G15G20G18G23G24G27G10G13R 7R 8R 6R22
                                R16R24R23
  20497075.380   107712858.19709     -1714.031          50.250    20497074.340  
  83932092.25809     -1335.613          53.750  
  20423355.260   107325456.42309      1542.598          50.000    20423354.120  
  83630220.23408      1202.023          46.000  
  20723573.700   108903115.12909     -1596.484          49.750    20723573.380  
  84859566.13908     -1244.020          45.500  
  20746152.660   109021767.97809      1652.418          49.500    20746152.280  
  84952025.84708      1287.598          45.000  
  21757731.720   114337649.95508      2754.426          48.000    21757733.440  
  89094280.72809      2146.305          52.750  
  23879909.680   125489774.89007      -428.496          44.500    23879911.580  
  97784238.81509      -333.895          50.750  
  23030476.760   121025975.11708      2937.535          47.500    23030479.100  
  94305962.73409      2288.988          51.500  
  22658082.840   119069028.53308     -3154.539          46.000    22658081.740  
  92781055.67805     -2458.090          38.000  
  19500762.440   104389106.34909      -826.688          49.000    19500765.800  
  81191540.59008      -642.984          46.500  
  20692799.940   110809000.23608      2333.090          46.000    20692803.120  
  86184792.04808      1814.625          45.500  
  22227319.960   118609242.05505     -3301.902          37.500                  
                                                
  21542461.360   114995114.33206     -3884.453          41.000    21542466.060  
  89440670.02004     -3021.246          33.000  
  21642250.160   115609031.00606       -62.285          39.750    21642254.800  
  89918143.38705       -48.445          38.000  
  22988964.180   122932323.64607      3564.219          41.500    22988968.780  
  95614050.98506      2772.172          40.250  
  20532249.480   109833694.35808      1123.848          47.500    20532255.940  
  85426229.92006       874.102          39.000  
 20 10 03 06 46 40.0000000  0 15G15G20G18G23G24G27G10G13R 7R 8R 6R22
                                R16R24R23
  20498706.980   107721432.30509     -1715.785          50.250    20498705.940  
  83938773.38109     -1336.980          54.000  
  20421888.200   107317746.98409      1541.039          49.750    20421887.060  
  83624212.87808      1200.805          46.250  
  20725093.940   108911104.01709     -1599.082          49.750    20725093.620  
  84865791.25408     -1246.039          45.500  
  20744581.000   109013508.92809      1650.992          49.500    20744580.640  
  84945590.22408      1286.484          45.250  
  21755111.940   114323882.81508      2752.504          48.000    21755113.640  
  89083553.08909      2144.805          53.000  
  23880318.600   125491923.76107      -431.297          44.500    23880320.500  
  97785913.25109      -336.078          51.250  
  23027681.760   121011287.30108      2937.492          47.250    23027684.080  
  94294517.68509      2288.953          51.750  
  22661084.740   119084803.64708     -3155.414          46.250    22661083.640  
  92793347.97106     -2458.770          39.250  
  19501535.300   104393243.46009      -828.254          49.250    19501538.660  
  81194758.34208      -644.203          46.750  
  20690621.940   110797337.20408      2332.027          46.250    20690625.120  
  86175720.80708      1813.801          45.500  
  22230413.960   118625752.20205     -3302.500          37.750                  
                                                
  21546100.360   115014539.46006     -3886.160          40.500    21546105.060  
  89455778.44504     -3022.574          33.750  
  21642310.320   115609352.37506       -66.141          40.250    21642314.940  
  89918393.34105       -51.445          38.250  
  22985632.160   122914505.83307      3562.598          42.000    22985636.760  
  95600192.68106      2770.973          40.000  
  20531200.860   109828084.96908      1119.719          47.250    20531207.320  
  85421867.06406       870.891          39.250  
 20 10 03 06 46 45.0000000  0 15G15G20G18G23G24G27G10G13R 7R 8R 6R22
                                R16R24R23
  20500340.400   107730016.00609     -1718.391          50.000    20500339.380  
  83945461.97909     -1339.008          54.000  
  20420422.660   107310045.58209      1538.875          50.000    20420421.520  
  83618211.78208      1199.125          46.500  
  20726616.620   108919105.74409     -1602.293          49.500    20726616.300  
  84872026.36308     -1248.543          46.000  
  20743010.680   109005256.86909      1649.133          49.500    20743010.320  
  84939160.04808      1285.039          46.000  
  21752494.020   114310125.58208      2749.863          47.750    21752495.740  
  89072833.16309      2142.746          53.500  
  23880730.200   125494086.69407      -434.715          44.500    23880732.120  
  97787598.63309      -338.742          51.250  
  23024887.020   120996600.78208      2936.563          47.500    23024889.340  
  94283073.64609      2288.230          51.500  
  22664087.360   119100582.51708     -3156.809          46.000    22664086.260  
  92805643.20105     -2459.852          38.500  
  19502309.820   104397389.52309      -830.680          49.250    19502313.180  
  81197983.05208      -646.090          46.750  
  20688445.140   110785680.55208      2329.969          46.000    20688448.320  
  86166654.52208      1812.199          45.750  
  22233508.120   118642263.19505     -3302.578          37.250                  
                                                
  21549741.120   115033974.06806     -3888.605          40.500    21549745.820  
  89470894.23904     -3024.477          33.000  
  21642374.300   115609694.20406       -71.465          39.500    21642378.940  
  89918659.20705       -55.582          38.000  
  22982302.020   122896698.05607      3560.074          42.500    22982306.620  
  95586342.19406      2768.945          40.500  
  20530156.120   109822496.29108      1115.156          47.500    20530162.560  
  85417520.32106       867.344          39.750  
 20 10 03 06 46 50.0000000  0 15G15G20G18G23G24G27G10G13R 7R 8R 6R22
                                R16R24R23
  20501976.700   107738614.82609     -1721.129          50.000    20501975.680  
  83952162.35609     -1341.145          54.000  
  20418959.720   107302357.76009      1536.445          49.750    20418958.580  
  83612221.27308      1197.230          46.250  
  20728142.800   108927125.81109     -1605.594          49.500    20728142.480  
  84878275.75808     -1251.117          45.750  
  20741442.760   108997017.34209      1646.816          49.500    20741442.380  
  84932739.62908      1283.230          45.750  
  21749879.080   114296383.90108      2746.898          47.500    21749880.780  
  89062125.36109      2140.438          53.750  
  23881145.500   125496269.12908      -437.984          44.750    23881147.420  
  97789299.23409      -341.285          51.000  
  23022093.560   120981921.11408      2935.469          47.250    23022095.860  
  94271634.96009      2287.379          51.750  
  22667091.740   119116370.64308     -3158.449          46.250    22667090.660  
  92817945.62205     -2461.133          38.250  
  19503087.080   104401550.19009      -833.270          49.250    19503090.440  
  81201219.12608      -648.102          47.000  
  20686270.580   110774035.85808      2327.965          45.750    20686273.740  
  86157597.54008      1810.641          45.750  
  22236603.540   118658780.82705     -3304.133          38.000                  
                                                
  21553384.700   115053423.68406     -3891.406          41.250    21553389.420  
  89486021.70504     -3026.652          33.500  
  21642443.180   115610062.13206       -75.816          39.750    21642447.780  
  89918945.38405       -58.969          38.250  
  22978974.800   122878906.02007      3557.141          42.000    22978979.420  
  95572503.94406      2766.664          40.250  
  20529116.240   109816933.68508      1110.195          47.250    20529122.680  
  85413193.85506       863.484          39.750  
 20 10 03 06 46 55.0000000  0 15G15G20G18G23G24G27G10G13R 7R 8R 6R22
                                R16R24R23
  20503615.580   107747227.21209     -1723.477          50.000    20503614.560  
  83958873.30209     -1342.973          54.000  
  20417499.060   107294682.00009      1534.289          49.750    20417497.940  
  83606240.16208      1195.547          46.750  
  20729672.180   108935162.73909     -1608.813          49.750    20729671.860  
  84884538.29508     -1253.625          46.000  
  20739876.920   108988788.81809      1644.945          49.500    20739876.540  
  84926327.80008      1281.777          46.000  
  21747266.760   114282656.08508      2744.484          47.750    21747268.460  
  89051428.37209      2138.559          53.500  
  23881564.260   125498469.66407      -441.422          44.250    23881566.180  
  97791013.93509      -343.969          51.500  
  23019301.140   120967246.78508      2934.582          47.250    23019303.440  
  94260200.41409      2286.684          52.000  
  22670097.620   119132166.62508     -3159.535          45.750    22670096.520  
  92830254.18005     -2461.980          38.500  
  19503866.780   104405723.99309      -835.703          49.250    19503870.140  
  81204465.41408      -649.996          46.750  
  20684097.980   110762401.68108      2326.137          45.750    20684101.140  
  86148548.73308      1809.215          45.750  
  22239699.900   118675303.54405     -3304.445          38.500                  
                                                
  21557030.820   115072886.97606     -3893.656          41.250    21557035.540  
  89501159.81704     -3028.402          32.250  
  21642516.660   115610454.74506       -80.516          40.000    21642521.280  
  89919250.75406       -62.629          39.000  
  22975650.260   122861128.23707      3554.316          41.500    22975654.880  
  95558676.79006      2764.484          40.750  
  20528081.040   109811396.01208      1105.461          47.750    20528087.480  
  85408886.77006       859.801          40.000  
 20 10 03 06 47  0.0000000  0 15G15G20G18G23G24G27G10G13R 7R 8R 6R22
                                R16R24R23
  20505256.420   107755849.82409     -1726.199          50.000    20505255.400  
  83965592.22109     -1345.094          54.250  
  20416040.080   107287014.98709      1531.781          50.000    20416038.940  
  83600265.86608      1193.594          46.250  
  20731204.100   108943213.11209     -1612.051          49.750    20731203.800  
  84890811.31108     -1256.148          45.750  
  20738312.540   108980567.96409      1642.570          49.500    20738312.160  
  84919921.94008      1279.926          45.500  
  21744656.480   114268938.88408      2741.551          47.750    21744658.160  
  89040739.64209      2136.273          53.500  
  23881985.800   125500684.86907      -445.285          44.500    23881987.720  
  97792740.07109      -346.977          51.500  
  23016509.080   120952574.42108      2933.797          47.250    23016511.380  
  94248767.40709      2286.074          51.750  
  22673104.340   119147967.00308     -3161.063          45.750    22673103.260  
  92842566.15505     -2463.168          38.500  
  19504648.280   104409907.46909      -838.418          49.000    19504651.640  
  81207719.23308      -652.102          46.750  
  20681926.700   110750774.60208      2324.086          45.750    20681929.860  
  86139505.45608      1807.621          45.750  
  22242796.560   118691827.86706     -3305.320          39.250                  
                                                
  21560678.820   115092360.22907     -3896.387          41.500    21560683.540  
  89516305.68504     -3030.527          33.000  
  21642594.120   115610868.48606       -85.723          39.500    21642598.720  
  89919572.54606       -66.676          39.250  
  22972327.740   122843361.24006      3551.555          41.250    22972332.380  
  95544858.02106      2762.320          41.250  
  20527049.780   109805879.48508      1100.473          48.000    20527056.220  
  85404596.14006       855.922          40.000  
 20 10 03 06 47  5.0000000  0 15G15G20G18G23G24G27G10G13R 7R 8R 6R22
                                R16R24R23
  20506899.980   107764486.84009     -1728.172          49.750    20506898.960  
  83972322.36509     -1346.629          54.000  
  20414583.540   107279360.85509      1530.164          49.750    20414582.420  
  83594301.60908      1192.332          46.500  
  20732739.400   108951281.12609     -1614.773          49.750    20732739.100  
  84897098.07908     -1258.266          46.000  
  20736750.400   108972358.92109      1641.223          49.500    20736750.020  
  84913525.28508      1278.871          46.000  
  21742048.980   114255236.40508      2739.598          47.250    21742050.660  
  89030062.39009      2134.750          53.750  
  23882410.940   125502918.93207      -447.918          44.250    23882412.840  
  97794480.90509      -349.031          51.500  
  23013718.200   120937908.22708      2933.262          47.000    23013720.480  
  94237339.20809      2285.660          52.000  
  22676112.700   119163775.99408     -3162.074          45.750    22676111.600  
  92854884.84505     -2463.957          38.250  
  19505432.360   104414104.75409      -840.117          49.000    19505435.740  
  81210983.78908      -653.426          46.750  
  20679757.500   110739158.65408      2322.680          46.250    20679760.660  
  86130470.82708      1806.523          45.500  
  22245894.340   118708358.12606     -3305.973          39.000                  
                                                
  21564329.520   115111847.91107     -3898.082          41.500    21564334.240  
  89531462.76504     -3031.844          31.750  
  21642676.340   115611307.65306       -89.383          38.750    21642680.920  
  89919914.12606       -69.523          39.750  
  22969008.020   122825609.31507      3549.383          42.000    22969012.680  
  95531050.97606      2760.633          40.250  
  20526023.320   109800388.65908      1096.195          48.000    20526029.760  
  85400325.51506       852.598          40.500  
 20 10 03 06 47 10.0000000  0 15G15G20G18G23G24G27G10G13R 7R 8R 6R22
                                R16R24R23
  20508545.220   107773132.54509     -1730.434          50.000    20508544.200  
  83979059.27609     -1348.395          53.750  
  20413128.380   107271713.92709      1528.223          49.750    20413127.240  
  83588342.96408      1190.824          46.250  
  20734276.960   108959361.08209     -1617.551          49.750    20734276.680  
  84903394.14008     -1260.434          46.000  
  20735189.440   108964156.04409      1639.574          49.500    20735189.060  
  84907133.44108      1277.590          46.000  
  21739443.200   114241542.94408      2737.266          47.500    21739444.880  
  89019392.16709      2132.934          53.750  
  23882838.560   125505166.12708      -450.930          44.750    23882840.480  
  97796231.96009      -351.379          52.750  
  23010927.400   120923242.50308      2932.277          46.250    23010929.680  
  94225911.38509      2284.891          51.250  
  22679121.600   119179587.95708     -3163.215          45.750    22679120.520  
  92867205.85305     -2464.848          38.000  
  19506217.980   104418310.16709      -842.352          49.000    19506221.340  
  81214254.67208      -655.164          46.500  
  20677589.360   110727548.40508      2321.051          46.000    20677592.540  
  86121440.62708      1805.258          45.250  
  22248992.120   118724888.40706     -3306.402          39.250                  
                                                
  21567981.780   115131343.94207     -3900.539          41.750    21567986.520  
  89546626.33104     -3033.758          31.500  
  21642762.220   115611766.40006       -94.184          38.750    21642766.820  
  89920270.92206       -73.258          40.000  
  22965690.060   122807866.71906      3547.426          41.000    22965694.720  
  95517251.18906      2759.109          40.250  
  20525000.560   109794917.56908      1092.230          47.750    20525007.000  
  85396070.21806       849.508          40.500  
 20 10 03 06 47 15.0000000  0 15G15G20G18G23G24G27G10G13R 7R 8R 6R22
                                R16R24R23
  20510193.220   107781792.91209     -1733.078          49.750    20510192.200  
  83985807.61809     -1350.449          54.000  
  20411675.740   107264080.20209      1525.930          49.750    20411674.600  
  83582394.61308      1189.035          46.250  
  20735817.940   108967458.92309     -1620.816          49.750    20735817.640  
  84909704.14508     -1262.977          45.750  
  20733630.800   108955965.29609      1637.434          49.750    20733630.400  
  84900751.03808      1275.922          45.500  
  21736840.300   114227864.63308      2734.516          46.750    21736841.960  
  89008733.75909      2130.727          53.750  
  23883269.840   125507432.46607      -454.547          44.500    23883271.760  
  97797997.94209      -354.191          51.500  
  23008137.820   120908583.23708      2931.570          46.750    23008140.100  
  94214488.58309      2284.336          52.250  
  22682132.200   119195408.75908     -3164.672          46.000    22682131.120  
  92879533.74606     -2465.977          39.250  
  19507006.220   104422529.69109      -844.887          49.250    19507009.580  
  81217536.52208      -657.137          46.500  
  20675423.360   110715949.62408      2319.059          45.750    20675426.540  
  86112419.36808      1803.711          45.250  
  22252091.100   118741424.95606     -3307.465          38.750                  
                                                
  21571636.820   115150854.70206     -3903.266          41.000    21571641.540  
  89561801.36204     -3035.879          32.000  
  21642852.900   115612250.75405       -98.598          38.000    21642857.500  
  89920647.63306       -76.691          39.750  
  22962374.980   122790139.59807      3543.984          42.000    22962379.660  
  95503463.44106      2756.434          40.500  
  20523982.620   109789472.37008      1086.883          48.000    20523989.080  
  85391835.07406       845.352          40.250  
 20 10 03 06 47 20.0000000  0 15G15G20G18G23G24G27G10G13R 7R 8R 6R22
                                R16R24R23
  20511843.220   107790463.62809     -1734.898          50.000    20511842.180  
  83992564.01809     -1351.871          53.750  
  20410224.780   107256455.36109      1524.340          49.750    20410223.620  
  83576453.18108      1187.797          46.000  
  20737361.500   108975570.36709     -1623.434          49.750    20737361.200  
  84916024.74608     -1265.016          45.000  
  20732073.640   108947782.37009      1636.066          49.500    20732073.240  
  84894374.72408      1274.852          45.500  
  21734239.440   114214197.04508      2732.730          46.500    21734241.100  
  88998083.69709      2129.398          54.250  
  23883703.920   125509713.58307      -457.457          44.000    23883705.840  
  97799775.43609      -356.465          51.250  
  23005348.660   120893926.10708      2931.270          47.250    23005350.940  
  94203067.44909      2284.105          52.500  
  22685143.640   119211233.98308     -3165.160          46.000    22685142.560  
  92891865.09405     -2466.363          37.500  
  19507796.280   104426758.99409      -846.609          49.250    19507799.640  
  81220825.98108      -658.477          46.500  
  20673258.700   110704357.94708      2317.676          46.000    20673261.880  
  86103403.61908      1802.637          45.500  
  22255190.340   118757963.03005     -3307.684          38.000                  
                                                
  21575293.700   115170375.36806     -3904.645          40.750    21575298.420  
  89576984.09704     -3036.945          32.500  
  21642947.580   115612756.46905      -103.203          37.750    21642952.160  
  89921040.96106       -80.273          40.250  
  22959061.920   122772423.34807      3542.469          42.000    22959066.620  
  95489684.15706      2755.258          40.250  
  20522968.700   109784048.62208      1082.934          48.000    20522975.180  
  85387616.60506       842.281          40.500  
 20 10 03 06 47 25.0000000  0 15G15G20G18G23G24G27G10G13R 7R 8R 6R22
                                R16R24R23
  20513495.220   107799144.95209     -1737.383          49.750    20513494.200  
  83999328.68209     -1353.809          54.000  
  20408775.560   107248839.67709      1522.145          49.750    20408774.400  
  83570518.88308      1186.086          46.500  
  20738907.680   108983695.66109     -1626.621          49.750    20738907.400  
  84922356.14408     -1267.500          45.250  
  20730518.020   108939607.55109      1634.023          49.750    20730517.620  
  84888004.74108      1273.262          45.750  
  21731640.700   114200540.60108      2730.105          46.500    21731642.360  
  88987442.32809      2127.355          54.000  
  23884140.880   125512009.77607      -460.914          44.000    23884142.800  
  97801564.67509      -359.152          51.500  
  23002559.960   120879271.39808      2930.547          47.250    23002562.240  
  94191648.20709      2283.543          52.500  
  22688155.960   119227063.91308     -3166.504          46.250    22688154.900  
  92904200.10005     -2467.410          38.250  
  19508588.220   104430998.27909      -848.961          49.250    19508591.580  
  81224123.20008      -660.309          46.500  
  20671095.420   110692773.73708      2315.949          45.750    20671098.600  
  86094393.67808      1801.289          45.250  
  22258289.980   118774503.23405     -3308.301          38.250                  
                                                
  21578952.580   115189906.69706     -3907.418          40.750    21578957.300  
  89592175.12204     -3039.105          32.500  
  21643046.280   115613283.79206      -107.875          38.750    21643050.880  
  89921451.11406       -83.902          40.000  
  22955751.040   122754718.55307      3539.691          42.500    22955755.760  
  95475913.76206      2753.094          40.250  
  20521958.900   109778646.77608      1078.098          48.250    20521965.380  
  85383415.16406       838.516          40.000  
 20 10 03 06 47 30.0000000  0 15G15G20G18G23G24G27G10G13R 7R 8R 6R22
                                R16R24R23
  20515149.680   107807839.23209     -1739.984          50.000    20515148.660  
  84006103.44809     -1355.832          53.750  
  20407328.540   107241235.52509      1519.832          49.750    20407327.380  
  83564593.57008      1184.281          46.000  
  20740456.960   108991837.11909     -1629.781          49.750    20740456.680  
  84928700.13208     -1269.965          45.500  
  20728964.400   108931443.16709      1631.941          49.750    20728963.980  
  84881642.88408      1271.645          45.500  
  21729044.500   114186897.59608      2727.516          47.000    21729046.180  
  88976811.42309      2125.336          53.500  
  23884581.140   125514323.32607      -464.141          44.500    23884583.060  
  97803367.45409      -361.668          51.000  
  22999772.160   120864621.44408      2929.602          47.500    22999774.440  
  94180232.66309      2282.805          52.500  
  22691169.640   119242900.90108     -3168.051          46.250    22691168.580  
  92916540.60005     -2468.613          37.750  
  19509382.500   104435250.12009      -851.484          49.500    19509385.860  
  81227430.18308      -662.270          46.250  
  20668934.000   110681199.40408      2314.129          45.250    20668937.180  
  86085391.42708      1799.879          45.000  
  22261390.440   118791047.78905     -3309.129          37.500                  
                                                
  21582613.820   115209450.63906     -3910.035          41.250    21582618.560  
  89607375.96004     -3041.141          32.500  
  21643149.500   115613835.14806      -112.551          39.000    21643154.120  
  89921879.93406       -87.543          39.500  
  22952442.680   122737027.38307      3537.180          41.750    22952447.420  
  95462153.96806      2751.141          39.750  
  20520953.580   109773268.98208      1073.113          47.750    20520960.080  
  85379232.42606       834.641          39.500  
 20 10 03 06 47 35.0000000  0 15G15G20G18G23G24G27G10G13R 7R 8R 6R22
                                R16R24R23
  20516806.240   107816544.53509     -1742.352          50.000    20516805.220  
  84012886.80109     -1357.676          54.000  
  20405883.320   107233640.93709      1517.813          49.750    20405882.180  
  83558675.71208      1182.707          46.250  
  20742008.960   108999992.87709     -1632.789          49.750    20742008.680  
  84935055.26508     -1272.309          45.500  
  20727412.380   108923287.33609      1630.168          49.500    20727411.980  
  84875287.69108      1270.258          46.000  
  21726450.520   114173266.13908      2725.176          46.750    21726452.200  
  88966189.50709      2123.512          53.750  
  23885024.360   125516652.44207      -467.371          44.250    23885026.280  
  97805182.34909      -364.184          50.750  
  22996984.920   120849974.37508      2928.957          47.750    22996987.200  
  94168819.36509      2282.305          52.250  
  22694184.300   119258743.02708     -3169.117          46.250    22694183.240  
  92928885.11805     -2469.445          37.750  
  19510178.700   104439512.31009      -853.730          49.250    19510182.060  
  81230745.21608      -664.016          46.500  
  20666774.020   110669632.90608      2312.191          45.500    20666777.220  
  86076395.26008      1798.367          45.250  
  22264491.360   118807594.87605     -3310.066          37.250                  
                                                
  21586277.100   115229005.44206     -3912.328          40.750    21586281.840  
  89622585.24104     -3042.926          32.750  
  21643256.840   115614408.58706      -116.965          39.250    21643261.460  
  89922325.94806       -90.973          40.000  
  22949136.560   122719348.15107      3534.328          41.750    22949141.320  
  95448403.46806      2748.922          40.250  
  20519952.420   109767913.54208      1068.625          47.750    20519958.940  
  85375067.09206       831.152          39.750  
 20 10 03 06 47 40.0000000  0 15G15G20G18G23G24G27G10G13R 7R 8R 6R22
                                R16R24R23
  20518465.200   107825262.40509     -1744.973          50.000    20518464.180  
  84019679.94209     -1359.723          53.750  
  20404440.260   107226057.57209      1515.355          49.750    20404439.100  
  83552766.59308      1180.793          46.000  
  20743563.960   109008164.48009     -1635.988          49.750    20743563.680  
  84941422.74008     -1274.801          45.500  
  20725862.320   108915141.63709      1627.961          49.500    20725861.900  
  84868940.39308      1268.535          45.750  
  21723859.040   114159647.82008      2722.168          46.500    21723860.700  
  88955577.83309      2121.168          54.000  
  23885470.840   125518998.63907      -471.188          43.750    23885472.760  
  97807010.54009      -367.164          50.750  
  22994198.520   120835331.75008      2928.074          47.750    22994200.800  
  94157409.53709      2281.617          52.000  
  22697200.220   119274591.87008     -3170.641          46.500    22697199.180  
  92941234.86405     -2470.629          37.250  
  19510977.200   104443786.67309      -856.395          49.250    19510980.540  
  81234069.72508      -666.086          46.750  
  20664615.860   110658075.98208      2310.211          46.000    20664619.040  
  86067406.54308      1796.832          45.500  
  22267593.040   118824145.98205     -3310.988          37.750                  
                                                
  21589942.700   115248572.65306     -3914.945          41.250    21589947.440  
  89637804.17504     -3044.961          32.500  
  21643368.580   115615005.46406      -121.945          39.000    21643373.220  
  89922790.16406       -94.852          39.750  
  22945832.960   122701682.31707      3531.473          41.500    22945837.720  
  95434663.38206      2746.699          39.750  
  20518955.740   109762581.90608      1063.723          48.000    20518962.240  
  85370920.27106       827.340          39.750  
 20 10 03 06 47 45.0000000  0 15G15G20G18G23G24G27G10G13R 7R 8R 6R22
                                R16R24R23
  20520126.780   107833994.02709     -1747.750          50.000    20520125.760  
  84026483.80209     -1361.887          53.750  
  20402999.540   107218486.56609      1512.809          50.000    20402998.380  
  83546867.10808      1178.809          46.000  
  20745122.200   109016353.05009     -1639.441          50.000    20745121.920  
  84947803.44408     -1277.488          45.250  
  20724314.380   108907007.20009      1625.738          49.750    20724313.960  
  84862601.87008      1266.809          45.500  
  21721270.260   114146043.66308      2719.410          46.750    21721271.920  
  88944977.19409      2119.020          53.750  
  23885920.780   125521363.01607      -474.652          44.250    23885922.700  
  97808852.90209      -369.863          51.000  
  22991413.180   120820694.73708      2926.910          47.500    22991415.460  
  94146004.08209      2280.711          52.250  
  22700217.660   119290448.60908     -3171.965          46.500    22700216.620  
  92953590.75405     -2471.664          38.500  
  19511778.140   104448074.23209      -858.840          49.500    19511781.500  
  81237404.49308      -667.988          46.750  
  20662459.700   110646529.85908      2308.086          45.750    20662462.880  
  86058426.22608      1795.180          45.500  
  22270695.700   118840702.33305     -3311.719          37.750                  
                                                
  21593610.820   115268153.29706     -3917.375          41.250    21593615.560  
  89653033.55604     -3046.852          33.250  
  21643484.980   115615627.23005      -126.602          38.500    21643489.620  
  89923273.75906       -98.473          39.250  
  22942532.080   122684031.08207      3528.871          41.500    22942536.860  
  95420934.63106      2744.676          39.750  
  20517963.720   109757275.35408      1058.652          48.250    20517970.240  
  85366792.95206       823.402          39.250  
 20 10 03 06 47 50.0000000  0 15G15G20G18G23G24G27G10G13R 7R 8R 6R22
                                R16R24R23
  20521790.880   107842738.94809     -1749.742          50.000    20521789.880  
  84033298.02109     -1363.438          53.750  
  20401561.100   107210927.49409      1511.191          50.000    20401559.940  
  83540976.92108      1177.547          46.250  
  20746683.580   109024558.17609     -1642.176          49.750    20746683.300  
  84954197.05208     -1279.617          45.500  
  20722768.500   108898883.63009      1624.203          49.750    20722768.100  
  84856271.83008      1265.613          45.500  
  21718684.120   114132453.46608      2717.137          47.500    21718685.780  
  88934387.43209      2117.246          53.250  
  23886374.080   125523745.16607      -477.594          44.000    23886376.020  
  97810709.12409      -372.156          51.250  
  22988628.840   120806062.90008      2926.352          47.750    22988631.100  
  94134602.67109      2280.277          52.000  
  22703236.520   119306312.80908     -3173.078          46.750    22703235.480  
  92965952.46405     -2472.531          38.000  
  19512581.500   104452374.67109      -860.789          49.250    19512584.840  
  81240749.28408      -669.504          46.750  
  20660305.420   110634993.90308      2306.918          45.750    20660308.620  
  86049453.82308      1794.270          45.500  
  22273799.260   118857263.44305     -3312.125          38.000                  
                                                
  21597281.400   115287747.06006     -3919.684          41.250    21597286.140  
  89668273.15204     -3048.645          31.750  
  21643605.940   115616273.35806      -131.098          39.500    21643610.600  
  89923776.29606      -101.969          39.750  
  22939233.860   122666394.06507      3526.363          42.750    22939238.640  
  95407216.96806      2742.727          40.000  
  20516976.340   109751993.40008      1054.484          47.750    20516982.860  
  85362684.74906       820.152          39.500  
 20 10 03 06 47 55.0000000  0 15G15G20G18G23G24G27G10G13R 7R 8R 6R22
                                R16R24R23
  20523456.680   107851492.71009     -1751.859          49.750    20523455.660  
  84040119.13409     -1365.086          54.000  
  20400124.080   107203375.91409      1509.348          50.000    20400122.920  
  83535092.57408      1176.109          46.250  
  20748247.280   109032775.41209     -1644.902          49.500    20748247.000  
  84960600.09308     -1281.746          45.750  
  20721223.880   108890766.47809      1622.449          49.750    20721223.460  
  84849946.77308      1264.242          45.750  
  21716099.780   114118872.66008      2714.934          47.250    21716101.440  
  88923804.97909      2115.543          54.000  
  23886829.920   125526140.66607      -480.875          43.750    23886831.860  
  97812575.75609      -374.707          51.250  
  22985844.620   120791431.81708      2925.809          47.500    22985846.880  
  94123201.83609      2279.852          52.500  
  22706255.940   119322179.93708     -3173.918          46.250    22706254.900  
  92978316.46005     -2473.188          38.500  
  19513386.380   104456683.28009      -862.949          49.250    19513389.720  
  81244100.42708      -671.184          46.500  
  20658152.280   110623463.91408      2305.090          46.000    20658155.480  
  86040486.05908      1792.848          45.500  
  22276902.840   118873824.67405     -3313.082          37.750                  
                                                
  21600953.580   115307349.40606     -3921.563          40.250    21600958.320  
  89683519.41704     -3050.109          32.000  
  21643730.620   115616939.28606      -135.602          39.250    21643735.260  
  89924294.23606      -105.473          39.250  
  22935937.460   122648766.78907      3524.160          42.750    22935942.260  
  95393506.85806      2741.012          39.750  
  20515992.700   109746731.62708      1050.113          47.500    20515999.220  
  85358592.26506       816.750          39.250  
 20 10 03 06 48  0.0000000  0 15G15G20G18G23G24G27G10G13R 7R 8R 6R22
                                R16R24R23
  20525124.780   107860258.68909     -1754.453          50.000    20525123.780  
  84046949.76009     -1367.109          53.750  
  20398689.140   107195835.20609      1506.992          50.250    20398687.960  
  83529216.69408      1174.277          46.250  
  20749813.900   109041008.10309     -1648.105          49.750    20749813.620  
  84967015.17108     -1284.242          46.000  
  20719681.080   108882659.11209      1620.414          49.750    20719680.660  
  84843629.34708      1262.660          45.750  
  21713517.860   114105304.67308      2712.223          47.250    21713519.520  
  88913232.53909      2113.438          53.750  
  23887288.960   125528552.83507      -484.145          44.250    23887290.880  
  97814455.35809      -377.254          50.500  
  22983061.220   120776804.82008      2925.004          48.000    22983063.460  
  94111804.16909      2279.219          52.250  
  22709276.560   119338053.41508     -3175.363          45.750    22709275.520  
  92990685.40806     -2474.309          38.750  
  19514193.440   104461003.58409      -865.383          49.250    19514196.780  
  81247460.66508      -673.074          46.750  
  20656000.800   110611942.84708      2303.313          46.000    20656004.000  
  86031525.22708      1791.461          45.500  
  22280007.120   118890389.68105     -3314.047          37.500                  
                                                
  21604628.000   115326963.65406     -3924.184          40.750    21604632.740  
  89698774.93004     -3052.148          32.750  
  21643859.640   115617628.52706      -140.164          40.000    21643864.300  
  89924830.32106      -109.016          39.000  
  22932643.500   122631152.55307      3521.555          43.000    22932648.300  
  95379806.90706      2738.988          40.250  
  20515013.440   109741493.26208      1045.238          47.750    20515019.980  
  85354517.97806       812.961          39.750  
 20 10 03 06 48  5.0000000  0 15G15G20G18G23G24G27G10G13R 7R 8R 6R22
                                R16R24R23
  20526795.320   107869037.39209     -1757.102          50.000    20526794.320  
  84053790.30709     -1369.176          54.000  
  20397256.340   107188305.85409      1504.688          50.250    20397255.180  
  83523349.67308      1172.480          45.750  
  20751383.580   109049256.76409     -1651.574          49.750    20751383.300  
  84973442.69708     -1286.945          45.500  
  20718140.280   108874562.06209      1618.250          49.750    20718139.860  
  84837319.95508      1260.973          45.500  
  21710938.500   114091750.13908      2709.508          47.000    21710940.180  
  88902670.56809      2111.305          53.750  
  23887751.240   125530982.18307      -487.680          44.500    23887753.180  
  97816348.35409      -380.012          50.500  
  22980278.660   120762182.46308      2924.043          48.000    22980280.920  
  94100410.13909      2278.477          52.250  
  22712298.480   119353933.71208     -3176.902          46.000    22712297.440  
  93003059.65505     -2475.512          37.000  
  19515002.800   104465336.16209      -867.840          49.250    19515006.140  
  81250830.44408      -674.992          46.750  
  20653851.120   110600431.49408      2300.996          45.750    20653854.340  
  86022571.95608      1789.664          45.500  
  22283112.180   118906958.79605     -3314.477          37.000                  
                                                
  21608304.740   115346590.32006     -3926.281          40.750    21608309.480  
  89714040.11504     -3053.777          32.250  
  21643993.120   115618341.56706      -145.059          39.500    21643997.780  
  89925384.89506      -112.828          39.000  
  22929352.100   122613551.99307      3518.707          42.750    22929356.920  
  95366117.58606      2736.773          40.000  
  20514038.680   109736278.94008      1040.293          48.250    20514045.220  
  85350462.40006       809.117          39.750  
 20 10 03 06 48 10.0000000  0 15G15G20G18G23G24G27G10G13R 7R 8R 6R22
                                R16R24R23
  20528468.080   107877827.80509     -1759.477          50.000    20528467.080  
  84060639.97709     -1371.023          54.000  
  20395825.520   107180786.88609      1502.641          50.000    20395824.360  
  83517490.73908      1170.891          46.000  
  20752956.100   109057520.38609     -1654.301          49.750    20752955.820  
  84979881.87708     -1289.070          45.250  
  20716601.220   108866474.33109      1616.473          49.750    20716600.800  
  84831017.82908      1259.590          45.250  
  21708361.500   114078207.98408      2707.133          47.250    21708363.180  
  88892118.25009      2109.453          53.500  
  23888216.640   125533427.78407      -490.926          44.500    23888218.560  
  97818254.01809      -382.543          50.250  
  22977496.820   120747563.75608      2923.188          48.000    22977499.060  
  94089018.94909      2277.809          52.000  
  22715321.520   119369819.84208     -3177.996          46.250    22715320.480  
  93015438.45305     -2476.363          38.000  
  19515814.260   104469679.89609      -869.949          49.250    19515817.600  
  81254208.89808      -676.633          46.500  
  20651703.080   110588928.88608      2299.586          45.750    20651706.300  
  86013625.49208      1788.566          45.500  
  22286217.840   118923531.06705     -3315.082          36.750                  
                                                
  21611983.620   115366228.41506     -3928.844          41.000    21611988.360  
  89729314.17704     -3055.770          32.000  
  21644130.860   115619077.34906      -149.352          39.250    21644135.520  
  89925957.18205      -116.164          38.500  
  22926063.080   122595964.13807      3516.355          43.250    22926067.900  
  95352438.13106      2734.938          40.000  
  20513068.220   109731087.68208      1035.906          48.000    20513074.760  
  85346424.75906       805.703          39.250  
 20 10 03 06 48 15.0000000  0 15G15G20G18G23G24G27G10G13R 7R 8R 6R22
                                R16R24R23
  20530143.220   107886630.71409     -1761.453          50.000    20530142.220  
  84067499.38309     -1372.566          54.000  
  20394396.860   107173279.15109      1500.762          50.000    20394395.680  
  83511640.55608      1169.422          46.250  
  20754531.620   109065799.79909     -1657.184          49.750    20754531.340  
  84986333.36608     -1291.316          45.500  
  20715064.100   108858396.73209      1614.941          50.000    20715063.680  
  84824723.60008      1258.395          45.500  
  21705786.980   114064678.87108      2705.047          47.750    21705788.660  
  88881576.08809      2107.828          53.250  
  23888685.240   125535890.39107      -494.020          44.250    23888687.160  
  97820172.94009      -384.949          50.500  
  22974715.820   120732949.51208      2922.742          47.500    22974718.060  
  94077631.23309      2277.461          52.250  
  22718345.800   119385712.60108     -3178.879          46.750    22718344.760  
  93027822.42005     -2477.051          37.500  
  19516627.960   104474035.72509      -872.160          49.000    19516631.300  
  81257596.76508      -678.348          46.250  
  20649556.820   110577435.67308      2298.156          46.000    20649560.040  
  86004686.32208      1787.449          45.250  
  22289324.260   118940107.46305     -3314.926          37.250                  
                                                
  21615664.780   115385878.66806     -3931.023          41.250    21615669.520  
  89744597.70704     -3057.461          31.750  
  21644273.020   115619836.79306      -153.973          39.250    21644277.680  
  89926547.87305      -119.758          38.500  
  22922776.580   122578389.81007      3513.945          42.500    22922781.400  
  95338769.22006      2733.070          39.500  
  20512102.260   109725920.33508      1031.406          48.000    20512108.780  
  85342405.69906       802.199          39.250  
 20 10 03 06 48 20.0000000  0 15G15G20G18G23G24G27G10G13R 7R 8R 6R22
                                R16R24R23
  20531820.280   107895443.74809     -1763.988          50.000    20531819.280  
  84074366.68009     -1374.539          53.750  
  20392969.860   107165780.23909      1498.637          50.250    20392968.680  
  83505797.25608      1167.770          46.250  
  20756109.680   109074092.58909     -1660.125          49.750    20756109.420  
  84992795.27608     -1293.609          45.500  
  20713528.480   108850326.92609      1612.879          49.750    20713528.040  
  84818435.44408      1256.789          45.250  
  21703214.520   114051160.50008      2702.105          48.000    21703216.200  
  88871042.29409      2105.535          52.750  
  23889156.640   125538367.63807      -497.324          44.500    23889158.580  
  97822103.26709      -387.523          50.000  
  22971935.220   120718337.35808      2922.043          47.250    22971937.440  
  94066245.13909      2276.918          52.500  
  22721370.900   119401609.60108     -3179.902          46.500    22721369.860  
  93040209.68805     -2477.852          36.500  
  19517443.440   104478401.04809      -874.207          49.250    19517446.760  
  81260992.02008      -679.938          46.250  
  20647411.860   110565949.54908      2296.117          45.500    20647415.080  
  85995752.67208      1785.867          45.000  
  22292430.980   118956685.34605     -3315.680          36.750                  
                                                
  21619347.800   115405538.84206     -3933.281          41.250    21619352.520  
  89759888.96104     -3059.219          32.000  
  21644419.140   115620617.40106      -158.383          39.500    21644423.800  
  89927155.01905      -123.188          38.250  
  22919492.180   122560826.66307      3511.188          42.500    22919497.000  
  95325109.00306      2730.922          39.250  
  20511140.300   109720774.45408      1026.746          47.750    20511146.820  
  85338403.34706       798.578          39.500  
 20 10 03 06 48 25.0000000  0 15G15G20G18G23G24G27G10G13R 7R 8R 6R22
                                R16R24R23
  20533499.700   107904269.23609     -1766.254          49.750    20533498.720  
  84081243.68209     -1376.301          54.000  
  20391545.000   107158292.58309      1496.457          50.000    20391543.820  
  83499962.71308      1166.066          46.000  
  20757690.760   109082401.15309     -1663.191          49.750    20757690.500  
  84999269.47308     -1295.996          45.250  
  20711994.780   108842267.25709      1611.000          49.750    20711994.340  
  84812155.18008      1255.324          45.500  
  21700644.560   114037655.40908      2699.742          47.250    21700646.260  
  88860518.85109      2103.695          53.750  
  23889631.280   125540861.85907      -500.395          44.000    23889633.200  
  97824046.82809      -389.918          51.000  
  22969155.460   120703729.68408      2921.141          47.250    22969157.680  
  94054862.55009      2276.215          52.500  
  22724397.260   119417513.21708     -3181.316          45.750    22724396.240  
  93052602.10206     -2478.953          39.000  
  19518261.180   104482778.50609      -876.547          49.250    19518264.500  
  81264396.70808      -681.762          46.000  
  20645268.720   110554473.19108      2294.281          45.250    20645271.940  
  85986826.62408      1784.441          44.750  
  22295538.420   118973267.15005     -3316.293          37.000                  
                                                
  21623033.080   115425211.13006     -3935.641          41.000    21623037.800  
  89775189.61904     -3061.059          32.500  
  21644569.660   115621421.49806      -162.703          39.250    21644574.320  
  89927780.44005      -126.547          38.500  
  22916210.320   122543277.11507      3508.578          42.500    22916215.160  
  95311459.35206      2728.891          39.000  
  20510182.800   109715652.50208      1022.121          48.000    20510189.320  
  85334419.60906       794.980          39.500  
 20 10 03 06 48 30.0000000  0 15G15G20G18G23G24G27G10G13R 7R 8R 6R22
                                R16R24R23
  20535181.320   107913106.17709     -1768.703          50.000    20535180.340  
  84088129.61409     -1378.215          54.000  
  20390122.100   107150815.15109      1494.297          50.000    20390120.900  
  83494136.14408      1164.383          46.250  
  20759274.620   109090724.43509     -1666.242          49.750    20759274.360  
  85005755.15208     -1298.375          45.500  
  20710462.800   108834216.71909      1609.094          49.500    20710462.360  
  84805882.03308      1253.840          45.750  
  21698076.940   114024162.51908      2697.184          47.250    21698078.640  
  88850004.92309      2101.703          53.500  
  23890108.940   125543372.02407      -503.770          44.250    23890110.860  
  97826002.79509      -392.547          50.750  
  22966376.360   120689125.43308      2920.590          47.250    22966378.580  
  94043482.62109      2275.785          52.250  
  22727424.680   119433422.39508     -3182.500          46.250    22727423.660  
  93064998.86605     -2479.871          38.250  
  19519080.940   104487166.79109      -878.867          49.250    19519084.260  
  81267809.82708      -683.563          46.250  
  20643127.120   110543005.06608      2292.629          46.000    20643130.360  
  85977906.97108      1783.156          45.000  
  22298646.400   118989851.89205     -3317.195          36.250                  
                                                
  21626720.440   115444894.47307     -3937.984          41.500    21626725.160  
  89790498.88604     -3062.879          32.000  
  21644724.460   115622248.32106      -167.707          39.500    21644729.120  
  89928423.50605      -130.441          38.250  
  22912930.780   122525739.98907      3506.000          42.750    22912935.600  
  95297819.37606      2726.891          39.000  
  20509229.560   109710553.35908      1017.441          47.750    20509236.100  
  85330453.61506       791.344          39.750  
 20 10 03 06 48 35.0000000  0 15G15G20G18G23G24G27G10G13R 7R 8R 6R22
                                R16R24R23
  20536865.340   107921955.79309     -1771.285          50.250    20536864.360  
  84095025.41309     -1380.227          53.750  
  20388701.360   107143349.14109      1491.969          50.000    20388700.180  
  83488318.47208      1162.570          46.000  
  20760861.520   109099063.66709     -1669.477          49.750    20760861.260  
  85012253.25008     -1300.895          45.250  
  20708932.800   108826176.53509      1606.828          49.500    20708932.360  
  84799616.96208      1252.070          46.250  
  21695511.880   114010683.08208      2694.633          47.500    21695513.580  
  88839501.46609      2099.715          53.750  
  23890589.900   125545899.41007      -507.570          43.750    23890591.800  
  97827972.19009      -395.508          50.750  
  22963598.160   120674525.87808      2919.414          47.000    22963600.380  
  94032106.35209      2274.867          52.750  
  22730453.400   119449338.42108     -3184.109          46.000    22730452.360  
  93077400.96605     -2481.125          37.750  
  19519902.980   104491567.26509      -881.539          49.250    19519906.300  
  81271232.41608      -685.645          46.250  
  20640987.400   110531546.94108      2290.676          46.000    20640990.640  
  85968995.09408      1781.633          45.000  
  22301755.180   119006440.87205     -3318.836          36.000                  
                                                
  21630410.140   115464590.23606     -3940.777          40.500    21630414.860  
  89805817.79004     -3065.059          32.250  
  21644883.700   115623099.00306      -172.727          39.750    21644888.360  
  89929085.15005      -134.344          38.500  
  22909653.820   122508216.67507      3503.180          42.750    22909658.640  
  95284190.14606      2724.695          38.750  
  20508280.840   109705478.35208      1012.652          48.000    20508287.360  
  85326506.39506       787.617          39.750  
 20 10 03 06 48 40.0000000  0 15G15G20G18G23G24G27G10G13R 7R 8R 6R22
                                R16R24R23
  20538552.400   107930821.39609     -1774.383          50.250    20538551.420  
  84101933.68209     -1382.637          53.750  
  20387283.440   107135897.92109      1489.117          50.000    20387282.240  
  83482512.32908      1160.348          46.000  
  20762452.100   109107422.17109     -1673.246          49.500    20762451.840  
  85018766.36708     -1303.832          45.750  
  20707405.420   108818150.03909      1604.398          49.500    20707404.980  
  84793362.54708      1250.176          45.000  
  21692950.020   113997220.45708      2691.090          47.500    21692951.720  
  88829011.11009      2097.004          53.750  
  23891074.760   125548447.34307      -511.383          43.750    23891076.680  
  97829957.58409      -398.484          51.000  
  22960821.480   120659934.33608      2917.813          47.000    22960823.700  
  94020736.32209      2273.621          52.500  
  22733484.060   119465264.61508     -3185.859          46.000    22733483.040  
  93089810.97105     -2482.492          37.250  
  19520727.960   104495983.44009      -884.520          49.250    19520731.280  
  81274667.21008      -687.934          46.750  
  20638850.060   110520101.71308      2287.980          46.250    20638853.320  
  85960093.25708      1779.539          45.000  
  22304865.320   119023037.26004     -3319.563          35.250                  
                                                
  21634102.760   115484301.63106     -3943.754          40.500    21634107.480  
  89821148.86203     -3067.367          31.250  
  21645048.000   115623976.70706      -177.660          38.750    21645052.660  
  89929767.81406      -138.180          38.750  
  22906380.100   122490710.61807      3500.098          42.500    22906384.900  
  95270574.32806      2722.297          39.000  
  20507337.260   109700430.80808      1006.980          48.000    20507343.780  
  85322580.52806       783.207          39.750  
 20 10 03 06 48 45.0000000  0 15G15G20G18G23G24G27G10G13R 7R 8R 6R22
                                R16R24R23
  20540241.200   107939696.07109     -1775.676          50.000    20540240.220  
  84108849.01609     -1383.648          53.750  
  20385867.020   107128454.53109      1488.117          50.250    20385865.820  
  83476712.28008      1159.566          45.750  
  20764045.020   109115793.00609     -1675.113          49.500    20764044.760  
  85025289.09308     -1305.285          45.500  
  20705879.320   108810130.32109      1603.504          49.500    20705878.880  
  84787113.41608      1249.480          46.000  
  21690390.020   113983767.57608      2689.926          47.500    21690391.720  
  88818528.35009      2096.047          54.000  
  23891562.180   125551008.80707      -513.406          44.250    23891564.100  
  97831953.52909      -400.063          50.250  
  22958045.000   120645343.89308      2918.344          47.500    22958047.200  
  94009367.16009      2274.035          52.250  
  22736515.300   119481193.95708     -3186.113          45.500    22736514.280  
  93102223.45205     -2482.688          36.750  
  19521554.520   104500408.07009      -885.484          49.250    19521557.820  
  81278108.60108      -688.711          46.750  
  20636713.880   110508662.55308      2287.465          46.250    20636717.120  
  85951196.13808      1779.141          45.000  
  22307975.600   119039634.26205     -3319.215          35.750                  
                                                
  21637797.000   115504021.74506     -3944.840          40.500    21637801.740  
  89836486.71104     -3068.211          32.000  
  21645216.100   115624874.68306      -181.563          38.750    21645220.760  
  89930466.24706      -141.215          39.000  
  22903108.300   122473214.78707      3498.582          42.500    22903113.100  
  95256966.46006      2721.117          39.000  
  20506397.500   109695403.72608      1003.555          48.250    20506404.020  
  85318670.57906       780.543          40.250  
 20 10 03 06 48 50.0000000  0 15G15G20G18G23G24G27G10G13R 7R 8R 6R22
                                R16R24R23
  20541931.440   107948578.38109     -1776.992          49.750    20541930.460  
  84115770.29709     -1384.672          54.000  
  20384451.820   107121017.59509      1486.957          50.000    20384450.600  
  83470917.26508      1158.664          46.250  
  20765640.020   109124174.79109     -1677.277          49.500    20765639.760  
  85031820.34208     -1306.973          45.500  
  20704354.240   108802115.99509      1602.520          49.500    20704353.800  
  84780868.49108      1248.715          45.750  
  21687831.600   113970323.12508      2688.238          47.500    21687833.320  
  88808052.16309      2094.730          53.750  
  23892051.940   125553582.45307      -515.777          44.000    23892053.860  
  97833958.96509      -401.910          50.500  
  22955268.480   120630753.15308      2918.418          47.750    22955270.680  
  93997997.75209      2274.094          52.250  
  22739546.880   119497125.03908     -3186.336          45.750    22739545.860  
  93114637.28405     -2482.863          38.250  
  19522382.440   104504840.00409      -886.906          49.250    19522385.740  
  81281555.65908      -689.816          46.750  
  20634578.600   110497228.25508      2286.523          45.750    20634581.860  
  85942302.79108      1778.402          44.750  
  22311085.660   119056230.15905     -3318.688          36.250                  
                                                
  21641492.560   115523748.92206     -3945.707          41.000    21641497.280  
  89851830.07703     -3068.887          31.250  
  21645387.700   115625791.31806      -184.977          39.250    21645392.360  
  89931179.19306      -143.871          38.750  
  22899838.120   122455727.74007      3496.992          42.500    22899842.920  
  95243365.42706      2719.883          39.000  
  20505461.320   109690395.80508       999.852          48.000    20505467.840  
  85314775.53406       777.664          39.750  
 20 10 03 06 48 55.0000000  0 15G15G20G18G23G24G27G10G13R 7R 8R 6R22
                                R16R24R23
  20543623.880   107957472.24009     -1780.352          49.750    20543622.900  
  84122700.56809     -1387.289          54.000  
  20383038.600   107113591.00809      1483.871          50.000    20383037.380  
  83465130.31408      1156.258          46.250  
  20767237.840   109132571.37309     -1681.363          49.500    20767237.580  
  85038363.13508     -1310.156          45.500  
  20702830.920   108794110.93209      1599.574          49.500    20702830.460  
  84774630.78508      1246.422          45.750  
  21685275.560   113956891.07108      2684.828          47.500    21685277.280  
  88797585.62709      2092.074          53.750  
  23892544.760   125556172.21107      -520.309          44.250    23892546.660  
  97835976.96209      -405.438          50.250  
  22952492.640   120616166.02608      2916.469          47.500    22952494.840  
  93986631.15709      2272.574          52.250  
  22742579.540   119513061.72708     -3188.520          45.500    22742578.520  
  93127055.47605     -2484.566          37.750  
  19523212.400   104509282.83909      -890.246          49.250    19523215.700  
  81285011.19508      -692.418          46.750  
  20632444.900   110485802.33808      2283.828          45.750    20632448.140  
  85933415.96208      1776.309          44.750  
  22314196.320   119072829.23205     -3320.750          37.000                  
                                                
  21645190.240   115543487.33306     -3949.211          41.250    21645194.940  
  89867182.18003     -3071.609          31.250  
  21645563.540   115626730.53806      -190.531          39.500    21645568.200  
  89931909.67506      -148.195          39.000  
  22896570.340   122438253.41707      3492.961          42.250    22896575.100  
  95229774.30006      2716.695          39.000  
  20504529.440   109685410.84608       994.129          48.000    20504535.960  
  85310898.33706       773.207          39.500  
 20 10 03 06 49  0.0000000  0 15G15G20G18G23G24G27G10G13R 7R 8R 6R22
                                R16R24R23
  20545319.220   107966381.22709     -1782.633          50.000    20545318.220  
  84129642.63609     -1389.070          54.000  
  20381628.040   107106178.43909      1481.875          50.000    20381626.800  
  83459354.29008      1154.707          46.250  
  20768839.160   109140986.37709     -1684.195          49.500    20768838.900  
  85044920.28308     -1312.359          45.750  
  20701310.060   108786118.76909      1597.879          49.750    20701309.600  
  84768403.12808      1245.102          45.750  
  21682722.560   113943474.98908      2682.504          47.500    21682724.280  
  88787131.53909      2090.262          54.000  
  23893041.300   125558781.60108      -522.996          44.750    23893043.220  
  97838010.25109      -407.535          50.500  
  22949718.160   120601586.10908      2916.098          47.500    22949720.360  
  93975270.19709      2272.285          52.750  
  22745613.940   119529007.68908     -3189.309          45.250    22745612.920  
  93139480.91505     -2485.176          38.250  
  19524045.100   104513740.39809      -892.238          49.250    19524048.420  
  81288478.17708      -693.969          46.500  
  20630313.520   110474388.88908      2282.383          45.750    20630316.760  
  85924538.83808      1775.184          44.750  
  22317308.240   119089435.08905     -3320.453          37.000                  
                                                
  21648890.660   115563240.44006     -3951.070          40.750    21648895.360  
  89882545.70603     -3073.055          30.250  
  21645744.320   115627696.14406      -194.637          39.500    21645748.980  
  89932660.69206      -151.387          39.500  
  22893305.620   122420795.53507      3490.820          41.750    22893310.380  
  95216195.95505      2715.082          38.500  
  20503602.560   109680452.66608       989.820          48.000    20503609.100  
  85307041.97506       769.855          39.250  
 20 10 03 06 49  5.0000000  0 15G15G20G18G23G24G27G10G13R 7R 8R 6R22
                                R16R24R23
  20547016.360   107975299.81609     -1784.805          49.750    20547015.380  
  84136592.18809     -1390.762          54.000  
  20380219.080   107098774.32009      1479.879          50.000    20380217.840  
  83453584.84708      1153.148          46.250  
  20770442.940   109149414.29209     -1686.984          49.750    20770442.680  
  85051487.49608     -1314.539          45.750  
  20699790.620   108778134.00809      1596.082          49.750    20699790.160  
  84762181.23808      1243.699          46.000  
  21680171.560   113930069.46408      2679.840          47.000    21680173.280  
  88776685.68609      2088.188          54.250  
  23893540.560   125561405.18007      -526.535          44.250    23893542.480  
  97840054.60109      -410.293          51.000  
  22946944.020   120587007.90808      2915.289          47.500    22946946.200  
  93963910.56809      2271.652          52.750  
  22748649.080   119544957.38308     -3190.461          45.250    22748648.060  
  93151909.23805     -2486.078          37.250  
  19524879.520   104518207.13509      -894.316          49.250    19524882.840  
  81291952.31208      -695.578          46.500  
  20628183.360   110462982.08608      2280.484          46.250    20628186.600  
  85915666.88608      1773.711          44.750  
  22320420.320   119106041.88305     -3322.035          36.750                  
                                                
  21652592.820   115583002.83206     -3953.559          41.000    21652597.520  
  89897916.44704     -3074.992          32.000  
  21645928.980   115628682.61605      -199.293          38.500    21645933.640  
  89933427.94506      -155.008          39.000  
  22890042.940   122403348.56707      3488.168          42.250    22890047.700  
  95202626.08906      2713.016          39.000  
  20502679.580   109675515.35308       985.219          48.250    20502686.120  
  85303201.84106       766.277          39.000  
 20 10 03 06 49 10.0000000  0 15G15G20G18G23G24G27G10G13R 7R 8R 6R22
                                R16R24R23
  20548716.060   107984231.82909     -1787.621          49.750    20548715.080  
  84143552.19409     -1392.957          54.000  
  20378812.460   107091382.48709      1477.137          50.000    20378811.200  
  83447824.97908      1151.012          46.000  
  20772049.920   109157858.94509     -1690.469          49.500    20772049.640  
  85058067.73708     -1317.254          45.500  
  20698273.300   108770160.46609      1593.641          49.500    20698272.840  
  84755968.08708      1241.793          45.750  
  21677623.280   113916678.22808      2676.930          47.250    21677625.020  
  88766250.95709      2085.918          54.250  
  23894043.240   125564046.71907      -529.727          43.750    23894045.140  
  97842112.93609      -412.777          50.500  
  22944170.920   120572435.24508      2914.113          47.500    22944173.100  
  93952555.26309      2270.738          53.000  
  22751685.640   119560914.62708     -3192.129          44.750    22751684.620  
  93164343.44805     -2487.379          38.250  
  19525716.360   104522686.82909      -897.039          49.250    19525719.680  
  81295436.52108      -697.695          46.250  
  20626055.200   110451585.82408      2278.234          46.250    20626058.420  
  85906803.12708      1771.961          45.000  
  22323533.340   119122653.68505     -3323.344          36.500                  
                                                
  21656297.420   115602778.20106     -3956.375          40.500    21656302.140  
  89913297.27303     -3077.184          31.000  
  21646118.280   115629693.77406      -204.645          39.000    21646122.940  
  89934214.40406      -159.168          39.250  
  22886783.040   122385916.39007      3485.012          42.250    22886787.800  
  95189067.73306      2710.566          39.000  
  20501761.320   109670603.19608       979.984          48.250    20501767.840  
  85299381.27606       762.211          39.500  
 20 10 03 06 49 15.0000000  0 15G15G20G18G23G24G27G10G13R 7R 8R 6R22
                                R16R24R23
  20550418.160   107993176.41109     -1789.883          49.750    20550417.180  
  84150521.99209     -1394.719          54.000  
  20377408.040   107084002.12909      1475.273          49.750    20377406.780  
  83442074.05108      1149.563          46.000  
  20773659.900   109166319.46309     -1693.340          49.750    20773659.620  
  85064660.35008     -1319.488          45.250  
  20696757.960   108762197.29809      1591.973          49.500    20696757.500  
  84749763.01908      1240.496          45.750  
  21675077.580   113903300.51808      2674.539          47.500    21675079.320  
  88755826.77109      2084.043          53.750  
  23894549.180   125566705.42507      -533.285          44.000    23894551.100  
  97844184.64109      -415.551          50.750  
  22941398.720   120557867.29308      2913.551          47.750    22941400.900  
  93941203.62009      2270.301          52.750  
  22754723.480   119576878.54508     -3193.160          44.750    22754722.460  
  93176782.85805     -2488.180          37.500  
  19526555.480   104527178.65909      -899.188          49.250    19526558.800  
  81298930.15608      -699.418          46.500  
  20623928.840   110440199.32508      2276.605          46.250    20623932.060  
  85897946.97308      1770.691          45.250  
  22326647.120   119139269.56405     -3323.641          36.500                  
                                                
  21660004.300   115622565.65306     -3958.328          40.750    21660009.000  
  89928687.50504     -3078.703          31.750  
  21646311.960   115630728.44206      -209.699          39.000    21646316.620  
  89935019.15606      -163.098          39.250  
  22883525.720   122368498.09507      3482.484          41.750    22883530.460  
  95175520.18506      2708.625          39.750  
  20500847.560   109665715.18508       975.473          48.000    20500854.080  
  85295579.48606       758.695          39.500  
 20 10 03 06 49 20.0000000  0 15G15G20G18G23G24G27G10G13R 7R 8R 6R22
                                R16R24R23
  20552122.360   108002132.03509     -1792.195          50.000    20552121.400  
  84157500.38809     -1396.520          54.000  
  20376005.500   107076631.73409      1473.121          49.750    20376004.220  
  83436330.88608      1147.887          45.750  
  20775272.620   109174794.33209     -1696.379          49.750    20775272.340  
  85071264.14008     -1321.859          45.250  
  20695244.320   108754243.01109      1589.887          49.750    20695243.840  
  84743564.87908      1238.867          45.500  
  21672534.180   113889934.82408      2672.035          47.500    21672535.920  
  88745411.94309      2082.105          53.750  
  23895058.080   125569379.68907      -536.363          44.000    23895059.980  
  97846268.48909      -417.945          50.750  
  22938627.140   120543302.54208      2912.539          47.750    22938629.320  
  93929854.46609      2269.512          52.750  
  22757762.280   119592847.58608     -3194.297          44.750    22757761.280  
  93189226.25705     -2489.066          37.500  
  19527396.580   104531681.08809      -901.578          49.250    19527399.880  
  81302432.04508      -701.230          46.750  
  20621804.060   110428821.23008      2274.891          46.000    20621807.280  
  85889097.33908      1769.359          45.000  
  22329761.340   119155887.83904     -3324.715          35.250                  
                                                
  21663713.160   115642363.77006     -3960.895          40.750    21663717.840  
  89944086.03604     -3080.699          31.500  
  21646509.840   115631785.51906      -213.672          38.750    21646514.500  
  89935841.32306      -166.188          39.500  
  22880270.720   122351092.22407      3480.168          42.750    22880275.480  
  95161982.29406      2706.797          39.250  
  20499938.040   109660849.89008       970.852          48.250    20499944.580  
  85291795.37206       755.102          39.750  
 20 10 03 06 49 25.0000000  0 15G15G20G18G23G24G27G10G13R 7R 8R 6R22
                                R16R24R23
  20553828.920   108011100.08409     -1794.676          49.750    20553827.960  
  84164488.48209     -1398.453          54.000  
  20374605.120   107069272.67409      1470.867          49.750    20374603.840  
  83430596.56008      1146.129          46.250  
  20776888.320   109183284.90909     -1699.520          49.500    20776888.040  
  85077880.17208     -1324.305          45.750  
  20693732.620   108746298.95009      1588.008          49.500    20693732.140  
  84737374.70208      1237.406          45.750  
  21669993.280   113876582.37808      2669.383          47.500    21669995.020  
  88735007.45009      2080.039          53.750  
  23895570.200   125572070.93407      -539.445          43.750    23895572.120  
  97848365.56309      -420.348          51.250  
  22935856.400   120528742.32108      2911.922          47.750    22935858.600  
  93918508.85109      2269.031          52.750  
  22760802.340   119608823.15907     -3195.672          44.500    22760801.340  
  93201674.74505     -2490.137          37.750  
  19528239.900   104536195.51509      -903.883          49.500    19528243.200  
  81305943.26808      -703.023          46.750  
  20619681.040   110417452.50308      2272.816          46.250    20619684.260  
  85880254.99408      1767.742          45.000  
  22332876.320   119172510.11005     -3324.379          36.000                  
                                                
  21667424.260   115662173.84706     -3962.895          40.500    21667428.940  
  89959493.86804     -3082.254          31.750  
  21646712.160   115632866.24906      -218.707          38.750    21646716.820  
  89936681.89506      -170.105          39.000  
  22877018.320   122333700.18507      3477.168          42.250    22877023.060  
  95148455.17106      2704.465          39.000  
  20499032.980   109656008.42209       966.098          48.750    20499039.520  
  85288029.77506       751.406          40.000  
 20 10 03 06 49 30.0000000  0 15G15G20G18G23G24G27G10G13R 7R 8R 6R22
                                R16R24R23
  20555537.600   108020079.24209     -1796.758          49.750    20555536.640  
  84171485.22909     -1400.074          54.000  
  20373206.660   107061923.67309      1468.898          49.750    20373205.360  
  83424870.06308      1144.598          45.750  
  20778506.780   109191789.93409     -1702.273          49.750    20778506.520  
  85084507.45408     -1326.449          45.250  
  20692222.620   108738363.88409      1586.172          49.500    20692222.140  
  84731191.53308      1235.977          45.750  
  21667454.720   113863242.16608      2666.785          47.750    21667456.460  
  88724612.48509      2078.016          53.500  
  23896085.320   125574777.87407      -542.844          44.500    23896087.240  
  97850474.86509      -423.000          50.750  
  22933086.320   120514185.43608      2911.094          47.500    22933088.500  
  93907165.83009      2268.383          53.000  
  22763843.400   119624803.95807     -3196.563          44.250    22763842.420  
  93214127.28705     -2490.832          37.500  
  19529085.220   104540720.60909      -906.082          49.500    19529088.540  
  81309462.78508      -704.734          46.750  
  20617559.540   110406092.03908      2271.309          45.500    20617562.760  
  85871419.08608      1766.574          45.000  
  22335991.800   119189135.06305     -3325.422          36.000                  
                                                
  21671137.360   115681994.61406     -3965.398          40.000    21671142.040  
  89974910.01304     -3084.203          32.000  
  21646918.640   115633969.27906      -222.809          39.500    21646923.300  
  89937539.80906      -173.301          39.000  
  22873768.260   122316320.71007      3474.555          42.750    22873773.000  
  95134937.81205      2702.430          38.250  
  20498132.200   109651189.81608       961.355          48.000    20498138.740  
  85284281.97206       747.719          39.750  
 20 10 03 06 49 35.0000000  0 15G15G20G18G23G24G27G10G13R 7R 8R 6R22
                                R16R24R23
  20557248.260   108029068.81609     -1799.160          50.000    20557247.300  
  84178490.09109     -1401.945          54.000  
  20371809.960   107054584.02209      1466.703          49.500    20371808.660  
  83419150.86108      1142.883          46.500  
  20780127.840   109200308.66709     -1705.316          49.750    20780127.580  
  85091145.42408     -1328.820          45.500  
  20690714.200   108730437.07009      1584.273          49.500    20690713.720  
  84725014.80308      1234.500          45.750  
  21664918.300   113849913.28608      2664.297          47.750    21664920.060  
  88714226.35309      2076.074          53.750  
  23896603.280   125577499.80407      -545.949          44.000    23896605.200  
  97852595.84709      -425.418          51.000  
  22930316.720   120499631.13708      2910.379          47.500    22930318.920  
  93895824.81209      2267.828          53.000  
  22766885.280   119640789.25308     -3197.723          44.750    22766884.300  
  93226583.37405     -2491.730          38.500  
  19529932.400   104545255.64309      -908.363          49.250    19529935.720  
  81312990.03408      -706.508          46.750  
  20615439.460   110394739.16908      2269.516          45.750    20615442.700  
  85862589.07608      1765.176          45.250  
  22339107.660   119205761.90505     -3325.688          37.250                  
                                                
  21674852.300   115701825.21806     -3967.668          40.000    21674857.000  
  89990333.81304     -3085.969          31.750  
  21647129.160   115635093.85006      -226.945          39.000    21647133.820  
  89938414.48106      -176.512          39.250  
  22870520.420   122298953.03907      3472.293          41.500    22870525.160  
  95121429.62006      2700.621          38.750  
  20497235.520   109646393.18808       956.914          48.000    20497242.060  
  85280551.25106       744.262          39.750  
 20 10 03 06 49 40.0000000  0 15G15G20G18G23G24G27G10G13R 7R 8R 6R22
                                R16R24R23
  20558961.320   108038071.01509     -1801.547          50.000    20558960.360  
  84185504.79009     -1403.809          53.750  
  20370415.480   107047255.99609      1464.586          49.750    20370414.180  
  83413440.70508      1141.230          46.000  
  20781751.940   109208843.35709     -1708.445          50.000    20781751.680  
  85097795.82808     -1331.262          45.500  
  20689207.780   108722520.78209      1582.383          49.500    20689207.300  
  84718846.26308      1233.023          45.750  
  21662384.480   113836598.00108      2661.797          48.000    21662386.260  
  88703850.79809      2074.125          53.500  
  23897124.520   125580238.93307      -549.195          43.750    23897126.440  
  97854730.23609      -427.945          51.000  
  22927548.040   120485081.67808      2909.430          48.000    22927550.240  
  93884487.57909      2267.090          52.750  
  22769928.460   119656781.28807     -3198.734          44.250    22769927.500  
  93239044.69306     -2492.523          39.750  
  19530781.880   104549803.01109      -910.621          49.250    19530785.200  
  81316526.88008      -708.262          46.750  
  20613321.220   110383396.10608      2267.746          46.000    20613324.440  
  85853766.70008      1763.801          45.000  
  22342224.280   119222392.89605     -3326.344          38.000                  
                                                
  21678569.540   115721668.05206     -3969.582          40.250    21678574.240  
  90005767.12003     -3087.457          30.750  
  21647344.180   115636242.44306      -231.637          38.750    21647348.840  
  89939307.82706      -180.164          39.000  
  22867275.220   122281599.53407      3469.348          42.000    22867279.960  
  95107932.44305      2698.379          37.500  
  20496343.360   109641620.81608       952.129          48.000    20496349.920  
  85276839.42306       740.543          39.750  
 20 10 03 06 49 45.0000000  0 15G15G20G18G23G24G27G10G13R 7R 8R 6R22
                                R16R24R23
  20560676.700   108047085.42109     -1803.883          49.750    20560675.740  
  84192529.00509     -1405.625          54.000  
  20369023.140   107039939.16309      1462.555          49.750    20369021.820  
  83407739.28108      1139.652          46.250  
  20783378.980   109217393.54709     -1711.457          50.000    20783378.720  
  85104458.31308     -1333.605          45.250  
  20687703.280   108714614.59209      1580.410          49.500    20687702.800  
  84712685.60108      1231.488          45.750  
  21659853.180   113823295.97208      2659.293          47.500    21659854.960  
  88693485.58709      2072.176          53.500  
  23897648.960   125582994.85807      -552.648          44.250    23897650.860  
  97856877.71209      -430.637          51.500  
  22924780.220   120470536.64108      2908.672          47.750    22924782.420  
  93873153.78209      2266.492          53.250  
  22772972.860   119672779.63908     -3200.027          44.750    22772971.900  
  93251510.92005     -2493.531          37.250  
  19531633.580   104554362.14709      -912.801          49.500    19531636.880  
  81320072.87708      -709.910          47.000  
  20611204.760   110372062.54508      2265.973          45.750    20611207.980  
  85844951.70808      1762.422          45.000  
  22345341.580   119239027.52905     -3326.852          37.250                  
                                                
  21682288.960   115741522.53406     -3972.070          40.250    21682293.660  
  90021209.48203     -3089.391          31.250  
  21647563.580   115637414.38206      -236.691          39.500    21647568.240  
  89940219.33806      -184.098          39.250  
  22864032.600   122264259.73707      3466.871          42.500    22864037.340  
  95094445.93605      2696.449          38.250  
  20495455.700   109636872.33808       947.539          47.750    20495462.240  
  85273146.15806       736.973          39.750  
 20 10 03 06 49 50.0000000  0 15G15G20G18G23G24G27G10G13R 7R 8R 6R22
                                R16R24R23
  20562394.420   108056112.16709     -1806.586          49.750    20562393.480  
  84199562.83009     -1407.734          54.000  
  20367632.960   107032633.69709      1459.941          50.000    20367631.640  
  83402046.71008      1137.617          45.750  
  20785009.020   109225959.39909     -1714.750          50.000    20785008.760  
  85111132.99708     -1336.172          45.000  
  20686200.720   108706718.63809      1578.215          49.750    20686200.240  
  84706532.90808      1229.777          45.750  
  21657324.440   113810007.42208      2656.266          47.500    21657326.220  
  88683130.88309      2069.816          53.750  
  23898176.620   125585767.68807      -556.453          43.750    23898178.520  
  97859038.35409      -433.605          51.000  
  22922013.260   120455996.17108      2907.684          48.000    22922015.460  
  93861823.54809      2265.723          52.750  
  22776018.480   119688784.46708     -3201.746          45.250    22776017.520  
  93263982.21705     -2494.871          37.000  
  19532487.480   104558933.23709      -915.500          49.500    19532490.800  
  81323628.16908      -712.055          47.000  
  20609090.100   110360738.61508      2263.719          46.000    20609093.320  
  85836144.20808      1760.668          44.750  
  22348459.640   119255666.16905     -3328.520          38.000                  
                                                
  21686010.580   115761388.85306     -3974.543          41.000    21686015.280  
  90036661.07003     -3091.313          31.250  
  21647787.400   115638609.93506      -241.582          39.000    21647792.060  
  89941149.19806      -187.902          39.250  
  22860792.560   122246933.83807      3463.641          41.500    22860797.320  
  95080970.23205      2693.938          37.250  
  20494572.520   109632147.94708       942.441          48.000    20494579.060  
  85269471.63406       733.012          39.750  
 20 10 03 06 49 55.0000000  0 15G15G20G18G23G24G27G10G13R 7R 8R 6R22
                                R16R24R23
  20564114.300   108065150.15509     -1808.516          49.750    20564113.340  
  84206605.41809     -1409.238          53.750  
  20366244.720   107025338.46809      1458.109          49.750    20366243.400  
  83396362.11908      1136.184          46.000  
  20786641.820   109234539.78409     -1717.402          50.000    20786641.560  
  85117819.01108     -1338.238          45.250  
  20684699.920   108698831.83609      1576.590          49.750    20684699.440  
  84700387.35008      1228.512          45.250  
  21654798.060   113796731.19508      2654.035          47.000    21654799.840  
  88672785.77309      2068.078          54.250  
  23898707.280   125588556.32007      -559.121          44.500    23898709.200  
  97861211.30609      -435.684          51.000  
  22919246.940   120441459.15908      2907.266          48.000    22919249.160  
  93850496.01609      2265.402          53.000  
  22779065.120   119704794.57608     -3202.473          45.500    22779064.180  
  93276457.59405     -2495.441          35.500  
  19533343.380   104563514.87309      -917.246          49.500    19533346.680  
  81327191.66408      -713.418          47.000  
  20606977.000   110349423.07208      2262.484          45.750    20606980.220  
  85827343.22908      1759.711          44.750  
  22351578.200   119272307.46405     -3328.383          37.750                  
                                                
  21689734.200   115781265.83006     -3976.273          41.000    21689738.920  
  90052120.94704     -3092.656          31.750  
  21648015.420   115639827.98505      -245.637          38.250    21648020.080  
  89942096.57206      -191.051          38.750  
  22857554.920   122229620.71307      3461.488          42.500    22857559.680  
  95067504.46305      2692.266          37.750  
  20493693.620   109627446.44908       938.102          48.250    20493700.180  
  85265814.90906       729.629          39.750  
 20 10 03 06 50  0.0000000  0 15G15G20G18G23G24G27G10G13R 7R 8R 6R22
                                R16R24R23
  20565836.240   108074199.07909     -1810.977          50.000    20565835.300  
  84213656.53009     -1411.152          53.750  
  20364858.380   107018053.25409      1455.953          49.750    20364857.060  
  83390685.33008      1134.504          46.250  
  20788277.340   109243134.47609     -1720.434          49.750    20788277.080  
  85124516.17008     -1340.602          45.500  
  20683200.800   108690953.94709      1574.543          49.500    20683200.320  
  84694248.73508      1226.918          45.750  
  21652273.980   113783467.08808      2651.664          47.250    21652275.760  
  88662450.12209      2066.168          54.000  
  23899240.900   125591360.53007      -562.586          44.250    23899242.820  
  97863396.40709      -438.383          50.750  
  22916481.260   120426925.38108      2906.406          48.000    22916483.460  
  93839171.00409      2264.730          53.000  
  22782112.700   119720809.79608     -3203.750          44.750    22782111.780  
  93288936.99405     -2496.434          36.500  
  19534201.280   104568107.23309      -919.684          49.250    19534204.580  
  81330763.48508      -715.313          46.750  
  20604865.420   110338115.68108      2260.430          46.000    20604868.640  
  85818548.60008      1758.113          45.000  
  22354697.260   119288951.34805     -3329.000          37.750                  
                                                
  21693459.800   115801153.27706     -3978.707          40.750    21693464.520  
  90067588.95104     -3094.555          32.250  
  21648247.600   115641068.37405      -250.496          38.000    21648252.260  
  89943061.33805      -194.832          38.500  
  22854319.620   122212320.13407      3458.973          42.250    22854324.380  
  95054048.46105      2690.313          37.000  
  20492818.960   109622767.61808       933.324          48.000    20492825.520  
  85262175.82306       725.914          39.750  
 20 10 03 06 50  5.0000000  0 15G15G20G18G23G24G27G10G13R 7R 8R 6R22
                                R16R24R23
  20567560.520   108083260.13209     -1813.500          49.750    20567559.560  
  84220717.08509     -1413.121          54.000  
  20363474.180   107010779.17909      1453.660          49.750    20363472.860  
  83385017.21708      1132.719          46.500  
  20789915.800   109251744.59409     -1723.598          50.000    20789915.540  
  85131225.34708     -1343.066          45.000  
  20681703.600   108683086.10809      1572.539          49.500    20681703.120  
  84688117.95408      1225.352          45.750  
  21649752.400   113770216.16408      2648.707          47.500    21649754.180  
  88652124.72909      2063.926          53.750  
  23899777.720   125594181.44908      -565.977          44.750    23899779.620  
  97865594.52609      -441.023          50.750  
  22913716.400   120412396.00608      2905.355          48.250    22913718.600  
  93827849.42409      2263.914          52.750  
  22785161.460   119736831.19608     -3205.156          44.750    22785160.540  
  93301421.20605     -2497.527          37.250  
  19535061.380   104572711.40009      -922.102          49.250    19535064.680  
  81334344.50308      -717.195          46.750  
  20602755.600   110326817.80308      2258.543          46.000    20602758.820  
  85809761.36608      1756.645          44.750  
  22357816.960   119305598.76105     -3330.266          37.000                  
                                                
  21697187.560   115821052.27306     -3980.934          41.000    21697192.280  
  90083065.93704     -3096.285          32.000  
  21648484.140   115642331.96606      -255.340          39.250    21648488.800  
  89944044.14605      -198.598          38.250  
  22851086.900   122195033.30907      3455.992          43.250    22851091.660  
  95040603.14605      2687.988          37.750  
  20491948.740   109618112.56008       928.449          48.000    20491955.300  
  85258555.22606       722.129          39.500  
 20 10 03 06 50 10.0000000  0 15G15G20G18G23G24G27G10G13R 7R 8R 6R22
                                R16R24R23
  20569287.000   108092332.90109     -1815.828          49.750    20569286.040  
  84227786.77909     -1414.930          54.000  
  20362092.020   107003515.86109      1451.539          49.750    20362090.680  
  83379357.49308      1131.070          46.250  
  20791557.120   109260369.76809     -1726.559          50.000    20791556.860  
  85137946.25708     -1345.375          45.500  
  20680208.240   108675227.96909      1570.656          49.750    20680207.760  
  84681994.72908      1223.887          46.250  
  21647233.300   113756978.24108      2646.105          47.500    21647235.100  
  88641809.46209      2061.898          53.750  
  23900317.620   125597018.67907      -569.148          44.000    23900319.520  
  97867805.36309      -443.492          50.750  
  22910952.320   120397870.64708      2904.551          48.250    22910954.520  
  93816530.96009      2263.281          53.000  
  22788211.340   119752858.41608     -3206.000          45.250    22788210.420  
  93313909.95105     -2498.184          37.250  
  19535923.560   104577326.77809      -924.316          49.250    19535926.880  
  81337934.24008      -718.918          46.750  
  20600647.460   110315528.79008      2256.703          46.250    20600650.680  
  85800981.02908      1755.215          44.750  
  22360937.340   119322249.70105     -3331.020          36.500                  
                                                
  21700917.400   115840962.44706     -3983.391          40.500    21700922.140  
  90098551.62404     -3098.195          31.500  
  21648725.040   115643618.68506      -259.730          39.000    21648729.700  
  89945044.90205      -202.016          38.250  
  22847856.680   122177759.85007      3453.590          41.500    22847861.440  
  95027168.23805      2686.121          37.750  
  20491082.920   109613481.02808       924.020          48.250    20491089.480  
  85254952.93006       718.684          39.750  
 20 10 03 06 50 15.0000000  0 15G15G20G18G23G24G27G10G13R 7R 8R 6R22
                                R16R24R23
  20571015.740   108101417.49109     -1818.520          50.000    20571014.780  
  84234865.67609     -1417.031          53.750  
  20360711.920   106996263.43609      1448.949          50.000    20360710.580  
  83373706.25908      1129.051          46.250  
  20793201.300   109269010.06109     -1729.953          50.250    20793201.040  
  85144678.95508     -1348.016          45.000  
  20678714.760   108667379.61909      1568.230          49.750    20678714.280  
  84675879.12908      1221.992          46.000  
  21644716.680   113743753.28008      2643.398          47.750    21644718.480  
  88631504.29909      2059.789          53.500  
  23900860.660   125599872.32107      -573.023          43.500    23900862.560  
  97870028.96709      -446.516          51.250  
  22908189.020   120383349.38908      2903.516          48.500    22908191.220  
  93805215.69809      2262.477          52.750  
  22791262.340   119768891.59408     -3207.691          45.500    22791261.440  
  93326403.34105     -2499.500          36.500  
  19536787.900   104581953.64709      -927.059          49.250    19536791.220  
  81341532.92008      -721.047          47.000  
  20598541.040   110304248.96108      2254.586          46.250    20598544.240  
  85792207.82908      1753.566          45.000  
  22364058.340   119338903.83505     -3331.520          36.750                  
                                                
  21704649.360   115860883.83306     -3985.703          39.500    21704654.100  
  90114046.02304     -3099.996          31.750  
  21648970.200   115644928.35805      -264.918          38.000    21648974.840  
  89946063.54905      -206.047          38.250  
  22844628.960   122160499.84507      3449.992          42.250    22844633.720  
  95013743.79706      2683.328          38.750  
  20490221.500   109608872.98808       918.813          48.250    20490228.060  
  85251368.89406       714.629          39.500  
 20 10 03 06 50 20.0000000  0 15G15G20G18G23G24G27G10G13R 7R 8R 6R22
                                R16R24R23
  20572746.800   108110514.25109     -1820.445          50.250    20572745.840  
  84241954.06109     -1418.531          53.750  
  20359333.980   106989022.26009      1447.160          50.000    20359332.640  
  83368063.78008      1127.652          46.250  
  20794848.460   109277665.86609     -1732.570          49.750    20794848.180  
  85151423.74008     -1350.055          45.500  
  20677223.200   108659541.41309      1566.746          49.500    20677222.700  
  84669771.44608      1220.840          45.750  
  21642202.580   113730541.65008      2641.180          48.000    21642204.380  
  88621209.52309      2058.059          53.500  
  23901406.880   125602742.72407      -575.809          44.000    23901408.780  
  97872265.65509      -448.684          50.500  
  22905426.560   120368832.61408      2903.031          48.250    22905428.760  
  93793903.93109      2262.102          52.750  
  22794314.560   119784931.15008     -3208.520          45.750    22794313.660  
  93338901.69004     -2500.148          35.000  
  19537654.440   104586592.28509      -928.859          49.500    19537657.760  
  81345140.75408      -722.445          46.750  
  20596436.360   110292978.59708      2253.246          46.250    20596439.580  
  85783441.98808      1752.520          44.750  
  22367180.040   119355561.75705     -3332.160          36.500                  
                                                
  21708383.520   115880816.91006     -3987.809          38.750    21708388.260  
  90129549.49804     -3101.637          32.000  
  21649219.780   115646261.63305      -268.656          38.250    21649224.440  
  89947100.53506      -208.957          38.750  
  22841403.860   122143253.78307      3447.957          42.000    22841408.600  
  95000330.19005      2681.746          38.250  
  20489364.560   109604288.89708       914.559          48.250    20489371.120  
  85247803.48606       711.320          39.500  
 20 10 03 06 50 25.0000000  0 15G15G20G18G23G24G27G10G13R 7R 8R 6R22
                                R16R24R23
  20574480.100   108119622.82809     -1822.898          50.000    20574479.160  
  84249051.64909     -1420.445          53.750  
  20357958.100   106981791.98309      1445.109          49.750    20357956.760  
  83362429.80208      1126.059          46.500  
  20796498.480   109286336.80309     -1735.641          49.750    20796498.220  
  85158180.31108     -1352.449          45.500  
  20675733.500   108651713.03909      1564.711          49.750    20675733.020  
  84663671.41508      1219.254          45.750  
  21639690.960   113717343.04008      2638.570          47.750    21639692.780  
  88610924.89609      2056.027          53.750  
  23901956.220   125605629.54107      -579.059          43.250    23901958.120  
  97874515.12509      -451.215          51.000  
  22902664.880   120354319.98408      2902.043          48.500    22902667.100  
  93782595.39709      2261.332          52.500  
  22797367.920   119800976.62108     -3209.770          45.500    22797367.020  
  93351404.65605     -2501.121          36.000  
  19538523.100   104591242.35709      -931.094          49.250    19538526.420  
  81348757.47608      -724.184          46.750  
  20594333.420   110281717.37608      2251.680          46.250    20594336.620  
  85774683.26707      1751.305          44.500  
  22370302.340   119372222.90605     -3332.555          37.000                  
                                                
  21712119.720   115900761.01006     -3989.895          39.500    21712124.480  
  90145061.57404     -3103.254          31.750  
  21649473.680   115647617.87905      -273.070          37.750    21649478.340  
  89948155.39106      -212.391          39.000  
  22838181.280   122126021.21507      3445.242          42.750    22838186.020  
  94986927.08605      2679.633          38.500  
  20488512.020   109599728.37208       909.762          48.250    20488518.580  
  85244256.41106       707.590          39.250  
 20 10 03 06 50 30.0000000  0 15G15G20G18G23G24G27G10G13R 7R 8R 6R22
                                R16R24R23
  20576215.340   108128741.56009     -1824.973          50.000    20576214.380  
  84256157.15609     -1422.055          53.750  
  20356584.000   106974571.04109      1442.992          50.000    20356582.640  
  83356803.09408      1124.410          46.250  
  20798151.100   109295021.28809     -1738.520          49.750    20798150.820  
  85164947.43508     -1354.695          45.750  
  20674245.360   108643892.86809      1563.059          49.750    20674244.880  
  84657577.78108      1217.969          45.750  
  21637181.500   113704155.78408      2636.020          47.750    21637183.320  
  88600649.11309      2054.043          53.750  
  23902508.400   125608531.19307      -582.289          43.500    23902510.300  
  97876776.14409      -453.734          51.250  
  22899903.720   120339809.89908      2901.457          48.500    22899905.920  
  93771288.84109      2260.875          52.500  
  22800422.100   119817026.41308     -3210.668          46.000    22800421.200  
  93363910.97105     -2501.824          36.250  
  19539393.600   104595902.15809      -933.145          49.500    19539396.920  
  81352381.77008      -725.781          46.750  
  20592231.860   110270463.69608      2249.680          46.250    20592235.060  
  85765930.41708      1749.750          45.000  
  22373425.000   119388885.83105     -3332.969          37.500                  
                                                
  21715857.720   115920714.84706     -3992.141          40.000    21715862.500  
  90160581.22903     -3105.004          30.750  
  21649731.580   115648995.58805      -278.320          38.250    21649736.240  
  89949226.94206      -216.477          39.000  
  22834960.940   122108800.62907      3442.574          42.000    22834965.680  
  94973533.30005      2677.559          38.500  
  20487663.580   109595189.86008       905.211          48.250    20487670.140  
  85240726.46306       704.055          39.500  
 20 10 03 06 50 35.0000000  0 15G15G20G18G23G24G27G10G13R 7R 8R 6R22
                                R16R24R23
  20577953.060   108137873.38009     -1827.453          50.250    20577952.120  
  84263272.86009     -1423.992          53.750  
  20355212.220   106967362.29109      1440.672          50.000    20355210.860  
  83351185.88608      1122.598          46.250  
  20799806.820   109303722.16109     -1741.488          50.000    20799806.540  
  85171727.33408     -1357.008          45.500  
  20672759.360   108636083.82809      1560.809          49.750    20672758.860  
  84651492.81108      1216.211          45.500  
  21634674.780   113690982.91508      2633.363          48.000    21634676.600  
  88590384.54709      2052.031          53.500  
  23903063.920   125611450.52307      -585.551          43.750    23903065.840  
  97879050.93909      -456.277          50.500  
  22897143.560   120325305.23609      2900.578          48.750    22897145.760  
  93759986.51509      2260.191          52.250  
  22803477.620   119833083.26608     -3211.941          46.000    22803476.740  
  93376422.79704     -2502.816          35.000  
  19540266.480   104600574.79309      -935.617          49.250    19540269.800  
  81356016.03608      -727.707          46.750  
  20590132.240   110259220.36608      2247.836          46.500    20590135.440  
  85757185.60908      1748.316          44.750  
  22376548.520   119405553.45505     -3333.992          36.750                  
                                                
  21719598.060   115940681.07006     -3994.492          40.250    21719602.840  
  90176110.52403     -3106.828          31.250  
  21649994.080   115650397.82406      -283.086          39.500    21649998.740  
  89950317.58306      -220.180          39.250  
  22831743.400   122091594.91407      3439.852          42.250    22831748.120  
  94960151.08205      2675.441          38.500  
  20486819.820   109590676.24308       900.391          48.250    20486826.380  
  85237215.86606       700.301          39.750  
 20 10 03 06 50 40.0000000  0 15G15G20G18G23G24G27G10G13R 7R 8R 6R22
                                R16R24R23
  20579692.820   108147015.82809     -1829.688          50.000    20579691.860  
  84270396.84709     -1425.734          53.750  
  20353842.280   106960163.30509      1438.633          50.000    20353840.940  
  83345576.29308      1121.012          46.250  
  20801465.200   109312437.01709     -1744.520          50.000    20801464.940  
  85178518.12908     -1359.371          44.750  
  20671275.000   108628283.44509      1559.063          49.750    20671274.500  
  84645414.59008      1214.852          45.750  
  21632170.340   113677821.99408      2630.859          47.750    21632172.160  
  88580129.29209      2050.020          54.000  
  23903622.360   125614385.08407      -588.711          43.250    23903624.280  
  97881337.60009      -458.738          51.000  
  22894383.980   120310803.57408      2899.867          48.500    22894386.180  
  93748686.53309      2259.637          52.500  
  22806534.020   119849144.74908     -3212.867          46.000    22806533.120  
  93388938.24405     -2503.535          36.250  
  19541141.260   104605257.52109      -937.789          49.500    19541144.600  
  81359658.15208      -729.395          46.750  
  20588034.140   110247985.09308      2246.059          46.500    20588037.320  
  85748447.05908      1746.934          45.000  
  22379672.460   119422223.26905     -3333.914          38.000                  
                                                
  21723340.300   115960657.30306     -3996.184          40.250    21723345.080  
  90191647.57704     -3108.148          32.750  
  21650260.680   115651821.94806      -286.777          39.500    21650265.340  
  89951425.23006      -223.051          38.750  
  22828528.140   122074401.54307      3437.086          41.500    22828532.860  
  94946778.46406      2673.285          39.500  
  20485980.260   109586185.15008       895.938          48.500    20485986.820  
  85233722.79406       696.836          40.000  
 20 10 03 06 50 45.0000000  0 15G15G20G18G23G24G27G10G13R 7R 8R 6R22
                                R16R24R23
  20581434.940   108156170.76909     -1832.215          50.250    20581434.000  
  84277530.56209     -1427.703          53.750  
  20352474.560   106952975.91209      1436.277          49.750    20352473.220  
  83339975.72908      1119.176          46.000  
  20803126.580   109321167.62809     -1747.754          49.750    20803126.300  
  85185321.21108     -1361.887          45.000  
  20669792.620   108620493.56409      1556.824          49.500    20669792.140  
  84639344.56008      1213.109          45.750  
  21629668.480   113664674.65508      2628.152          47.500    21629670.300  
  88569884.61809      2047.910          53.500  
  23904184.040   125617336.69607      -592.102          43.250    23904185.940  
  97883637.56509      -461.383          51.000  
  22891625.320   120296306.75008      2898.863          48.250    22891627.520  
  93737390.30009      2258.855          52.750  
  22809591.660   119865212.74508     -3214.379          46.000    22809590.780  
  93401458.75005     -2504.715          35.500  
  19542018.340   104609952.49809      -940.156          49.500    19542021.660  
  81363309.79608      -731.238          46.750  
  20585937.840   110236759.49408      2244.051          46.500    20585941.020  
  85739716.03308      1745.367          45.000  
  22382797.120   119438896.97405     -3335.426          37.750                  
                                                
  21727084.720   115980645.26106     -3998.934          39.750    21727089.500  
  90207193.75604     -3110.285          32.000  
  21650531.740   115653269.88006      -291.906          39.750    21650536.400  
  89952551.39606      -227.043          38.750  
  22825315.560   122057222.51706      3434.586          41.000    22825320.280  
  94933417.01406      2671.344          39.000  
  20485145.220   109581718.28608       890.879          48.250    20485151.780  
  85230248.56606       692.906          40.250  
 20 10 03 06 50 50.0000000  0 15G15G20G18G23G24G27G10G13R 7R 8R 6R22
                                R16R24R23
  20583179.060   108165336.19509     -1834.000          50.250    20583178.120  
  84284672.45409     -1429.090          53.750  
  20351108.680   106945798.12709      1434.598          49.750    20351107.320  
  83334382.65208      1117.867          46.250  
  20804790.580   109329912.04409     -1750.230          49.500    20804790.320  
  85192135.03908     -1363.820          45.250  
  20668311.860   108612712.20509      1555.453          49.500    20668311.380  
  84633281.16908      1212.043          45.500  
  21627168.860   113651539.09208      2625.926          47.500    21627170.680  
  88559649.11809      2046.172          53.750  
  23904748.580   125620303.37907      -594.695          43.250    23904750.480  
  97885949.26409      -463.402          51.500  
  22888867.220   120281812.77108      2898.516          48.500    22888869.400  
  93726096.30309      2258.582          52.750  
  22812650.140   119881285.26808     -3215.063          46.000    22812649.260  
  93413982.80605     -2505.246          35.750  
  19542897.260   104614657.43609      -941.922          49.500    19542900.580  
  81366969.19208      -732.609          46.500  
  20583842.980   110225541.66208      2243.043          46.500    20583846.160  
  85730991.06108      1744.590          45.000  
  22385922.180   119455572.68705     -3334.883          36.250                  
                                                
  21730831.000   116000643.12606     -4000.613          40.000    21730835.800  
  90222747.63704     -3111.594          31.500  
  21650806.840   115654739.42806      -296.172          39.500    21650811.500  
  89953694.37805      -230.359          38.500  
  22822105.300   122040055.77107      3432.012          41.750    22822110.020  
  94920065.09006      2669.340          39.750  
  20484314.340   109577273.63608       886.742          48.000    20484320.900  
  85226791.61806       689.684          39.750  
 20 10 03 06 50 55.0000000  0 15G15G20G18G23G24G27G10G13R 7R 8R 6R22
                                R16R24R23
  20584925.360   108174513.08209     -1836.555          50.000    20584924.420  
  84291823.27709     -1431.082          54.000  
  20349744.820   106938631.03409      1432.332          49.750    20349743.480  
  83328797.90608      1116.102          46.000  
  20806457.420   109338671.29409     -1753.410          49.500    20806457.160  
  85198960.42108     -1366.297          45.500  
  20666832.940   108604940.43309      1553.301          49.750    20666832.460  
  84627225.24508      1210.363          45.500  
  21624671.700   113638416.44108      2623.238          47.750    21624673.520  
  88549423.68209      2044.082          53.500  
  23905316.200   125623286.19707      -598.367          43.500    23905318.100  
  97888273.52809      -466.266          51.000  
  22886109.860   120267322.70708      2897.531          48.500    22886112.040  
  93714805.33709      2257.816          52.750  
  22815709.740   119897363.33608     -3216.410          45.750    22815708.860  
  93426511.13605     -2506.297          36.500  
  19543778.280   104619373.62109      -944.297          49.500    19543781.600  
  81370637.34408      -734.453          46.500  
  20581749.800   110214332.81008      2240.805          46.250    20581752.980  
  85722273.07108      1742.848          45.000  
  22389047.780   119472251.39405     -3335.555          35.750                  
                                                
  21734579.280   116020651.67706     -4003.152          40.000    21734584.080  
  90238309.83504     -3113.566          31.750  
  21651086.240   115656231.97306      -300.684          40.500    21651090.900  
  89954855.25006      -233.867          38.750  
  22818897.520   122022902.37807      3429.141          41.750    22818902.240  
  94906723.58506      2667.031          39.500  
  20483487.860   109572852.45608       881.910          48.250    20483494.400  
  85223352.92306       685.926          39.500  
 20 10 03 06 51  0.0000000  0 15G15G20G18G23G24G27G10G13R 7R 8R 6R22
                                R16R24R23
  20586674.020   108183702.34209     -1839.461          49.750    20586673.080  
  84298983.73509     -1433.352          54.000  
  20348383.180   106931475.59109      1429.707          49.750    20348381.820  
  83323222.24408      1114.059          46.250  
  20808127.260   109347446.31309     -1756.719          49.750    20808126.980  
  85205798.09408     -1368.875          45.500  
  20665356.040   108597179.20509      1550.996          49.750    20665355.560  
  84621177.53508      1208.566          45.500  
  21622177.160   113625307.61008      2620.156          47.750    21622179.000  
  88539209.00909      2041.590          53.500  
  23905887.060   125626286.07107      -602.156          43.750    23905888.960  
  97890611.09009      -469.215          51.250  
  22883353.400   120252837.48808      2896.484          48.500    22883355.600  
  93703518.16009      2257.000          52.750  
  22818770.520   119913447.87508     -3217.680          45.500    22818769.640  
  93439044.55105     -2507.285          35.750  
  19544661.540   104624101.78909      -947.027          49.500    19544664.860  
  81374314.81008      -736.578          46.500  
  20579658.460   110203133.71008      2238.789          46.000    20579661.620  
  85713562.65808      1741.277          44.750  
  22392174.120   119488934.14905     -3336.664          37.500                  
                                                
  21738329.760   116040672.07706     -4005.395          40.000    21738334.560  
  90253881.26203     -3115.309          29.500  
  21651370.100   115657748.23306      -305.871          40.000    21651374.760  
  89956034.55306      -237.902          39.000  
  22815692.420   122005763.30807      3425.918          41.500    22815697.140  
  94893393.19106      2664.602          39.500  
  20482665.920   109568455.63108       876.645          48.250    20482672.460  
  85219933.17006       681.832          39.250  
 20 10 03 06 51  5.0000000  0 15G15G20G18G23G24G27G10G13R 7R 8R 6R22
                                R16R24R23
  20588424.680   108192902.09309     -1840.852          49.750    20588423.740  
  84306152.36909     -1434.434          54.000  
  20347023.400   106924329.87809      1428.395          49.750    20347022.040  
  83317654.15008      1113.031          46.250  
  20809799.720   109356235.18109     -1758.898          50.000    20809799.460  
  85212646.55608     -1370.574          44.750  
  20663880.760   108589426.58809      1549.961          49.750    20663880.280  
  84615136.53808      1207.762          45.750  
  21619684.880   113612210.62708      2618.527          47.750    21619686.720  
  88529003.56809      2040.406          53.500  
  23906460.780   125629301.08207      -604.516          44.000    23906462.700  
  97892960.44909      -471.051          51.500  
  22880597.520   120238355.23008      2896.477          48.500    22880599.720  
  93692233.28809      2256.996          52.750  
  22821832.180   119929537.00408     -3217.902          45.250    22821831.300  
  93451581.52505     -2507.461          36.500  
  19545546.680   104628840.09609      -948.395          49.250    19545550.020  
  81378000.16208      -737.645          46.500  
  20577568.580   110191942.54308      2237.750          46.250    20577571.760  
  85704858.41708      1740.469          45.000  
  22395300.840   119505618.94705     -3336.758          37.000                  
                                                
  21742082.080   116060702.21906     -4006.570          40.000    21742086.900  
  90269460.25204     -3116.227          32.000  
  21651658.040   115659286.37806      -309.605          40.250    21651662.700  
  89957230.88806      -240.809          39.000  
  22812489.640   121988636.60907      3424.410          41.500    22812494.360  
  94880072.44006      2663.430          39.500  
  20481848.160   109564081.16908       872.984          48.000    20481854.700  
  85216530.81106       678.988          39.250  
 20 10 03 06 51 10.0000000  0 15G15G20G18G23G24G27G10G13R 7R 8R 6R22
                                R16R24R23
  20590177.500   108202113.23709     -1843.945          49.750    20590176.580  
  84313329.88209     -1436.844          54.000  
  20345665.640   106917194.79609      1425.488          49.750    20345664.280  
  83312094.34408      1110.766          45.750  
  20811475.000   109365038.81809     -1762.727          50.000    20811474.740  
  85219506.53407     -1373.559          44.500  
  20662407.300   108581683.53209      1547.172          49.250    20662406.820  
  84609102.98908      1205.590          46.000  
  21617195.040   113599126.38008      2615.098          47.750    21617196.880  
  88518808.04609      2037.734          53.500  
  23907037.580   125632332.14207      -608.293          44.250    23907039.500  
  97895322.31009      -474.000          50.750  
  22877842.380   120223876.86408      2894.832          48.500    22877844.580  
  93680951.44609      2255.715          52.500  
  22824894.900   119945631.60908     -3219.898          45.250    22824894.020  
  93464122.76305     -2509.016          36.500  
  19546433.920   104633589.47009      -951.469          49.500    19546437.240  
  81381694.11408      -740.035          46.500  
  20575480.360   110180760.19008      2234.895          46.500    20575483.520  
  85696161.03808      1738.250          45.000  
  22398428.120   119522306.64905     -3338.383          37.750                  
                                                
  21745836.400   116080743.07706     -4010.016          39.500    21745841.220  
  90285047.59404     -3118.902          31.750  
  21651950.220   115660847.11406      -315.199          40.250    21651954.860  
  89958444.79606      -245.156          39.000  
  22809289.380   121971523.38406      3420.664          41.000    22809294.100  
  94866762.14906      2660.516          39.250  
  20481034.740   109559730.00108       867.258          48.000    20481041.300  
  85213146.57506       674.531          39.750  
 20 10 03 06 51 15.0000000  0 15G15G20G18G23G24G27G10G13R 7R 8R 6R22
                                R16R24R23
  20591932.920   108211338.05509     -1846.039          49.750    20591932.000  
  84320518.05409     -1438.473          53.750  
  20344310.340   106910072.65909      1423.465          50.000    20344308.980  
  83306544.62708      1109.191          46.000  
  20813153.520   109373859.49309     -1765.480          49.750    20813153.260  
  85226379.78808     -1375.703          44.750  
  20660936.100   108573952.30109      1545.457          49.750    20660935.620  
  84603078.65208      1204.254          45.750  
  21614708.060   113586057.25908      2612.633          47.250    21614709.900  
  88508624.32009      2035.801          53.750  
  23907617.860   125635381.52907      -611.371          44.000    23907619.780  
  97897698.45309      -476.398          51.750  
  22875088.400   120209404.63308      2894.070          48.500    22875090.600  
  93669674.38709      2255.121          52.750  
  22827959.060   119961733.92108     -3220.727          45.750    22827958.180  
  93476670.03105     -2509.660          36.500  
  19547323.660   104638352.31209      -953.566          49.500    19547326.980  
  81385398.54708      -741.617          46.750  
  20573394.220   110169588.98608      2233.391          46.250    20573397.380  
  85687472.32608      1737.082          45.000  
  22401556.400   119538999.76605     -3338.984          37.250                  
                                                
  21749593.180   116100797.00706     -4011.797          39.250    21749598.000  
  90300645.08404     -3120.289          31.500  
  21652247.140   115662433.24706      -319.480          40.000    21652251.800  
  89959678.45706      -248.488          39.250  
  22806092.060   121954425.95706      3418.250          40.250    22806096.780  
  94853464.16906      2658.641          39.250  
  20480226.140   109555404.44008       862.883          48.000    20480232.680  
  85209782.24306       671.129          40.000  
 20 10 03 06 51 20.0000000  0 15G15G20G18G23G24G27G10G13R 7R 8R 6R22
                                R16R24R23
  20593690.340   108220573.26509     -1848.449          50.000    20593689.400  
  84327714.31909     -1440.355          53.750  
  20342956.880   106902960.16609      1421.227          49.750    20342955.520  
  83301002.42208      1107.449          46.250  
  20814834.680   109382693.92709     -1768.574          49.750    20814834.400  
  85233263.75108     -1378.113          45.000  
  20659466.520   108566229.65009      1543.336          49.750    20659466.040  
  84597061.00208      1202.594          45.500  
  21612223.320   113572999.88308      2609.875          47.250    21612225.140  
  88498449.75309      2033.668          54.000  
  23908201.020   125638445.97907      -614.813          43.750    23908202.920  
  97900086.33409      -479.078          51.500  
  22872334.980   120194935.31608      2893.313          48.500    22872337.160  
  93658399.60109      2254.527          52.750  
  22831024.080   119977840.72508     -3222.168          45.500    22831023.200  
  93489220.78005     -2510.785          37.750  
  19548215.260   104643125.12509      -955.824          49.250    19548218.580  
  81389110.73208      -743.418          46.500  
  20571309.540   110158425.64408      2231.691          46.000    20571312.700  
  85678789.72408      1735.758          45.000  
  22404685.060   119555694.88805     -3339.641          37.000                  
                                                
  21753351.760   116120860.56306     -4014.145          39.750    21753356.580  
  90316250.05904     -3122.117          32.750  
  21652548.140   115664041.15606      -324.180          39.750    21652552.800  
  89960929.05506      -252.145          38.750  
  22802897.060   121937340.84506      3415.379          40.750    22802901.780  
  94840175.74506      2656.402          39.000  
  20479421.700   109551101.25708       858.082          48.000    20479428.240  
  85206435.32206       667.395          39.500  
 20 10 03 06 51 25.0000000  0 15G15G20G18G23G24G27G10G13R 7R 8R 6R22
                                R16R24R23
  20595449.960   108229820.21509     -1850.441          50.000    20595449.040  
  84334919.74109     -1441.902          53.750  
  20341605.520   106895858.73709      1419.367          49.750    20341604.160  
  83295468.84708      1106.000          46.250  
  20816518.680   109391543.45709     -1771.359          49.750    20816518.420  
  85240159.48608     -1380.285          44.750  
  20657998.840   108558516.92109      1541.746          49.750    20657998.360  
  84591051.08408      1201.355          46.250  
  21609741.100   113559955.81308      2607.629          47.500    21609742.940  
  88488285.55309      2031.918          54.000  
  23908787.280   125641526.80907      -617.609          44.000    23908789.180  
  97902486.98309      -481.254          51.000  
  22869582.380   120180470.23709      2892.656          48.750    22869584.560  
  93647128.11509      2254.020          52.500  
  22834090.240   119993953.45508     -3223.063          45.000    22834089.380  
  93501776.13705     -2511.480          37.000  
  19549109.000   104647909.33409      -957.980          49.250    19549112.320  
  81392831.77808      -745.102          46.500  
  20569226.560   110147271.36408      2230.246          45.750    20569229.700  
  85670114.17708      1734.637          45.000  
  22407814.340   119572393.32805     -3339.664          37.250                  
                                                
  21757112.420   116140935.08506     -4015.426          39.500    21757117.260  
  90331863.55104     -3123.117          32.750  
  21652853.460   115665672.06006      -328.563          38.750    21652858.100  
  89962197.53306      -255.551          38.750  
  22799704.640   121920269.57806      3413.023          40.500    22799709.360  
  94826898.09706      2654.574          39.000  
  20478621.720   109546821.83408       853.516          48.250    20478628.260  
  85203106.87506       663.840          39.500  
 20 10 03 06 51 30.0000000  0 15G15G20G18G23G24G27G10G13R 7R 8R 6R22
                                R16R24R23
  20597211.940   108239079.46709     -1852.973          49.750    20597211.020  
  84342134.73609     -1443.879          54.000  
  20340256.380   106888768.96109      1416.832          50.000    20340255.020  
  83289944.34908      1104.020          46.250  
  20818205.680   109400408.67509     -1774.555          49.750    20818205.420  
  85247067.45308     -1382.773          45.000  
  20656533.160   108550814.71609      1539.395          49.750    20656532.680  
  84585049.36108      1199.523          46.000  
  21607261.540   113546925.61608      2604.633          47.750    21607263.360  
  88478132.15909      2029.586          53.750  
  23909376.760   125644624.62407      -621.305          43.500    23909378.680  
  97904900.87309      -484.133          51.500  
  22866830.700   120166010.01108      2891.559          48.500    22866832.860  
  93635860.41209      2253.164          52.750  
  22837157.640   120010072.68208     -3224.578          45.250    22837156.780  
  93514336.56605     -2512.664          36.750  
  19550005.000   104652705.63409      -960.449          49.750    19550008.300  
  81396562.23708      -747.016          46.500  
  20567145.420   110136126.98608      2227.941          45.250    20567148.560  
  85661446.33008      1732.844          45.250  
  22410944.360   119589095.72805     -3340.746          37.750                  
                                                
  21760875.260   116161021.30806     -4018.539          40.250    21760880.100  
  90347486.15104     -3125.535          32.000  
  21653163.220   115667326.66505      -333.570          38.500    21653167.860  
  89963484.44206      -259.449          38.750  
  22796514.920   121903212.69606      3409.836          40.500    22796519.640  
  94813631.63706      2652.094          39.250  
  20477826.260   109542566.68108       848.684          48.250    20477832.800  
  85199797.32206       660.082          39.750  
 20 10 03 06 51 35.0000000  0 15G15G20G18G23G24G27G10G13R 7R 8R 6R22
                                R16R24R23
  20598976.060   108248349.98209     -1855.359          49.750    20598975.140  
  84349358.51009     -1445.738          54.000  
  20338909.240   106881689.70809      1414.750          50.250    20338907.880  
  83284428.04408      1102.398          45.750  
  20819895.440   109409288.46109     -1777.488          49.750    20819895.180  
  85253986.76608     -1385.055          44.750  
  20655069.260   108543121.92709      1537.527          49.750    20655068.780  
  84579054.98608      1198.074          45.750  
  21604784.380   113533908.10008      2602.176          48.000    21604786.220  
  88467988.64009      2027.668          53.500  
  23909969.300   125647738.34007      -624.355          43.750    23909971.220  
  97907327.12709      -486.516          51.250  
  22864079.720   120151553.53208      2890.922          48.250    22864081.880  
  93624595.63209      2252.668          52.750  
  22840226.020   120026197.10708     -3225.395          45.500    22840225.140  
  93526901.05704     -2513.297          35.000  
  19550903.000   104657512.77009      -962.551          49.500    19550906.300  
  81400301.12708      -748.652          46.250  
  20565065.920   110124991.40408      2226.055          45.750    20565069.060  
  85652785.33408      1731.375          45.250  
  22414074.880   119605800.82205     -3341.684          37.750                  
                                                
  21764640.020   116181117.86606     -4020.430          39.750    21764644.860  
  90363116.80903     -3127.004          30.750  
  21653477.200   115669003.94006      -337.965          38.750    21653481.840  
  89964788.99005      -262.867          38.500  
  22793327.700   121886169.20106      3407.449          40.500    22793332.400  
  94800375.59606      2650.281          39.250  
  20477035.160   109538334.78408       843.875          48.250    20477041.700  
  85196505.84306       656.344          39.500  
 20 10 03 06 51 40.0000000  0 15G15G20G18G23G24G27G10G13R 7R 8R 6R22
                                R16R24R23
  20600742.380   108257631.98809     -1857.668          49.750    20600741.460  
  84356591.23609     -1447.539          54.000  
  20337564.180   106874621.33609      1412.449          50.250    20337562.820  
  83278920.22508      1100.605          45.750  
  20821588.060   109418183.16609     -1780.543          49.750    20821587.780  
  85260917.70308     -1387.441          45.000  
  20653607.220   108535438.89409      1535.402          49.750    20653606.760  
  84573068.21008      1196.418          45.750  
  21602309.700   113520903.57108      2599.309          47.500    21602311.540  
  88457855.24109      2025.434          53.500  
  23910564.900   125650868.23407      -627.824          43.750    23910566.820  
  97909765.99509      -489.219          51.250  
  22861329.520   120137101.15208      2889.867          48.500    22861331.680  
  93613334.04509      2251.844          52.750  
  22843295.440   120042327.08908     -3226.531          46.000    22843294.580  
  93539469.86804     -2514.180          34.000  
  19551803.100   104662331.06809      -965.027          49.500    19551806.400  
  81404048.69808      -750.578          46.250  
  20562988.080   110113864.71608      2224.121          45.750    20562991.220  
  85644131.24908      1729.871          45.250  
  22417206.020   119622509.15305     -3341.965          37.500                  
                                                
  21768406.800   116201225.20206     -4022.664          40.500    21768411.640  
  90378755.84603     -3128.738          31.250  
  21653795.460   115670704.09205      -342.582          37.500    21653800.100  
  89966111.33805      -266.453          38.500  
  22790143.000   121869139.35006      3404.391          40.500    22790147.720  
  94787130.18806      2647.863          39.500  
  20476248.440   109534126.41108       839.211          48.250    20476254.980  
  85193232.66306       652.715          39.500  
 20 10 03 06 51 45.0000000  0 15G15G20G18G23G24G27G10G13R 7R 8R 6R22
                                R16R24R23
  20602510.980   108266926.10709     -1860.051          50.000    20602510.080  
  84363833.40809     -1449.395          53.750  
  20336221.280   106867564.42309      1410.262          50.000    20336219.920  
  83273421.33208      1098.902          46.250  
  20823283.620   109427093.35709     -1783.563          49.500    20823283.340  
  85267860.70508     -1389.793          44.750  
  20652147.160   108527766.22709      1533.586          49.750    20652146.700  
  84567089.50208      1195.000          45.750  
  21599837.600   113507912.61908      2596.859          47.750    21599839.440  
  88447732.42909      2023.527          53.250  
  23911163.680   125654014.90407      -631.219          44.250    23911165.620  
  97912217.96009      -491.859          51.000  
  22858580.200   120122653.45108      2889.063          48.500    22858582.360  
  93602076.10509      2251.219          52.750  
  22846366.060   120058463.25908     -3227.980          45.750    22846365.200  
  93552043.50805     -2515.309          35.750  
  19552705.400   104667161.12609      -967.313          49.250    19552708.700  
  81407805.41208      -752.359          46.500  
  20560912.060   110102747.64208      2222.395          45.500    20560915.200  
  85635484.62908      1728.523          45.250  
  22420337.900   119639221.30005     -3342.367          37.750                  
                                                
  21772175.720   116221344.00306     -4025.102          40.000    21772180.580  
  90394403.80003     -3130.633          31.250  
  21654118.160   115672427.84905      -347.012          37.500    21654122.800  
  89967452.03406      -269.902          38.750  
  22786961.000   121852123.80106      3401.855          40.250    22786965.700  
  94773895.89206      2646.090          39.000  
  20475466.240   109529942.13608       834.328          48.250    20475472.780  
  85189978.23006       648.918          40.000  
 20 10 03 06 51 50.0000000  0 15G15G20G18G23G24G27G10G13R 7R 8R 6R22
                                R16R24R23
  20604281.740   108276231.44509     -1862.305          50.000    20604280.820  
  84371084.32109     -1451.148          53.750  
  20334880.400   106860518.05609      1408.176          50.000    20334879.040  
  83267930.65808      1097.281          46.250  
  20824981.940   109436018.13109     -1786.555          49.500    20824981.680  
  85274815.06607     -1392.125          44.500  
  20650688.900   108520103.01909      1531.695          49.750    20650688.440  
  84561118.17308      1193.527          45.750  
  21597367.960   113494934.56608      2594.258          47.500    21597369.800  
  88437619.66009      2021.465          53.750  
  23911765.500   125657177.39507      -634.215          43.750    23911767.420  
  97914682.23909      -494.195          50.750  
  22855831.620   120108209.55008      2888.293          48.500    22855833.780  
  93590821.12109      2250.617          52.750  
  22849437.660   120074604.66008     -3228.840          45.750    22849436.800  
  93564621.22405     -2515.984          37.000  
  19553609.740   104672002.15909      -969.375          49.500    19553613.040  
  81411570.66008      -753.957          46.500  
  20558837.640   110091639.26308      2220.781          45.750    20558840.780  
  85626844.78008      1727.270          45.000  
  22423470.260   119655936.10905     -3343.281          37.750                  
                                                
  21775946.560   116241473.05106     -4026.785          40.750    21775951.420  
  90410059.73503     -3131.945          31.000  
  21654445.100   115674174.26905      -351.566          37.500    21654449.720  
  89968810.36505      -273.441          38.500  
  22783781.480   121835121.53506      3399.469          40.500    22783786.200  
  94760671.90806      2644.031          39.000  
  20474688.400   109525781.19008       829.777          48.250    20474694.940  
  85186741.93006       645.379          39.500  
 20 10 03 06 51 55.0000000  0 15G15G20G18G23G24G27G10G13R 7R 8R 6R22
                                R16R24R23
  20606054.420   108285547.06009     -1864.309          49.750    20606053.520  
  84378343.24409     -1452.707          54.000  
  20333541.360   106853481.35109      1406.258          49.750    20333540.000  
  83262447.51308      1095.785          46.250  
  20826682.860   109444956.50709     -1789.074          49.500    20826682.600  
  85281780.03707     -1394.086          44.500  
  20649232.260   108512448.33509      1530.008          49.500    20649231.800  
  84555153.49008      1192.215          45.750  
  21594900.560   113481968.34608      2591.992          47.750    21594902.400  
  88427516.12109      2019.734          53.500  
  23912370.140   125660354.87907      -637.082          43.250    23912372.060  
  97917158.20409      -496.430          51.250  
  22853083.580   120093768.49708      2887.816          48.500    22853085.720  
  93579568.35209      2250.246          52.750  
  22852510.100   120090750.34908     -3229.746          45.250    22852509.220  
  93577202.27405     -2516.688          37.250  
  19554515.960   104676853.10209      -971.316          49.500    19554519.220  
  81415343.61408      -755.473          46.500  
  20556764.700   110080538.68808      2219.281          45.750    20556767.820  
  85618211.00808      1726.109          45.250  
  22426602.940   119672652.67605     -3343.191          37.750                  
                                                
  21779719.180   116261611.58206     -4028.703          40.250    21779724.060  
  90425723.02204     -3133.441          32.000  
  21654776.100   115675942.42505      -355.988          38.000    21654780.720  
  89970185.59405      -276.879          38.250  
  22780604.340   121818131.86207      3396.383          41.750    22780609.040  
  94747457.70505      2641.777          38.250  
  20473914.700   109521642.40108       825.430          48.500    20473921.240  
  85183522.86906       641.996          39.500  
 20 10 03 06 52  0.0000000  0 15G15G20G18G23G24G27G10G13R 7R 8R 6R22
                                R16R24R23
  20607829.440   108294874.81109     -1866.969          50.000    20607828.540  
  84385611.61909     -1454.785          54.000  
  20332204.520   106846456.17709      1403.730          50.000    20332203.160  
  83256973.35708      1093.816          46.750  
  20828386.740   109453910.41209     -1792.363          49.750    20828386.480  
  85288757.09808     -1396.652          44.750  
  20647777.600   108504804.10309      1527.789          49.750    20647777.140  
  84549196.94808      1190.484          45.750  
  21592435.800   113469015.93508      2588.938          48.000    21592437.640  
  88417423.32609      2017.355          53.500  
  23912978.000   125663549.19407      -640.582          44.000    23912979.940  
  97919647.27309      -499.160          50.250  
  22850336.460   120079332.22409      2886.563          48.750    22850338.580  
  93568319.31809      2249.270          52.750  
  22855583.700   120106902.24408     -3231.137          46.000    22855582.820  
  93589788.16405     -2517.773          38.000  
  19555424.380   104681716.01009      -973.977          49.500    19555427.660  
  81419125.87708      -757.539          46.750  
  20554693.540   110069447.76608      2217.230          46.000    20554696.660  
  85609584.73708      1724.508          45.250  
  22429736.360   119689373.12805     -3343.828          37.750                  
                                                
  21783493.940   116281761.40406     -4031.023          40.500    21783498.820  
  90441395.09504     -3135.246          32.250  
  21655111.500   115677734.04505      -360.730          38.500    21655116.140  
  89971579.06505      -280.570          38.000  
  22777429.860   121801156.61107      3393.637          41.500    22777434.580  
  94734254.74706      2639.496          38.750  
  20473145.560   109517528.00908       820.273          48.250    20473152.080  
  85180322.78906       637.988          39.500  
 20 10 03 06 52  5.0000000  0 15G15G20G18G23G24G27G10G13R 7R 8R 6R22
                                R16R24R23
  20609606.960   108304215.74909     -1869.242          49.750    20609606.080  
  84392890.26709     -1456.555          54.250  
  20330870.060   106839443.60309      1401.629          49.750    20330868.700  
  83251509.01508      1092.176          46.250  
  20830093.760   109462880.90209     -1795.504          49.750    20830093.500  
  85295747.09608     -1399.094          45.000  
  20646325.140   108497171.36109      1525.695          49.750    20646324.680  
  84543249.35308      1188.848          46.000  
  21589973.860   113456078.37408      2586.375          48.000    21589975.700  
  88407342.11809      2015.355          53.500  
  23913589.280   125666761.40307      -644.047          44.000    23913591.200  
  97922150.29309      -501.859          50.250  
  22847590.420   120064901.76008      2885.758          48.250    22847592.560  
  93557074.79909      2248.641          53.000  
  22858658.720   120123061.48608     -3232.344          45.250    22858657.840  
  93602379.76905     -2518.715          36.500  
  19556335.220   104686591.79209      -976.242          49.500    19556338.500  
  81422918.15208      -759.301          46.750  
  20552624.420   110058367.69608      2215.250          45.750    20552627.540  
  85600966.90308      1722.969          45.500  
  22432870.680   119706098.30805     -3344.871          37.500                  
                                                
  21787271.020   116301923.68906     -4033.480          40.250    21787275.900  
  90457076.86004     -3137.156          32.000  
  21655451.540   115679550.50505      -365.063          38.500    21655456.180  
  89972991.86305      -283.941          38.000  
  22774258.300   121784196.84607      3390.742          41.500    22774263.000  
  94721063.82306      2637.242          38.750  
  20472381.140   109513438.87008       815.555          48.250    20472387.660  
  85177142.35406       634.320          40.000  
 20 10 03 06 52 10.0000000  0 15G15G20G18G23G24G27G10G13R 7R 8R 6R22
                                R16R24R23
  20611386.240   108313565.94209     -1871.293          50.000    20611385.360  
  84400176.12909     -1458.152          54.000  
  20329537.280   106832439.72909      1399.699          49.750    20329535.900  
  83246051.44608      1090.676          46.500  
  20831803.200   109471864.04409     -1798.012          49.500    20831802.940  
  85302746.94608     -1401.051          45.000  
  20644874.120   108489546.19109      1524.059          49.750    20644873.660  
  84537307.67008      1187.578          46.250  
  21587513.960   113443151.56208      2584.035          48.000    21587515.800  
  88397269.28009      2013.535          53.750  
  23914203.180   125669987.54307      -646.977          43.250    23914205.120  
  97924664.17209      -504.141          50.750  
  22844844.760   120050473.19309      2885.348          48.750    22844846.900  
  93545831.76409      2248.324          53.000  
  22861734.340   120139223.99408     -3232.941          45.000    22861733.460  
  93614973.93505     -2519.176          36.250  
  19557247.740   104691476.53409      -978.152          49.500    19557251.000  
  81426717.39208      -760.789          46.750  
  20550556.560   110047294.43408      2213.801          46.000    20550559.700  
  85592354.36408      1721.840          45.250  
  22436005.160   119722824.37905     -3345.785          38.250                  
                                                
  21791049.680   116322094.35306     -4034.867          40.000    21791054.560  
  90472765.13304     -3138.234          32.000  
  21655795.420   115681387.51106      -369.434          39.000    21655800.060  
  89974420.65805      -287.336          38.000  
  22771088.900   121767248.62407      3388.516          42.000    22771093.600  
  94707881.87605      2635.512          38.250  
  20471620.700   109509371.01508       811.211          48.000    20471627.220  
  85173978.46906       630.957          39.750  
 20 10 03 06 52 15.0000000  0 15G15G20G18G23G24G27G10G13R 7R 8R 6R22
                                R16R24R23
  20613168.100   108322929.61409     -1874.250          50.250    20613167.200  
  84407472.49909     -1460.453          53.750  
  20328206.940   106825448.81609      1396.848          50.000    20328205.580  
  83240603.98608      1088.449          46.500  
  20833515.860   109480864.07509     -1801.742          49.250    20833515.600  
  85309759.94308     -1403.957          45.250  
  20643425.360   108481932.85609      1521.305          49.750    20643424.880  
  84531375.19708      1185.430          45.750  
  21585057.020   113430240.21308      2580.668          47.750    21585058.860  
  88387208.49309      2010.922          53.500  
  23914820.560   125673231.86507      -650.848          43.000    23914822.500  
  97927192.20909      -507.156          50.250  
  22842100.280   120036050.82709      2883.660          48.750    22842102.400  
  93534593.56109      2247.008          52.750  
  22864811.400   120155394.08008     -3234.762          45.500    22864810.520  
  93627574.00404     -2520.598          34.250  
  19558162.740   104696374.49709      -981.012          49.250    19558165.980  
  81430526.91408      -763.012          46.750  
  20548490.780   110036232.28408      2211.223          45.750    20548493.900  
  85583750.48008      1719.840          45.500  
  22439140.620   119739555.62705     -3346.781          38.250                  
                                                
  21794830.700   116342277.73406     -4037.957          40.250    21794835.600  
  90488463.31104     -3140.637          31.500  
  21656144.000   115683249.52306      -374.961          39.000    21656148.640  
  89975868.86706      -291.641          39.000  
  22767922.440   121750316.21706      3384.504          41.250    22767927.140  
  94694712.23306      2632.391          38.750  
  20470865.080   109505328.91808       805.750          48.000    20470871.600  
  85170834.60706       626.691          40.250  
 20 10 03 06 52 20.0000000  0 15G15G20G18G23G24G27G10G13R 7R 8R 6R22
                                R16R24R23
  20614951.780   108332302.96809     -1875.535          50.000    20614950.900  
  84414776.41309     -1461.461          53.750  
  20326878.360   106818467.01809      1395.527          50.000    20326877.000  
  83235163.61808      1087.422          46.500  
  20835230.980   109489877.14209     -1803.926          49.250    20835230.720  
  85316783.11607     -1405.656          44.500  
  20641978.100   108474327.51909      1520.359          49.500    20641977.640  
  84525448.95908      1184.691          46.250  
  21582602.200   113417340.06808      2578.816          47.750    21582604.040  
  88377156.42709      2009.465          53.750  
  23915440.680   125676490.56007      -653.086          43.500    23915442.620  
  97929731.43809      -508.902          49.750  
  22839356.240   120021630.76809      2883.773          48.750    22839358.360  
  93523357.14709      2247.094          52.750  
  22867889.180   120171567.86808     -3234.965          45.250    22867888.300  
  93640176.94605     -2520.754          36.000  
  19559079.440   104701281.73309      -982.281          49.250    19559082.700  
  81434343.66008      -763.996          46.750  
  20546426.340   110025177.36108      2210.406          46.250    20546429.480  
  85575152.21608      1719.203          45.250  
  22442276.300   119756288.17105     -3346.578          38.250                  
                                                
  21798613.400   116362469.99006     -4039.195          40.500    21798618.300  
  90504168.39003     -3141.602          31.250  
  21656496.520   115685132.67006      -378.910          38.750    21656501.160  
  89977333.55505      -294.707          38.500  
  22764758.240   121733395.81007      3382.969          41.500    22764762.940  
  94681551.92605      2631.199          37.750  
  20470113.500   109501308.58108       801.996          48.250    20470120.020  
  85167707.69106       623.773          40.250  
 20 10 03 06 52 25.0000000  0 15G15G20G18G23G24G27G10G13R 7R 8R 6R22
                                R16R24R23
  20616737.540   108341687.18409     -1878.445          50.250    20616736.660  
  84422088.79109     -1463.723          53.750  
  20325551.720   106811495.55909      1392.777          49.750    20325550.360  
  83229731.31808      1085.281          46.250  
  20836948.820   109498904.45709     -1807.340          49.500    20836948.560  
  85323817.38808     -1408.316          45.000  
  20640532.620   108466731.39709      1517.820          49.750    20640532.140  
  84519529.90608      1182.719          46.000  
  21580149.780   113404452.56608      2575.633          47.500    21580151.640  
  88367114.22509      2007.000          53.500  
  23916063.740   125679764.81507      -657.074          43.750    23916065.680  
  97932282.80709      -512.008          49.750  
  22836612.880   120007214.26909      2882.500          48.750    22836614.980  
  93512123.52009      2246.102          52.750  
  22870967.880   120187746.53808     -3236.898          45.500    22870966.980  
  93652783.70505     -2522.258          35.750  
  19559998.160   104706199.62209      -985.148          49.500    19560001.400  
  81438168.68708      -766.227          46.750  
  20544363.480   110014130.81208      2207.871          46.000    20544366.600  
  85566560.45408      1717.234          45.500  
  22445412.460   119773023.14305     -3347.508          38.500                  
                                                
  21802397.940   116382672.13306     -4042.176          40.750    21802402.820  
  90519881.18204     -3143.914          32.250  
  21656853.220   115687038.20105      -384.191          38.500    21656857.860  
  89978815.65005      -298.816          38.500  
  22761596.520   121716488.68006      3379.465          41.250    22761601.200  
  94668401.93905      2628.473          38.250  
  20469366.240   109497311.18808       796.625          48.000    20469372.760  
  85164598.60706       619.594          39.750  
 20 10 03 06 52 30.0000000  0 15G15G20G18G23G24G27G10G13R 7R 8R 6R22
                                R16R24R23
  20618526.020   108351085.79209     -1880.566          50.000    20618525.140  
  84429412.38809     -1465.375          54.000  
  20324227.740   106804537.95809      1390.746          49.750    20324226.380  
  83224309.81508      1083.699          46.500  
  20838670.040   109507949.52409     -1810.117          49.500    20838669.780  
  85330865.49007     -1410.484          44.500  
  20639089.540   108459148.01609      1515.973          49.750    20639089.080  
  84513620.78008      1181.277          46.000  
  21577700.440   113391581.17708      2573.262          47.750    21577702.280  
  88357084.58509      2005.141          53.250  
  23916690.460   125683058.14507      -659.941          43.250    23916692.400  
  97934849.02309      -514.242          50.250  
  22833870.860   119992804.83009      2881.684          49.000    22833872.960  
  93500895.38809      2245.469          52.250  
  22874048.200   120203933.62308     -3237.762          45.000    22874047.320  
  93665396.97805     -2522.938          36.500  
  19560919.500   104711131.64909      -987.352          49.500    19560922.740  
  81442004.69908      -767.945          46.500  
  20542302.860   110003096.27508      2206.234          46.250    20542305.980  
  85557978.03408      1715.961          45.500  
  22448549.760   119789764.16606     -3348.305          38.750                  
                                                
  21806185.020   116402887.83406     -4043.941          40.000    21806189.920  
  90535604.49703     -3145.293          31.000  
  21657214.780   115688969.55205      -387.629          38.500    21657219.420  
  89980317.79706      -301.492          38.750  
  22758437.900   121699598.26106      3377.094          41.000    22758442.580  
  94655264.96905      2626.629          37.750  
  20468623.940   109493340.30608       792.117          48.250    20468630.440  
  85161510.13706       616.086          40.000  
 20 10 03 06 52 35.0000000  0 15G15G20G18G23G24G27G10G13R 7R 8R 6R22
                                R16R24R23
  20620316.360   108360494.00309     -1882.875          50.000    20620315.480  
  84436743.45309     -1467.180          53.750  
  20322905.480   106797589.46109      1388.527          49.750    20322904.120  
  83218895.40008      1081.969          46.250  
  20840393.740   109517007.58109     -1813.102          49.250    20840393.460  
  85337923.71407     -1412.809          44.500  
  20637647.980   108451572.60909      1514.008          49.500    20637647.520  
  84507717.87208      1179.746          46.000  
  21575253.240   113378721.18508      2570.578          47.750    21575255.100  
  88347063.82009      2003.047          53.750  
  23917319.880   125686365.75707      -663.051          43.500    23917321.820  
  97937426.38009      -516.668          49.250  
  22831129.260   119978397.69808      2880.895          48.500    22831131.380  
  93489669.05509      2244.852          52.500  
  22877129.180   120220124.31708     -3238.625          44.750    22877128.280  
  93678013.12305     -2523.605          37.500  
  19561842.580   104716072.99009      -989.430          49.250    19561845.820  
  81445847.96608      -769.555          46.250  
  20540243.600   109992069.01508      2204.508          46.000    20540246.720  
  85549401.28508      1714.617          45.250  
  22451687.280   119806506.31205     -3348.676          37.500                  
                                                
  21809973.740   116423112.18206     -4046.207          39.750    21809978.620  
  90551334.53304     -3147.055          31.500  
  21657580.320   115690922.17506      -392.945          39.750    21657584.960  
  89981836.49706      -305.629          38.750  
  22755281.580   121682719.99907      3374.438          41.750    22755286.280  
  94642137.42005      2624.563          38.500  
  20467885.700   109489391.32908       787.348          48.500    20467892.220  
  85158438.71506       612.383          40.000  
 20 10 03 06 52 40.0000000  0 15G15G20G18G23G24G27G10G13R 7R 8R 6R22
                                R16R24R23
  20622108.840   108369913.56409     -1885.117          50.000    20622107.960  
  84444083.37509     -1468.922          53.750  
  20321585.300   106790651.82609      1386.348          49.750    20321583.920  
  83213489.45008      1080.270          46.500  
  20842120.240   109526080.37609     -1816.090          49.250    20842119.960  
  85344993.42108     -1415.141          45.000  
  20636208.280   108444006.95509      1511.988          49.500    20636207.820  
  84501822.55908      1178.168          46.500  
  21572808.560   113365874.22908      2567.973          47.500    21572810.400  
  88337053.20109      2001.016          54.000  
  23917952.360   125689689.42507      -666.281          43.500    23917954.300  
  97940016.23909      -519.184          49.750  
  22828388.460   119963994.65509      2880.289          48.750    22828390.560  
  93478445.90709      2244.379          52.500  
  22880211.200   120236320.44408     -3239.938          45.000    22880210.320  
  93690633.47405     -2524.629          36.000  
  19562767.740   104721025.43609      -991.793          49.250    19562770.980  
  81449699.87308      -771.395          46.500  
  20538185.960   109981050.47608      2202.645          46.250    20538189.080  
  85540831.31408      1713.168          45.500  
  22454825.360   119823251.55105     -3349.207          38.500                  
                                                
  21813764.400   116443346.99106     -4047.855          39.500    21813769.300  
  90567072.70503     -3148.336          31.250  
  21657950.080   115692897.47306      -397.598          39.500    21657954.720  
  89983372.86105      -309.242          38.000  
  22752127.840   121665855.51007      3371.285          41.750    22752132.520  
  94629020.59506      2622.105          38.750  
  20467151.860   109485465.70008       782.766          48.250    20467158.380  
  85155385.44206       608.879          39.750  
 20 10 03 06 52 45.0000000  0 15G15G20G18G23G24G27G10G13R 7R 8R 6R22
                                R16R24R23
  20623903.560   108379344.84209     -1887.637          49.750    20623902.680  
  84451432.41709     -1470.891          54.000  
  20320267.240   106783725.43709      1383.992          49.750    20320265.880  
  83208092.26608      1078.430          46.500  
  20843849.600   109535168.28009     -1819.293          49.250    20843849.340  
  85352074.90008     -1417.637          45.000  
  20634770.520   108436451.43109      1509.910          49.500    20634770.040  
  84495935.13408      1176.551          46.250  
  21570366.420   113353040.73908      2565.117          47.500    21570368.280  
  88327053.08309      1998.793          54.250  
  23918587.960   125693029.51707      -669.797          43.750    23918589.900  
  97942618.91709      -521.918          49.750  
  22825648.500   119949596.08708      2878.957          48.500    22825650.600  
  93467226.24509      2243.344          52.500  
  22883294.320   120252522.30708     -3241.004          45.000    22883293.420  
  93703258.30605     -2525.461          37.000  
  19563695.060   104725989.43309      -993.973          49.000    19563698.300  
  81453560.76408      -773.055          46.500  
  20536130.100   109970041.51908      2200.762          46.250    20536133.220  
  85532268.80308      1711.703          45.500  
  22457964.060   119840000.05805     -3350.121          37.750                  
                                                
  21817557.080   116463592.57906     -4050.141          39.500    21817561.980  
  90582819.27004     -3150.113          31.500  
  21658324.220   115694896.02706      -401.996          39.500    21658328.860  
  89984927.29006      -312.668          38.750  
  22748976.740   121649005.12807      3368.484          41.750    22748981.420  
  94615914.74405      2619.934          38.500  
  20466422.500   109481564.09708       777.785          48.250    20466429.020  
  85152350.86206       604.941          40.000  
 20 10 03 06 52 50.0000000  0 15G15G20G18G23G24G27G10G13R 7R 8R 6R22
                                R16R24R23
  20625700.440   108388787.55209     -1889.578          49.750    20625699.560  
  84458790.36909     -1472.402          54.000  
  20318951.280   106776810.03409      1382.137          49.750    20318949.920  
  83202703.64408      1076.988          46.500  
  20845581.800   109544271.01009     -1821.973          49.250    20845581.540  
  85359167.92808     -1419.723          45.250  
  20633334.620   108428905.77809      1508.320          49.500    20633334.160  
  84490055.40408      1175.313          46.500  
  21567926.820   113340220.62808      2562.754          48.000    21567928.680  
  88317063.39409      1996.949          54.000  
  23919226.640   125696385.76707      -672.863          43.250    23919228.580  
  97945234.16809      -524.313          50.000  
  22822909.340   119935201.68308      2878.688          48.500    22822911.440  
  93456009.82609      2243.129          52.500  
  22886378.480   120268729.66908     -3242.012          45.000    22886377.580  
  93715887.40305     -2526.246          37.000  
  19564624.440   104730964.42909      -996.078          49.000    19564627.660  
  81457430.20508      -774.730          46.500  
  20534075.960   109959041.68208      2199.137          46.000    20534079.080  
  85523713.37408      1710.441          45.500  
  22461103.380   119856751.75105     -3350.719          38.500                  
                                                
  21821351.740   116483848.64706     -4052.273          40.000    21821356.640  
  90598573.97104     -3151.773          31.750  
  21658702.620   115696917.47406      -406.340          39.750    21658707.280  
  89986499.53005      -316.043          38.500  
  22745828.240   121632168.78507      3366.406          41.500    22745832.900  
  94602819.83306      2618.316          39.000  
  20465697.580   109477686.21808       773.164          47.750    20465704.100  
  85149334.73006       601.348          40.250  
 20 10 03 06 52 55.0000000  0 15G15G20G18G23G24G27G10G13R 7R 8R 6R22
                                R16R24R23
  20627499.400   108398241.15609     -1892.156          49.500    20627498.520  
  84466156.81309     -1474.406          54.250  
  20317637.320   106769905.07509      1379.695          49.750    20317635.940  
  83197323.16308      1075.082          46.500  
  20847316.720   109553388.02909     -1825.164          49.500    20847316.440  
  85366272.10308     -1422.207          45.000  
  20631900.520   108421369.45509      1506.066          49.500    20631900.040  
  84484182.94508      1173.559          46.500  
  21565489.640   113327413.16508      2559.895          47.750    21565491.500  
  88307083.55809      1994.723          54.000  
  23919868.280   125699757.62307      -676.340          42.500    23919870.220  
  97947861.58209      -527.023          50.750  
  22820170.880   119920810.95508      2877.551          48.250    22820172.960  
  93444796.27409      2242.246          53.000  
  22889463.600   120284942.03408     -3243.242          45.250    22889462.700  
  93728520.41705     -2527.207          36.000  
  19565555.800   104735950.08809      -998.645          49.000    19565559.020  
  81461307.93608      -776.727          46.750  
  20532023.400   109948050.30608      2197.098          46.000    20532026.520  
  85515164.52808      1708.855          45.500  
  22464243.180   119873506.14705     -3351.402          38.250                  
                                                
  21825148.260   116504114.69406     -4054.895          40.250    21825153.160  
  90614336.44903     -3153.813          31.250  
  21659085.240   115698961.35806      -411.285          39.250    21659089.900  
  89988089.21605      -319.887          38.500  
  22742682.280   121615345.96007      3362.832          41.500    22742686.940  
  94589735.41606      2615.535          39.500  
  20464976.940   109473831.38208       768.523          48.000    20464983.460  
  85146336.53006       597.742          39.750  
 20 10 03 06 53  0.0000000  0 15G15G20G18G23G24G27G10G13R 7R 8R 6R22
                                R16R24R23
  20629300.560   108407706.25309     -1894.289          49.750    20629299.680  
  84473532.21309     -1476.070          54.000  
  20316325.460   106763011.17009      1377.582          49.750    20316324.080  
  83191951.28308      1073.438          46.750  
  20849054.460   109562519.92209     -1827.844          49.500    20849054.180  
  85373387.86407     -1424.297          44.500  
  20630468.280   108413843.07309      1504.191          49.500    20630467.820  
  84478318.23108      1172.098          46.250  
  21563055.000   113314619.00708      2557.297          47.750    21563056.860  
  88297114.07709      1992.730          54.000  
  23920513.000   125703145.65207      -679.414          42.000    23920514.940  
  97950501.60309      -529.414          51.000  
  22817433.240   119906424.50708      2876.660          48.250    22817435.320  
  93433586.05509      2241.551          52.500  
  22892549.780   120301160.01208     -3244.223          45.250    22892548.880  
  93741157.79605     -2527.969          38.000  
  19566489.280   104740947.07209     -1000.648          49.250    19566492.500  
  81465194.48108      -778.285          46.500  
  20529972.560   109937068.22308      2195.477          46.250    20529975.700  
  85506622.91608      1707.594          45.500  
  22467383.560   119890263.53105     -3351.621          38.000                  
                                                
  21828946.740   116524391.28106     -4056.551          41.000    21828951.640  
  90630107.12203     -3155.098          31.250  
  21659472.160   115701028.22306      -415.844          39.250    21659476.800  
  89989696.78406      -323.434          38.750  
  22739538.960   121598537.17307      3360.445          41.750    22739543.620  
  94576661.91706      2613.676          39.500  
  20464260.780   109470000.31208       763.730          47.750    20464267.300  
  85143356.80506       594.008          39.750  
 20 10 03 06 53  5.0000000  0 15G15G20G18G23G24G27G10G13R 7R 8R 6R22
                                R16R24R23
  20631103.800   108417182.35609     -1896.367          49.750    20631102.900  
  84480916.19409     -1477.691          54.250  
  20315015.580   106756127.78509      1375.496          49.750    20315014.220  
  83186587.61108      1071.813          46.750  
  20850794.920   109571666.18009     -1830.785          49.500    20850794.660  
  85380514.81608     -1426.590          44.750  
  20629037.860   108406326.10709      1502.301          49.500    20629037.380  
  84472460.86608      1170.625          46.500  
  21560622.820   113301837.75408      2554.750          47.750    21560624.660  
  88287154.65909      1990.711          53.750  
  23921160.700   125706549.36007      -682.566          43.000    23921162.640  
  97953153.85109      -531.871          49.750  
  22814696.300   119892041.82108      2876.027          48.500    22814698.380  
  93422378.76609      2241.055          52.500  
  22895636.880   120317382.89208     -3245.273          45.750    22895635.980  
  93753799.01205     -2528.785          38.250  
  19567424.720   104745954.56609     -1002.734          49.250    19567427.940  
  81469089.19908      -779.910          46.500  
  20527923.340   109926094.66008      2193.609          46.000    20527926.460  
  85498087.91208      1706.137          45.500  
  22470524.400   119907023.45705     -3352.320          38.000                  
                                                
  21832747.120   116544677.87106     -4058.160          41.000    21832752.000  
  90645885.56903     -3156.352          31.250  
  21659863.300   115703117.59406      -420.109          39.000    21659867.940  
  89991321.84606      -326.750          38.750  
  22736398.140   121581741.88007      3357.629          42.000    22736402.800  
  94563598.91106      2611.488          40.000  
  20463548.960   109466192.53708       759.043          48.000    20463555.480  
  85140395.19706       590.363          39.750  
 20 10 03 06 53 10.0000000  0 15G15G20G18G23G24G27G10G13R 7R 8R 6R22
                                R16R24R23
  20632909.800   108426672.99209     -1899.148          49.750    20632908.920  
  84488311.48909     -1479.859          54.000  
  20313708.420   106749258.60809      1372.668          49.750    20313707.060  
  83181235.00108      1069.609          46.500  
  20852538.820   109580830.38909     -1834.328          49.250    20852538.560  
  85387655.75008     -1429.352          44.750  
  20627609.900   108398822.17909      1499.820          49.500    20627609.440  
  84466613.64508      1168.691          46.750  
  21558193.780   113289073.07008      2551.574          47.500    21558195.620  
  88277208.15909      1988.234          54.000  
  23921812.060   125709972.33507      -686.180          42.500    23921813.980  
  97955821.12209      -534.684          50.250  
  22811960.780   119877666.50908      2874.688          48.250    22811962.840  
  93411177.22109      2240.016          52.500  
  22898725.640   120333614.37508     -3246.699          45.500    22898724.720  
  93766446.91806     -2529.895          39.000  
  19568362.880   104750976.61309     -1005.512          49.250    19568366.100  
  81472995.23108      -782.066          46.500  
  20525876.400   109915133.43508      2191.426          46.000    20525879.540  
  85489562.52108      1704.441          45.500  
  22473666.400   119923789.59005     -3353.477          37.250                  
                                                
  21836550.020   116564978.08406     -4061.281          40.750    21836554.900  
  90661674.63204     -3158.773          31.500  
  21660259.340   115705233.26506      -425.145          39.750    21660263.980  
  89992967.37806      -330.668          39.000  
  22733260.560   121564963.84607      3354.293          42.000    22733265.220  
  94550549.33306      2608.891          40.000  
  20462842.140   109462411.57408       753.859          48.000    20462848.660  
  85137454.45506       586.336          40.000  
 20 10 03 06 53 15.0000000  0 15G15G20G18G23G24G27G10G13R 7R 8R 6R22
                                R16R24R23
  20634717.660   108436173.28709     -1901.055          49.750    20634716.780  
  84495714.31409     -1481.344          54.000  
  20312403.040   106742398.76609      1370.781          49.750    20312401.660  
  83175889.67408      1068.141          46.500  
  20854285.200   109590007.68809     -1836.852          49.250    20854284.940  
  85394806.89408     -1431.313          45.250  
  20626183.520   108391326.45709      1498.164          49.500    20626183.040  
  84460772.82308      1167.398          46.500  
  21555766.940   113276319.98708      2549.340          47.500    21555768.780  
  88267270.69409      1986.500          53.750  
  23922466.180   125713409.75407      -689.234          42.250    23922468.100  
  97958499.62609      -537.066          50.750  
  22809225.740   119863293.71608      2874.129          48.500    22809227.800  
  93399977.64709      2239.582          52.500  
  22901815.100   120349849.56508     -3247.680          45.500    22901814.180  
  93779097.70805     -2530.664          38.000  
  19569302.820   104756008.09109     -1007.332          49.250    19569306.020  
  81476908.60708      -783.465          46.500  
  20523830.860   109904179.63708      2189.930          46.750    20523833.980  
  85481042.90708      1703.277          45.250  
  22476808.640   119940557.05705     -3353.785          37.000                  
                                                
  21840354.560   116585286.97706     -4063.078          40.250    21840359.440  
  90677470.43503     -3160.176          31.250  
  21660659.360   115707370.08906      -429.453          39.500    21660664.000  
  89994629.36106      -334.020          39.000  
  22730125.280   121548198.05207      3351.691          42.000    22730129.940  
  94537509.27106      2606.871          40.250  
  20462139.420   109458652.52308       749.445          48.250    20462145.940  
  85134530.75106       582.902          39.500  
 20 10 03 06 53 20.0000000  0 15G15G20G18G23G24G27G10G13R 7R 8R 6R22
                                R16R24R23
  20636527.260   108445682.84709     -1903.016          49.750    20636526.380  
  84503124.36009     -1482.871          53.750  
  20311099.340   106735547.80809      1369.141          49.750    20311097.960  
  83170551.27308      1066.863          46.750  
  20856034.000   109599197.66809     -1839.363          49.250    20856033.720  
  85401967.92208     -1433.270          44.750  
  20624758.600   108383838.51509      1496.660          49.500    20624758.140  
  84454938.06708      1166.227          46.500  
  21553342.220   113263578.02908      2547.238          47.750    21553344.080  
  88257341.90109      1984.738          54.000  
  23923122.960   125716861.17107      -692.004          42.500    23923124.880  
  97961189.04509      -539.223          51.000  
  22806491.080   119848923.05208      2873.824          48.500    22806493.140  
  93388779.72509      2239.340          52.500  
  22904905.200   120366088.07408     -3248.230          45.750    22904904.280  
  93791751.07305     -2531.094          38.500  
  19570244.420   104761048.53609     -1009.102          49.000    19570247.620  
  81480828.95108      -784.859          46.500  
  20521786.600   109893232.70708      2188.457          46.000    20521789.720  
  85472528.62408      1702.133          45.500  
  22479951.080   119957325.56605     -3353.426          36.500                  
                                                
  21844160.680   116605604.17606     -4064.305          40.750    21844165.560  
  90693272.68404     -3161.129          32.000  
  21661063.260   115709527.60206      -433.633          40.000    21661067.880  
  89996307.42706      -337.273          39.000  
  22726992.240   121531444.25207      3349.598          42.250    22726996.880  
  94524478.54506      2605.242          40.250  
  20461440.740   109454915.09108       745.266          48.000    20461447.280  
  85131623.85906       579.648          39.500  
 20 10 03 06 53 25.0000000  0 15G15G20G18G23G24G27G10G13R 7R 8R 6R22
                                R16R24R23
  20638339.240   108455204.86309     -1905.965          49.750    20638338.360  
  84510544.11109     -1485.172          54.000  
  20309797.960   106728708.97009      1366.254          49.750    20309796.580  
  83165222.30308      1064.609          46.500  
  20857785.820   109608403.52309     -1843.195          49.250    20857785.540  
  85409141.30908     -1436.262          45.000  
  20623335.780   108376361.55109      1493.992          49.750    20623335.300  
  84449111.86508      1164.148          46.250  
  21550920.240   113250850.40708      2543.828          47.500    21550922.080  
  88247424.27109      1982.199          54.000  
  23923783.000   125720329.73707      -695.477          42.500    23923784.920  
  97963891.82509      -541.934          50.250  
  22803757.440   119834557.69808      2872.023          48.000    22803759.500  
  93377585.95409      2237.941          53.000  
  22907996.500   120382333.02608     -3250.020          45.750    22907995.600  
  93804409.47305     -2532.488          37.500  
  19571188.300   104766101.26709     -1012.094          48.750    19571191.520  
  81484758.84908      -787.188          46.500  
  20519744.280   109882296.22108      2185.883          46.000    20519747.400  
  85464022.47508      1700.133          45.750  
  22483094.280   119974098.08105     -3355.906          37.500                  
                                                
  21847968.920   116625932.78206     -4067.488          40.250    21847973.800  
  90709083.80804     -3163.605          31.750  
  21661471.700   115711709.37506      -439.055          39.750    21661476.340  
  89998004.34506      -341.492          39.250  
  22723862.000   121514705.56407      3345.914          41.750    22723866.640  
  94511459.58206      2602.379          39.750  
  20460746.720   109451202.48508       739.684          48.000    20460753.240  
  85128736.27006       575.305          39.500  
 20 10 03 06 53 30.0000000  0 15G15G20G18G23G24G27G10G13R 7R 8R 6R22
                                R16R24R23
  20640153.440   108464738.53509     -1907.992          49.750    20640152.560  
  84517972.94509     -1486.750          53.750  
  20308498.720   106721881.46509      1364.305          49.750    20308497.340  
  83159902.16508      1063.090          46.500  
  20859540.500   109617624.42909     -1845.922          49.500    20859540.240  
  85416326.42408     -1438.383          44.750  
  20621914.900   108368894.78109      1492.332          49.500    20621914.420  
  84443293.60308      1162.852          46.500  
  21548500.860   113238136.48208      2541.352          47.750    21548502.700  
  88237517.32109      1980.273          53.750  
  23924446.160   125723814.72907      -698.555          42.000    23924448.080  
  97966607.41209      -544.328          50.250  
  22801024.660   119820196.85508      2871.512          48.000    22801026.700  
  93366395.69109      2237.543          53.250  
  22911088.920   120398583.69008     -3250.750          45.500    22911088.000  
  93817072.32405     -2533.055          38.250  
  19572134.320   104771165.34309     -1013.996          48.750    19572137.520  
  81488697.57108      -788.668          46.750  
  20517703.680   109871368.88508      2184.375          46.250    20517706.800  
  85455523.43908      1698.957          45.750  
  22486238.100   119990874.04805     -3355.805          37.750                  
                                                
  21851779.140   116646272.01406     -4068.918          40.750    21851784.020  
  90724903.20604     -3164.719          31.750  
  21661884.460   115713914.20906      -443.328          39.500    21661889.080  
  89999719.21506      -344.816          39.250  
  22720734.500   121497981.40007      3343.375          41.500    22720739.120  
  94498451.90706      2600.402          40.250  
  20460057.180   109447513.88408       735.336          48.000    20460063.700  
  85125867.36106       571.930          39.500  
 20 10 03 06 53 35.0000000  0 15G15G20G18G23G24G27G10G13R 7R 8R 6R22
                                R16R24R23
  20641969.800   108474283.57709     -1909.836          49.750    20641968.920  
  84525410.64109     -1488.188          53.750  
  20307201.600   106715064.95709      1362.527          49.500    20307200.200  
  83154590.59908      1061.711          47.000  
  20861297.980   109626860.08309     -1848.395          49.500    20861297.720  
  85423523.04208     -1440.313          44.750  
  20620495.900   108361437.92309      1490.762          49.750    20620495.440  
  84437483.06208      1161.629          46.250  
  21546084.020   113225435.90208      2539.012          48.000    21546085.880  
  88227620.75709      1978.445          53.750  
  23925112.380   125727315.80707      -701.297          42.250    23925114.300  
  97969335.53509      -546.465          50.500  
  22798292.700   119805840.27408      2871.184          48.250    22798294.720  
  93355208.75809      2237.285          53.000  
  22914182.340   120414839.78408     -3251.531          46.000    22914181.440  
  93829739.40406     -2533.668          39.000  
  19573082.440   104776240.67709     -1015.883          49.000    19573085.640  
  81492645.05008      -790.137          46.750  
  20515664.780   109860450.70308      2183.098          46.500    20515667.900  
  85447031.52608      1697.965          46.000  
  22489382.460   120007652.88605     -3356.023          37.250                  
                                                
  21855591.320   116666621.58806     -4070.418          40.750    21855596.200  
  90740730.63704     -3165.883          32.000  
  21662301.480   115716141.83106      -447.723          38.750    21662306.080  
  90001451.81406      -348.234          39.250  
  22717609.640   121481271.33207      3341.148          41.750    22717614.280  
  94485455.17506      2598.668          40.750  
  20459372.020   109443848.85508       730.883          47.750    20459378.560  
  85123016.78706       568.465          39.500  
 20 10 03 06 53 40.0000000  0 15G15G20G18G23G24G27G10G13R 7R 8R 6R22
                                R16R24R23
  20643788.600   108483841.38509     -1913.098          50.000    20643787.720  
  84532858.27609     -1490.730          53.750  
  20305906.840   106708261.02809      1359.277          49.750    20305905.460  
  83149288.83908      1059.176          46.750  
  20863058.560   109636111.97709     -1852.266          49.250    20863058.280  
  85430732.31008     -1443.328          44.750  
  20619079.080   108353992.45709      1487.770          49.750    20619078.600  
  84431681.40408      1159.301          45.750  
  21543670.000   113212750.16508      2535.398          47.750    21543671.860  
  88217735.76709      1975.637          53.750  
  23925781.940   125730834.43207      -705.563          43.000    23925783.880  
  97972077.32809      -549.789          50.000  
  22795561.820   119791489.42408      2869.375          48.250    22795563.860  
  93344026.27709      2235.875          52.750  
  22917277.100   120431102.75008     -3253.398          45.750    22917276.180  
  93842411.84106     -2535.121          39.000  
  19574032.900   104781328.56909     -1018.965          49.000    19574036.100  
  81496602.30208      -792.527          46.500  
  20513627.860   109849543.07808      2180.148          46.500    20513630.980  
  85438547.82408      1695.672          45.500  
  22492527.640   120024436.18005     -3357.426          37.000                  
                                                
  21859405.680   116686982.89806     -4073.980          40.500    21859410.540  
  90756567.22104     -3168.652          31.750  
  21662723.100   115718394.04705      -452.891          38.250    21662727.700  
  90003203.53805      -352.250          38.250  
  22714487.680   121464576.88406      3336.895          41.000    22714492.300  
  94472470.62506      2595.363          41.000  
  20458691.620   109440209.11308       725.254          48.250    20458698.140  
  85120185.87206       564.082          40.000  
 20 10 03 06 53 45.0000000  0 15G15G20G18G23G24G27G10G13R 7R 8R 6R22
                                R16R24R23
  20645609.520   108493410.50809     -1914.688          49.750    20645608.640  
  84540314.74609     -1491.965          53.750  
  20304614.200   106701468.12809      1357.844          50.000    20304612.800  
  83143995.67608      1058.059          46.500  
  20864821.940   109645378.61809     -1854.520          49.250    20864821.680  
  85437953.06107     -1445.086          44.500  
  20617664.140   108346556.90509      1486.375          49.750    20617663.680  
  84425887.46308      1158.211          46.000  
  21541258.560   113200077.90208      2533.535          47.750    21541260.400  
  88207861.28409      1974.184          53.500  
  23926454.560   125734369.15007      -708.223          42.750    23926456.500  
  97974831.66609      -551.863          50.750  
  22792831.740   119777142.80708      2869.023          48.500    22792833.780  
  93332847.09909      2235.602          52.500  
  22920372.860   120447371.08108     -3253.996          46.000    22920371.940  
  93855088.46506     -2535.582          39.000  
  19574985.440   104786427.58509     -1020.691          48.750    19574988.640  
  81500568.20308      -793.871          46.500  
  20511592.680   109838644.73908      2179.031          46.500    20511595.780  
  85430071.33808      1694.801          45.500  
  22495673.400   120041222.55805     -3357.016          36.250                  
                                                
  21863221.980   116707354.59406     -4075.410          40.000    21863226.840  
  90772411.86703     -3169.766          30.750  
  21663148.940   115720668.88006      -456.840          38.750    21663153.540  
  90004972.86505      -355.320          38.250  
  22711368.360   121447896.56107      3334.762          41.500    22711372.980  
  94459497.05707      2593.703          41.500  
  20458015.640   109436593.07508       721.141          48.000    20458022.180  
  85117373.39606       560.883          40.000  
 20 10 03 06 53 50.0000000  0 15G15G20G18G23G24G27G10G13R 7R 8R 6R22
                                R16R24R23
  20647432.260   108502989.01909     -1916.809          49.750    20647431.380  
  84547778.52009     -1493.621          53.750  
  20303323.280   106694684.32909      1355.699          50.000    20303321.900  
  83138709.59908      1056.387          46.500  
  20866587.760   109654658.05909     -1857.195          49.500    20866587.500  
  85445183.79208     -1447.168          44.750  
  20616250.720   108339129.33009      1484.563          49.500    20616250.240  
  84420099.74908      1156.801          45.750  
  21538849.280   113187417.08408      2530.801          48.000    21538851.120  
  88197995.71409      1972.051          53.750  
  23927129.900   125737918.00707      -711.371          42.750    23927131.820  
  97977596.99709      -554.320          50.500  
  22790102.120   119762798.52808      2868.316          48.500    22790104.140  
  93321669.74309      2235.051          52.750  
  22923469.260   120463642.78408     -3254.852          45.750    22923468.360  
  93867767.69905     -2536.250          37.750  
  19575939.680   104791535.79509     -1022.672          49.250    19575942.880  
  81504541.26108      -795.410          46.250  
  20509558.820   109827753.52708      2177.477          46.250    20509561.940  
  85421600.38508      1693.590          45.750  
  22498819.380   120058010.14805     -3357.883          36.000                  
                                                
  21867039.840   116727734.53406     -4076.977          40.000    21867044.700  
  90788262.91904     -3170.984          31.750  
  21663578.740   115722964.73806      -461.270          39.000    21663583.340  
  90006758.53206      -358.766          38.750  
  22708251.360   121431228.45407      3332.258          42.000    22708255.980  
  94446532.95106      2591.754          40.500  
  20457343.740   109432998.84708       716.465          48.000    20457350.260  
  85114577.88806       557.246          39.750  
 20 10 03 06 53 55.0000000  0 15G15G20G18G23G24G27G10G13R 7R 8R 6R22
                                R16R24R23
  20649257.080   108512578.52309     -1918.898          49.750    20649256.200  
  84555250.85909     -1495.250          53.750  
  20302034.420   106687911.29509      1353.648          49.750    20302033.040  
  83133431.90608      1054.785          46.250  
  20868356.320   109663951.88109     -1860.156          49.750    20868356.060  
  85452425.72907     -1449.477          44.500  
  20614839.120   108331711.34609      1482.758          49.500    20614838.640  
  84414319.50508      1155.391          46.000  
  21536442.520   113174769.44908      2528.512          47.750    21536444.360  
  88188140.41409      1970.270          54.000  
  23927808.200   125741482.55807      -714.414          43.500    23927810.140  
  97980374.58009      -556.688          50.500  
  22787373.240   119748458.17509      2867.758          48.750    22787375.260  
  93310495.43909      2234.617          52.500  
  22926566.640   120479919.50708     -3255.844          45.500    22926565.740  
  93880450.85405     -2537.023          37.750  
  19576895.920   104796654.63809     -1024.715          49.250    19576899.120  
  81508522.58808      -797.000          46.500  
  20507526.580   109816870.97408      2175.738          46.000    20507529.700  
  85413136.18108      1692.242          45.500  
  22501965.840   120074800.29305     -3358.465          36.000                  
                                                
  21870859.540   116748124.34606     -4078.988          40.000    21870864.420  
  90804121.64604     -3172.551          31.500  
  21664012.800   115725283.35505      -465.785          38.250    21664017.400  
  90008561.87806      -362.281          39.000  
  22705136.900   121414574.10107      3329.465          41.750    22705141.520  
  94433579.58606      2589.621          41.000  
  20456676.200   109429428.02308       711.859          48.250    20456682.740  
  85111800.57306       553.664          39.750  
 20 10 03 06 54  0.0000000  0 15G15G20G18G23G24G27G10G13R 7R 8R 6R22
                                R16R24R23
  20651083.980   108522178.97109     -1921.355          50.000    20651083.100  
  84562731.72609     -1497.160          53.500  
  20300747.580   106681148.98409      1351.238          50.000    20300746.200  
  83128162.57908      1052.914          46.000  
  20870127.620   109673260.10709     -1863.082          49.500    20870127.340  
  85459678.89407     -1451.758          44.500  
  20613429.360   108324302.96209      1480.625          49.500    20613428.880  
  84408546.73308      1153.730          45.500  
  21534038.200   113162134.77208      2525.660          48.000    21534040.060  
  88178295.22209      1968.012          53.750  
  23928489.520   125745062.86107      -717.617          43.750    23928491.440  
  97983164.42209      -559.188          50.250  
  22784645.100   119734121.77109      2866.672          48.750    22784647.120  
  93299324.22409      2233.770          52.500  
  22929664.940   120496201.21808     -3256.969          45.250    22929664.040  
  93893137.90105     -2537.902          37.250  
  19577854.220   104801784.45009     -1027.160          49.250    19577857.420  
  81512512.44408      -798.902          46.500  
  20505496.040   109805997.50008      2173.598          46.250    20505499.140  
  85404679.04808      1690.574          45.500  
  22505112.780   120091593.10705     -3358.773          37.500                  
                                                
  21874681.100   116768524.06906     -4081.109          40.500    21874685.960  
  90819988.09204     -3174.199          32.250  
  21664451.040   115727624.39206      -470.484          39.000    21664455.640  
  90010382.69506      -365.934          39.250  
  22702025.040   121397933.63007      3326.758          42.500    22702029.660  
  94420637.00406      2587.477          40.500  
  20456013.040   109425880.55308       707.098          48.250    20456019.580  
  85109041.42806       549.961          40.000  
 20 10 03 06 54  5.0000000  0 15G15G20G18G23G24G27G10G13R 7R 8R 6R22
                                R16R24R23
  20652913.040   108531790.69409     -1923.375          49.750    20652912.140  
  84570221.38209     -1498.734          53.500  
  20299462.860   106674397.65609      1349.184          50.000    20299461.480  
  83122901.80008      1051.309          46.250  
  20871901.700   109682583.01309     -1865.953          49.750    20871901.440  
  85466943.49208     -1453.992          44.750  
  20612021.480   108316904.49209      1478.684          49.750    20612021.000  
  84402781.69608      1152.223          45.750  
  21531636.460   113149513.50608      2523.016          48.000    21531638.320  
  88168460.46509      1965.980          53.750  
  23929173.860   125748659.17807      -720.887          44.000    23929175.800  
  97985966.74909      -561.734          49.750  
  22781917.780   119719789.58409      2866.176          48.750    22781919.800  
  93288156.27709      2233.379          52.500  
  22932764.280   120512488.17308     -3257.934          45.500    22932763.380  
  93905829.00705     -2538.652          37.250  
  19578814.540   104806925.13209     -1029.246          49.250    19578817.740  
  81516510.75008      -800.523          46.750  
  20503467.140   109795132.82508      2171.781          46.250    20503470.240  
  85396228.74508      1689.164          45.500  
  22508260.280   120108388.86905     -3359.832          38.000                  
                                                
  21878504.540   116788933.79806     -4083.008          40.500    21878509.400  
  90835862.31204     -3175.676          31.500  
  21664893.580   115729988.26806      -474.664          39.250    21664898.160  
  90012221.27206      -369.184          39.500  
  22698915.840   121381307.43407      3323.734          41.500    22698920.460  
  94407705.53206      2585.125          41.000  
  20455354.300   109422356.74908       702.266          48.500    20455360.840  
  85106300.69406       546.207          39.500  
 20 10 03 06 54 10.0000000  0 15G15G20G18G23G24G27G10G13R 7R 8R 6R22
                                R16R24R23
  20654744.340   108541414.36109     -1926.109          50.000    20654743.460  
  84577720.34709     -1500.863          53.500  
  20298180.360   106667658.07009      1346.594          50.000    20298178.980  
  83117650.17108      1049.293          46.250  
  20873678.720   109691921.30509     -1869.441          49.750    20873678.460  
  85474220.08208     -1456.711          44.750  
  20610615.620   108309516.62509      1476.434          49.500    20610615.140  
  84397024.91508      1150.469          45.750  
  21529237.360   113136906.17708      2519.938          48.000    21529239.220  
  88158636.57009      1963.582          53.500  
  23929861.420   125752272.20207      -724.289          43.500    23929863.340  
  97988782.07609      -564.387          50.750  
  22779191.420   119705462.37009      2864.867          48.750    22779193.420  
  93276992.21509      2232.363          52.500  
  22935864.720   120528781.12108     -3259.508          45.250    22935863.800  
  93918524.82105     -2539.879          37.000  
  19579777.100   104812077.74309     -1031.887          49.250    19579780.300  
  81520518.33008      -802.582          46.750  
  20501440.100   109784278.08008      2169.906          46.000    20501443.200  
  85387786.15708      1687.699          45.750  
  22511408.440   120125188.21105     -3359.680          37.250                  
                                                
  21882330.020   116809354.49706     -4085.469          41.000    21882334.880  
  90851745.09004     -3177.590          32.000  
  21665340.540   115732375.88306      -479.859          39.250    21665345.120  
  90014078.31206      -373.223          39.500  
  22695809.440   121364696.13007      3320.707          41.750    22695814.060  
  94394785.64606      2582.773          40.750  
  20454700.140   109418857.46608       697.258          48.250    20454706.680  
  85103579.03806       542.313          39.500  
 20 10 03 06 54 15.0000000  0 15G15G20G18G23G24G27G10G13R 7R 8R 6R22
                                R16R24R23
  20656578.420   108551052.47409     -1928.457          49.750    20656577.540  
  84585230.56409     -1502.695          53.500  
  20296900.560   106660932.72809      1344.207          49.750    20296899.180  
  83112409.65708      1047.434          46.250  
  20875459.140   109701277.46509     -1872.426          49.750    20875458.880  
  85481510.59608     -1459.035          44.750  
  20609212.240   108302141.89409      1474.309          49.500    20609211.760  
  84391278.38108      1148.813          45.750  
  21526841.460   113124315.58008      2516.883          48.000    21526843.300  
  88148825.72109      1961.242          53.500  
  23930552.600   125755904.45607      -727.840          43.250    23930554.540  
  97991612.41209      -567.148          49.750  
  22776466.460   119691142.61709      2863.871          48.750    22776468.460  
  93265833.97009      2231.582          52.250  
  22938966.780   120545082.55408     -3260.434          45.250    22938965.880  
  93931227.23405     -2540.598          37.500  
  19580742.280   104817244.51309     -1034.281          49.250    19580745.480  
  81524536.93508      -804.508          46.750  
  20499415.320   109773435.54208      2167.676          46.000    20499418.420  
  85379353.08008      1685.969          45.750  
  22514557.780   120141993.72705     -3361.211          37.250                  
                                                
  21886158.020   116829788.57806     -4087.891          40.500    21886162.860  
  90867638.26204     -3179.469          31.500  
  21665792.380   115734789.55506      -485.074          39.750    21665796.960  
  90015955.61006      -377.285          39.500  
  22692706.300   121348102.31807      3317.723          41.750    22692710.940  
  94381879.34806      2580.449          40.750  
  20454051.000   109415384.95408       692.289          48.250    20454057.540  
  85100878.18906       538.441          39.500  
 20 10 03 06 54 20.0000000  0 15G15G20G18G23G24G27G10G13R 7R 8R 6R22
                                R16R24R23
  20658414.220   108560699.72109     -1930.629          49.750    20658413.340  
  84592747.90509     -1504.387          53.750  
  20295622.460   106654216.28909      1342.113          49.750    20295621.080  
  83107176.06508      1045.801          46.250  
  20877241.940   109710646.14209     -1875.117          49.500    20877241.680  
  85488810.85808     -1461.133          45.000  
  20607810.360   108294774.94709      1472.332          49.500    20607809.880  
  84385537.90208      1147.273          46.000  
  21524447.700   113111736.34408      2514.488          48.000    21524449.560  
  88139023.71509      1959.336          53.500  
  23931246.440   125759550.60207      -731.008          43.500    23931248.380  
  97994453.56109      -569.621          50.750  
  22773741.900   119676824.99409      2863.063          48.750    22773743.900  
  93254677.38309      2230.957          52.500  
  22942069.460   120561387.15008     -3261.469          45.000    22942068.560  
  93943932.09405     -2541.406          36.750  
  19581709.160   104822420.25409     -1036.383          49.250    19581712.360  
  81528562.51008      -806.078          46.750  
  20497391.860   109762600.01908      2166.309          46.250    20497394.960  
  85370925.46008      1684.906          45.750  
  22517707.260   120158800.05005     -3361.258          37.500                  
                                                
  21889987.500   116850230.60806     -4089.754          40.750    21889992.340  
  90883537.61404     -3180.922          32.000  
  21666248.100   115737223.91606      -489.105          39.250    21666252.680  
  90017849.00806      -380.414          39.750  
  22689605.420   121331520.55407      3314.836          41.750    22689610.060  
  94368982.42506      2578.203          40.750  
  20453405.900   109411934.10708       687.672          48.500    20453412.440  
  85098194.19206       534.852          39.750  
 20 10 03 06 54 25.0000000  0 15G15G20G18G23G24G27G10G13R 7R 8R 6R22
                                R16R24R23
  20660252.040   108570357.47309     -1932.750          49.500    20660251.160  
  84600273.41709     -1506.043          54.000  
  20294346.320   106647510.10409      1340.215          49.500    20294344.940  
  83101950.46908      1044.324          46.750  
  20879027.380   109720028.67209     -1877.879          49.500    20879027.120  
  85496121.91608     -1463.285          45.000  
  20606410.200   108287417.10409      1470.539          49.500    20606409.740  
  84379804.51808      1145.871          46.500  
  21522056.360   113099169.79408      2512.035          48.000    21522058.220  
  88129231.60209      1957.430          53.750  
  23931943.160   125763211.85607      -733.777          43.250    23931945.100  
  97997306.47409      -571.777          51.250  
  22771018.000   119662510.80609      2862.406          48.750    22771020.000  
  93243523.47209      2230.445          52.500  
  22945172.960   120577696.14208     -3262.270          45.000    22945172.060  
  93956640.39906     -2542.031          38.750  
  19582677.940   104827606.23109     -1038.457          49.250    19582681.140  
  81532596.04108      -807.691          46.750  
  20495369.940   109751772.75908      2164.508          46.500    20495373.040  
  85362504.25708      1683.508          45.250  
  22520857.140   120175608.48205     -3361.770          37.500                  
                                                
  21893818.700   116870681.80306     -4091.309          40.000    21893823.560  
  90899444.08104     -3182.133          31.500  
  21666707.920   115739680.26606      -493.406          39.750    21666712.500  
  90019759.51606      -383.762          39.750  
  22686507.060   121314952.25207      3312.523          42.250    22686511.700  
  94356095.97606      2576.406          40.750  
  20452765.080   109408506.13108       683.121          48.500    20452771.620  
  85095527.98806       531.313          39.500  
 20 10 03 06 54 30.0000000  0 15G15G20G18G23G24G27G10G13R 7R 8R 6R22
                                R16R24R23
  20662091.880   108580025.86609     -1934.875          49.750    20662091.000  
  84607807.22209     -1507.699          53.750  
  20293072.180   106640814.48709      1338.016          49.750    20293070.800  
  83096733.10308      1042.605          46.750  
  20880815.500   109729425.33509     -1880.855          49.750    20880815.240  
  85503443.98908     -1465.605          45.000  
  20605011.840   108280068.69309      1468.648          49.500    20605011.380  
  84374078.48808      1144.402          46.250  
  21519667.460   113086616.01608      2509.418          48.250    21519669.320  
  88119449.43809      1955.387          53.750  
  23932642.840   125766888.65507      -736.949          43.500    23932644.780  
  98000171.50309      -574.250          50.500  
  22768294.820   119648200.39008      2861.555          48.500    22768296.820  
  93232372.50709      2229.781          52.500  
  22948277.360   120594009.87708     -3263.352          45.000    22948276.460  
  93969352.40005     -2542.875          37.500  
  19583648.720   104832802.82009     -1040.367          49.000    19583651.920  
  81536637.83008      -809.180          46.750  
  20493349.620   109740954.08208      2162.867          46.250    20493352.720  
  85354089.74408      1682.230          45.000  
  22524007.480   120192419.27305     -3362.086          37.250                  
                                                
  21897651.720   116891142.61206     -4093.191          40.750    21897656.580  
  90915358.02203     -3183.598          31.000  
  21667171.960   115742159.00206      -497.887          40.000    21667176.520  
  90021687.42106      -387.246          39.500  
  22683411.260   121298397.66707      3309.289          42.250    22683415.900  
  94343220.19506      2573.891          40.750  
  20452128.600   109405101.39408       678.559          48.250    20452135.140  
  85092879.86706       527.641          39.250  
 20 10 03 06 54 35.0000000  0 15G15G20G18G23G24G27G10G13R 7R 8R 6R22
                                R16R24R23
  20663933.620   108589704.31709     -1936.496          50.000    20663932.740  
  84615348.87609     -1508.961          53.750  
  20291799.940   106634128.77609      1336.258          49.750    20291798.560  
  83091523.46008      1041.234          46.500  
  20882606.200   109738835.47709     -1883.129          49.750    20882605.940  
  85510776.56108     -1467.379          44.750  
  20603615.160   108272729.05409      1467.211          49.500    20603614.680  
  84368359.29008      1143.281          46.000  
  21517280.900   113074074.52408      2507.023          48.000    21517282.760  
  88109676.84909      1953.523          53.750  
  23933345.340   125770580.27007      -739.719          43.500    23933347.280  
  98003048.07209      -576.406          50.750  
  22765572.220   119633893.08309      2861.426          48.750    22765574.220  
  93221223.95409      2229.684          52.250  
  22951382.540   120610327.67708     -3263.949          45.750    22951381.660  
  93982067.54005     -2543.340          37.750  
  19584621.320   104838009.24809     -1042.039          49.250    19584624.520  
  81540687.27608      -810.477          47.000  
  20491330.820   109730143.43608      2161.395          46.500    20491333.920  
  85345681.46108      1681.086          45.250  
  22527158.180   120209231.87405     -3362.570          38.000                  
                                                
  21901486.400   116911612.34106     -4094.508          40.500    21901491.260  
  90931278.91404     -3184.621          31.500  
  21667640.020   115744659.36406      -501.957          39.750    21667644.600  
  90023632.14906      -390.410          39.500  
  22680317.940   121281856.21407      3306.805          42.250    22680322.560  
  94330354.62306      2571.961          41.000  
  20451496.320   109401719.10108       674.348          48.500    20451502.880  
  85090249.17806       524.488          39.500  
 20 10 03 06 54 40.0000000  0 15G15G20G18G23G24G27G10G13R 7R 8R 6R22
                                R16R24R23
  20665777.800   108599395.54009     -1939.855          50.000    20665776.920  
  84622900.47909     -1511.574          53.750  
  20290530.100   106627455.73809      1332.965          50.000    20290528.720  
  83086323.68408      1038.672          46.250  
  20884399.980   109748261.84909     -1887.227          49.750    20884399.720  
  85518121.78808     -1470.570          44.750  
  20602220.680   108265400.97209      1464.141          49.750    20602220.200  
  84362649.09708      1140.891          46.000  
  21514897.200   113061548.12508      2503.684          48.500    21514899.040  
  88099916.02609      1950.922          53.750  
  23934051.160   125774289.43407      -744.012          43.750    23934053.120  
  98005938.33409      -579.754          50.750  
  22762850.760   119619591.67808      2859.383          48.500    22762852.760  
  93210080.01209      2228.090          52.250  
  22954489.020   120626652.28708     -3265.805          45.500    22954488.120  
  93994788.01505     -2544.785          37.500  
  19585596.280   104843228.34709     -1045.402          49.500    19585599.500  
  81544746.57108      -813.090          46.750  
  20489313.980   109719343.36508      2158.496          46.500    20489317.060  
  85337281.41408      1678.832          45.500  
  22530309.700   120226048.97205     -3364.309          38.500                  
                                                
  21905323.240   116932093.64806     -4097.840          40.750    21905328.100  
  90947208.81403     -3187.211          31.000  
  21668112.740   115747184.46706      -507.660          40.000    21668117.300  
  90025596.11206      -394.852          39.500  
  22677227.560   121265330.68707      3303.102          42.750    22677232.200  
  94317501.45206      2569.078          40.750  
  20450868.760   109398362.06008       668.590          48.500    20450875.300  
  85087638.14906       520.012          39.750  
 20 10 03 06 54 45.0000000  0 15G15G20G18G23G24G27G10G13R 7R 8R 6R22
                                R16R24R23
  20667624.580   108609100.42109     -1941.988          49.750    20667623.700  
  84630462.71809     -1513.242          53.750  
  20289262.860   106620796.28909      1330.941          50.000    20289261.480  
  83081134.50708      1037.094          46.500  
  20886197.020   109757705.35309     -1890.078          49.750    20886196.760  
  85525480.36408     -1472.793          45.000  
  20600828.560   108258085.34009      1462.195          49.500    20600828.080  
  84356948.60208      1139.367          46.250  
  21512516.560   113049037.76708      2500.734          48.250    21512518.400  
  88090167.70209      1948.625          53.500  
  23934760.520   125778017.09307      -747.039          43.750    23934762.460  
  98008843.00409      -582.113          50.500  
  22760130.580   119605297.06408      2858.547          48.500    22760132.580  
  93198941.35609      2227.438          52.250  
  22957596.960   120642984.62208     -3266.766          45.500    22957596.060  
  94007514.51205     -2545.535          37.250  
  19586573.780   104848460.95109     -1047.395          49.500    19586576.980  
  81548816.37708      -814.645          46.500  
  20487299.300   109708554.93608      2156.875          46.250    20487302.400  
  85328890.42408      1677.570          45.250  
  22533462.260   120242871.53505     -3364.766          38.250                  
                                                
  21909162.420   116952587.50206     -4099.750          41.000    21909167.280  
  90963148.47603     -3188.699          31.000  
  21668590.180   115749734.75606      -512.066          39.500    21668594.740  
  90027579.65506      -398.277          39.500  
  22674140.380   121248822.09207      3300.406          42.750    22674145.020  
  94304661.42906      2567.172          41.000  
  20450246.160   109395031.65208       663.828          48.500    20450252.720  
  85085047.83306       516.313          39.750  
 20 10 03 06 54 50.0000000  0 15G15G20G18G23G24G27G10G13R 7R 8R 6R22
                                R16R24R23
  20669473.240   108618815.24009     -1944.066          49.500    20669472.380  
  84638032.70009     -1514.859          54.000  
  20287997.480   106614146.69309      1328.773          49.750    20287996.100  
  83075953.00608      1035.406          46.250  
  20887996.600   109767162.22809     -1892.832          49.500    20887996.340  
  85532849.35208     -1474.938          45.250  
  20599438.100   108250778.41309      1460.465          49.500    20599437.620  
  84351254.89108      1138.020          46.000  
  21510138.280   113036539.82608      2498.281          48.500    21510140.120  
  88080429.04709      1946.645          53.500  
  23935472.680   125781759.48007      -749.965          43.500    23935474.620  
  98011759.14109      -584.391          51.000  
  22757410.980   119591005.50908      2857.820          48.000    22757412.980  
  93187805.07909      2226.867          52.750  
  22960705.660   120659320.89808     -3267.703          45.500    22960704.760  
  94020244.06605     -2546.266          38.500  
  19587553.100   104853703.37109     -1049.648          49.250    19587556.320  
  81552893.81208      -816.398          46.500  
  20485286.160   109697774.63908      2155.172          46.750    20485289.240  
  85320505.75508      1676.246          45.500  
  22536615.160   120259695.88605     -3365.273          37.750                  
                                                
  21913003.260   116973090.06806     -4101.746          41.000    21913008.100  
  90979094.91203     -3190.250          31.000  
  21669071.620   115752306.50606      -516.746          39.500    21669076.200  
  90029579.89506      -401.918          39.250  
  22671055.640   121232326.60307      3297.699          43.000    22671060.280  
  94291831.60306      2564.875          40.750  
  20449627.740   109391723.55208       659.031          48.000    20449634.300  
  85082474.87406       512.578          39.500  
 20 10 03 06 54 55.0000000  0 15G15G20G18G23G24G27G10G13R 7R 8R 6R22
                                R16R24R23
  20671323.740   108628539.62809     -1945.563          49.500    20671322.880  
  84645610.14309     -1516.027          54.000  
  20286733.920   106607506.65909      1327.242          50.000    20286732.540  
  83070778.95308      1034.215          46.250  
  20889798.660   109776632.12009     -1895.051          49.750    20889798.400  
  85540228.48608     -1476.664          45.500  
  20598049.220   108243479.86509      1459.066          49.500    20598048.740  
  84345567.71708      1136.934          46.250  
  21507762.240   113024053.65708      2496.242          48.250    21507764.080  
  88070699.56009      1945.121          53.250  
  23936187.560   125785516.23107      -752.586          43.750    23936189.500  
  98014686.48209      -586.434          50.000  
  22754691.920   119576716.66308      2857.762          48.000    22754693.900  
  93176670.90709      2226.824          52.750  
  22963815.020   120675660.77608     -3268.176          45.500    22963814.140  
  94032976.44706     -2546.633          38.750  
  19588534.200   104858955.17909     -1051.008          49.250    19588537.400  
  81556978.54808      -817.453          46.500  
  20483274.360   109687001.54708      2154.156          46.500    20483277.440  
  85312126.68508      1675.453          45.750  
  22539768.280   120276521.50606     -3364.926          38.750                  
                                                
  21916845.640   116993600.97206     -4102.902          40.500    21916850.500  
  90995047.82704     -3191.148          31.500  
  21669557.080   115754899.67706      -520.383          39.250    21669561.640  
  90031596.81006      -404.742          39.000  
  22667973.280   121215843.89007      3295.301          43.000    22667977.940  
  94279011.72506      2563.012          40.500  
  20449013.480   109388437.63808       655.141          48.250    20449020.020  
  85079919.16506       509.555          40.000  
 20 10 03 06 55  0.0000000  0 15G15G20G18G23G24G27G10G13R 7R 8R 6R22
                                R16R24R23
  20673176.460   108638275.70809     -1948.953          49.750    20673175.600  
  84653196.69709     -1518.664          53.750  
  20285472.560   106600878.25109      1324.066          49.750    20285471.180  
  83065613.96608      1031.738          46.750  
  20891603.620   109786117.16709     -1899.043          49.750    20891603.340  
  85547619.43808     -1479.773          45.250  
  20596662.360   108236191.82509      1456.078          49.750    20596661.860  
  84339888.72608      1134.605          46.500  
  21505388.880   113011581.62108      2492.410          48.500    21505390.740  
  88060981.09709      1942.137          53.500  
  23936905.580   125789289.48307      -756.727          43.500    23936907.520  
  98017626.67809      -589.660          51.500  
  22751973.740   119562432.67008      2855.820          48.250    22751975.740  
  93165540.53609      2225.316          52.750  
  22966925.500   120692006.39908     -3270.352          45.250    22966924.600  
  94045713.29105     -2548.328          37.250  
  19589517.460   104864218.66109     -1054.398          49.250    19589520.660  
  81561072.36308      -820.090          46.250  
  20481264.380   109676238.21108      2151.082          46.500    20481267.460  
  85303755.20408      1673.063          45.500  
  22542922.060   120293350.53105     -3366.754          38.000                  
                                                
  21920690.000   117014122.36306     -4105.867          40.750    21920694.840  
  91011008.90704     -3193.457          32.000  
  21670046.900   115757516.20506      -525.859          38.750    21670051.460  
  90033631.88906      -409.000          38.750  
  22664893.720   121199376.01307      3291.789          43.000    22664898.360  
  94266203.37006      2560.281          40.000  
  20448403.740   109385175.95108       649.352          48.000    20448410.300  
  85077382.29106       505.047          39.750  
 20 10 03 06 55  5.0000000  0 15G15G20G18G23G24G27G10G13R 7R 8R 6R22
                                R16R24R23
  20675031.740   108648025.38909     -1951.398          49.750    20675030.900  
  84660793.85509     -1520.574          53.750  
  20284213.800   106594263.39709      1321.602          49.750    20284212.420  
  83060459.53608      1029.820          46.500  
  20893411.800   109795619.25109     -1902.074          49.750    20893411.540  
  85555023.65808     -1482.141          45.000  
  20595277.840   108228916.21009      1453.891          49.500    20595277.360  
  84334219.41808      1132.902          46.500  
  21503018.580   112999125.56908      2489.523          48.000    21503020.420  
  88051275.08609      1939.887          53.500  
  23937627.120   125793081.11507      -760.262          42.750    23937629.060  
  98020581.18009      -592.414          51.500  
  22749256.880   119548155.46108      2854.770          48.250    22749258.880  
  93154415.44209      2224.492          52.750  
  22970037.420   120708359.60908     -3271.418          45.500    22970036.520  
  94058456.04905     -2549.160          38.000  
  19590503.220   104869495.57509     -1056.691          49.250    19590506.440  
  81565176.63408      -821.871          46.500  
  20479256.580   109665486.56308      2149.250          46.250    20479259.660  
  85295392.81308      1671.637          45.250  
  22546076.820   120310184.87305     -3367.582          38.500                  
                                                
  21924536.660   117034656.07106     -4107.824          40.000    21924541.500  
  91026979.55204     -3194.977          32.000  
  21670541.480   115760158.11106      -531.055          39.500    21670546.040  
  90035686.69905      -413.047          38.250  
  22661817.320   121182925.14607      3288.285          43.250    22661821.960  
  94253408.26206      2557.555          40.000  
  20447798.940   109381940.66808       644.418          48.000    20447805.500  
  85074865.96206       501.172          39.500  
 20 10 03 06 55 10.0000000  0 15G15G20G18G23G24G27G10G13R 7R 8R 6R22
                                R16R24R23
  20676889.020   108657785.44509     -1952.906          50.000    20676888.180  
  84668399.08809     -1521.750          53.500  
  20282957.020   106587658.93109      1319.969          50.000    20282955.640  
  83055313.20408      1028.547          46.500  
  20895222.620   109805135.17709     -1904.426          49.750    20895222.360  
  85562438.65908     -1483.973          45.250  
  20593895.100   108221649.80909      1452.527          49.750    20593894.600  
  84328557.29208      1131.836          46.000  
  21500650.680   112986682.12808      2487.410          48.500    21500652.520  
  88041578.89609      1938.242          53.500  
  23938351.540   125796887.94707      -762.680          43.500    23938353.480  
  98023547.54509      -594.301          51.250  
  22746540.700   119533881.78708      2854.602          48.500    22746542.680  
  93143293.09409      2224.359          52.500  
  22973150.160   120724717.19508     -3271.672          45.500    22973149.280  
  94071202.22505     -2549.355          37.750  
  19591490.920   104874782.76009     -1058.285          49.000    19591494.120  
  81569288.89108      -823.109          46.750  
  20477250.360   109654743.34308      2147.980          46.250    20477253.440  
  85287036.97108      1670.648          45.750  
  22549231.980   120327021.27305     -3367.488          38.250                  
                                                
  21928385.040   117055198.99006     -4109.344          39.750    21928389.900  
  91042957.37003     -3196.160          31.250  
  21671040.160   115762821.94906      -534.617          39.500    21671044.720  
  90037758.56505      -415.816          38.500  
  22658743.480   121166487.87307      3286.344          43.000    22658748.120  
  94240623.70206      2556.043          39.750  
  20447198.400   109378728.21308       640.406          48.000    20447204.960  
  85072367.38806       498.039          39.750  
 20 10 03 06 55 15.0000000  0 15G15G20G18G23G24G27G10G13R 7R 8R 6R22
                                R16R24R23
  20678748.500   108667556.98909     -1955.320          49.750    20678747.640  
  84676013.27809     -1523.629          53.750  
  20281702.420   106581065.94009      1317.508          50.000    20281701.040  
  83050175.80208      1026.625          46.750  
  20897036.300   109814666.04909     -1907.473          49.750    20897036.040  
  85569865.30608     -1486.348          45.000  
  20592514.320   108214393.74309      1450.367          49.750    20592513.840  
  84322903.20608      1130.152          46.500  
  21498285.420   112974252.62409      2484.586          48.750    21498287.260  
  88031893.57009      1936.031          53.500  
  23939079.060   125800711.08007      -766.160          44.250    23939081.020  
  98026526.59309      -597.012          51.250  
  22743825.400   119519612.82008      2853.461          48.500    22743827.400  
  93132174.41909      2223.477          52.500  
  22976263.980   120741080.32708     -3273.016          46.000    22976263.080  
  94083952.70305     -2550.406          38.500  
  19592480.700   104880081.25809     -1060.730          49.250    19592483.920  
  81573409.95308      -825.012          46.750  
  20475245.900   109644009.57708      2145.801          46.500    20475249.000  
  85278688.48508      1668.953          45.750  
  22552387.780   120343861.03405     -3368.012          37.500                  
                                                
  21932235.360   117075752.18506     -4111.262          39.250    21932240.220  
  91058943.17504     -3197.652          31.750  
  21671543.200   115765509.11206      -539.641          40.000    21671547.760  
  90039848.58205      -419.719          38.250  
  22655672.400   121150065.43907      3283.043          42.750    22655677.040  
  94227850.70306      2553.477          39.500  
  20446602.380   109375539.98308       635.480          48.000    20446608.940  
  85069887.66806       494.262          39.750  
 20 10 03 06 55 20.0000000  0 15G15G20G18G23G24G27G10G13R 7R 8R 6R22
                                R16R24R23
  20680609.620   108677337.36209     -1957.082          50.000    20680608.780  
  84683634.35309     -1525.000          53.750  
  20280449.500   106574481.80909      1315.949          49.750    20280448.120  
  83045045.31408      1025.410          47.000  
  20898852.300   109824209.18809     -1909.906          49.500    20898852.040  
  85577301.51408     -1488.242          45.750  
  20591135.000   108207145.36709      1448.797          49.750    20591134.500  
  84317255.12908      1128.934          46.750  
  21495922.320   112961834.49708      2482.207          48.500    21495924.160  
  88022217.10209      1934.184          53.500  
  23939809.160   125804547.81807      -768.766          44.000    23939811.100  
  98029516.27109      -599.039          50.250  
  22741110.480   119505345.86108      2853.250          48.000    22741112.480  
  93121057.31809      2223.313          52.750  
  22979378.340   120757446.30408     -3273.457          46.000    22979377.440  
  94096705.39305     -2550.750          36.500  
  19593472.140   104885388.50309     -1062.355          49.000    19593475.360  
  81577537.80408      -826.281          47.000  
  20473242.680   109633282.47608      2144.605          46.000    20473245.780  
  85270345.19408      1668.027          45.750  
  22555543.620   120360701.18305     -3368.148          37.500                  
                                                
  21936087.080   117096312.92506     -4113.039          39.500    21936091.940  
  91074934.85204     -3199.035          31.500  
  21672050.080   115768216.76006      -543.785          39.750    21672054.640  
  90041954.53705      -422.945          38.000  
  22652603.560   121133655.05807      3280.762          42.500    22652608.200  
  94215087.08806      2551.703          39.750  
  20446010.380   109372373.20108       631.113          47.750    20446016.960  
  85067424.60706       490.863          39.750  
 20 10 03 06 55 25.0000000  0 15G15G20G18G23G24G27G10G13R 7R 8R 6R22
                                R16R24R23
  20682472.820   108687128.48909     -1959.254          49.750    20682471.960  
  84691263.80109     -1526.691          54.000  
  20279198.640   106567908.52909      1313.438          49.750    20279197.260  
  83039923.28008      1023.457          46.750  
  20900671.000   109833766.53909     -1913.031          49.500    20900670.740  
  85584748.80108     -1490.672          45.500  
  20589757.520   108199906.66109      1446.488          50.000    20589757.020  
  84311614.57908      1127.133          46.750  
  21493561.760   112949429.56008      2479.504          48.250    21493563.580  
  88012550.91709      1932.105          53.750  
  23940542.240   125808400.15307      -772.410          43.750    23940544.180  
  98032518.09309      -601.883          50.750  
  22738396.340   119491082.92308      2852.191          48.000    22738398.320  
  93109943.33009      2222.484          52.750  
  22982493.580   120773817.06708     -3274.816          46.250    22982492.700  
  94109461.82905     -2551.809          37.500  
  19594465.580   104890706.37709     -1064.824          49.250    19594468.800  
  81581673.92408      -828.199          47.000  
  20471241.140   109622564.35008      2142.555          46.000    20471244.240  
  85262008.88208      1666.430          45.750  
  22558699.940   120377543.95405     -3368.820          37.000                  
                                                
  21939940.560   117116883.08706     -4114.934          40.250    21939945.420  
  91090933.86703     -3200.504          31.250  
  21672561.140   115770946.83106      -548.500          40.500    21672565.700  
  90044077.93605      -426.609          38.500  
  22649537.400   121117258.93007      3277.637          42.250    22649542.040  
  94202334.54906      2549.273          39.500  
  20445422.780   109369229.85708       626.293          48.500    20445429.340  
  85064979.77806       487.113          39.750  
 20 10 03 06 55 30.0000000  0 15G15G20G18G23G24G27G10G13R 7R 8R 6R22
                                R16R24R23
  20684338.360   108696932.01209     -1962.023          49.750    20684337.500  
  84698902.91409     -1528.852          54.000  
  20277950.140   106561347.62309      1310.945          50.000    20277948.760  
  83034810.88308      1021.516          46.750  
  20902492.720   109843339.74509     -1916.254          49.750    20902492.460  
  85592208.44008     -1493.188          45.500  
  20588382.180   108192679.23209      1444.449          49.750    20588381.700  
  84305982.80808      1125.539          47.000  
  21491203.980   112937039.39308      2476.469          48.250    21491205.820  
  88002896.24509      1929.715          53.500  
  23941278.580   125812269.69007      -775.871          43.500    23941280.540  
  98035533.31109      -604.578          50.500  
  22735683.260   119476825.62008      2850.934          48.000    22735685.240  
  93098833.75109      2221.508          52.750  
  22985610.060   120790194.27408     -3276.145          46.250    22985609.180  
  94122223.29605     -2552.844          36.750  
  19595461.300   104896036.62209     -1067.313          49.250    19595464.540  
  81585819.66808      -830.137          47.000  
  20469241.560   109611856.68208      2140.434          46.250    20469244.660  
  85253680.69408      1664.777          45.500  
  22561857.060   120394390.95605     -3369.660          36.250                  
                                                
  21943796.120   117137464.34206     -4117.594          40.500    21943800.980  
  91106941.50703     -3202.578          31.000  
  21673076.720   115773701.02306      -553.199          40.000    21673081.280  
  90046220.09605      -430.266          38.250  
  22646474.200   121100878.53007      3274.168          42.000    22646478.840  
  94189594.23506      2546.574          39.750  
  20444839.860   109366111.60108       621.074          48.500    20444846.420  
  85062554.47006       483.055          39.750  
 20 10 03 06 55 35.0000000  0 15G15G20G18G23G24G27G10G13R 7R 8R 6R22
                                R16R24R23
  20686205.940   108706746.22209     -1963.965          49.750    20686205.100  
  84706550.34209     -1530.367          54.000  
  20276703.680   106554797.40509      1308.746          49.750    20276702.300  
  83029706.82008      1019.797          46.750  
  20904317.140   109852927.07909     -1918.973          50.000    20904316.880  
  85599679.08908     -1495.305          45.500  
  20587008.680   108185461.38309      1442.500          49.750    20587008.180  
  84300358.51608      1124.027          47.000  
  21488848.720   112924662.43108      2473.871          48.000    21488850.560  
  87993251.85909      1927.688          54.000  
  23942017.880   125816154.69907      -778.535          43.250    23942019.820  
  98038560.58809      -606.656          50.500  
  22732970.940   119462572.23708      2850.238          48.250    22732972.920  
  93087727.22009      2220.961          52.500  
  22988727.420   120806576.10908     -3277.039          46.250    22988726.540  
  94134988.36805     -2553.535          37.000  
  19596459.020   104901377.42309     -1069.414          49.250    19596462.240  
  81589973.62208      -831.770          46.750  
  20467243.620   109601157.71308      2138.789          46.250    20467246.720  
  85245359.26508      1663.500          45.500  
  22565014.620   120411240.39005     -3370.344          36.750                  
                                                
  21947653.440   117158054.96706     -4119.039          40.500    21947658.300  
  91122956.44003     -3203.695          31.250  
  21673596.520   115776477.64006      -557.965          39.750    21673601.080  
  90048379.68305      -433.977          38.250  
  22643413.580   121084512.15307      3272.109          42.250    22643418.220  
  94176864.83906      2544.973          39.000  
  20444261.280   109363016.62608       616.660          48.250    20444267.840  
  85060147.26206       479.621          39.750  
 20 10 03 06 55 40.0000000  0 15G15G20G18G23G24G27G10G13R 7R 8R 6R22
                                R16R24R23
  20688075.500   108716570.78109     -1965.883          50.000    20688074.660  
  84714205.83709     -1531.859          53.750  
  20275459.200   106548257.63709      1306.961          49.750    20275457.820  
  83024610.89608      1018.406          47.000  
  20906144.180   109862528.23909     -1921.527          49.750    20906143.920  
  85607160.51708     -1497.293          45.250  
  20585636.920   108178252.83609      1440.848          50.250    20585636.440  
  84294741.47008      1122.738          46.750  
  21486495.920   112912298.37008      2471.609          48.250    21486497.740  
  87983617.52809      1925.930          53.750  
  23942760.060   125820054.91807      -781.379          43.000    23942762.020  
  98041599.72009      -608.867          50.750  
  22730259.300   119448322.50208      2849.684          48.500    22730261.280  
  93076623.53209      2220.531          52.750  
  22991845.620   120822962.32708     -3277.629          46.250    22991844.740  
  94147756.84105     -2554.000          37.000  
  19597458.620   104906728.44309     -1071.145          49.250    19597461.860  
  81594135.52508      -833.117          47.000  
  20465247.240   109590467.19608      2137.309          46.500    20465250.340  
  85237044.42508      1662.352          45.750  
  22568172.580   120428091.95205     -3370.793          36.500                  
                                                
  21951512.460   117178654.61406     -4120.711          39.750    21951517.300  
  91138978.38603     -3205.000          31.250  
  21674120.440   115779276.33206      -562.039          40.000    21674125.000  
  90050556.44105      -437.141          37.750  
  22640355.600   121068159.68207      3269.227          42.500    22640360.240  
  94164146.24906      2542.617          39.500  
  20443687.040   109359944.85608       612.152          48.500    20443693.620  
  85057758.10206       476.113          39.500  
