     2.11           OBSERVATION DATA    M                   RINEX VERSION / TYPE
LEICA GEO OFFICE 8.4                    29-9-20 09:30       PGM / RUN BY / DATE
                                                            OBSERVER / AGENCY
vas1                                                        MARKER NAME
vas1                                                        MARKER NUMBER
468317              LEICA GX1220GG      5.62                REC # / TYPE / VERS
                    LEIAX1202GG                             ANT # / TYPE
 -1187771.4505  3858860.3348  4921921.1812                  APPROX POSITION XYZ
        1.4710        0.0000        0.0000                  ANTENNA: DELTA H/E/N
L1PhaOff:   0.0644  L2PhaOff:   0.0640                      COMMENT
     1     1                                                WAVELENGTH FACT L1/2
     6    C1    L1    D1    P2    L2    D2                  # / TYPES OF OBSERV
  2020     9    28     7    44   20.0000000     GPS         TIME OF FIRST OBS
  2020     9    28     9    15   50.0000000     GPS         TIME OF LAST OBS
    18                                                      LEAP SECONDS
    22                                                      # OF SATELLITES
          C1    L1    D1    P2    L2    D2                  COMMENT
   G 1     0     0     0     0     0     0                  PRN / # OF OBS
   G 2     0     0     0     0     0     0                  PRN / # OF OBS
   G 3     0     0     0     0     0     0                  PRN / # OF OBS
   G 4     0     0     0     0     0     0                  PRN / # OF OBS
   G 5     0     0     0     0     0     0                  PRN / # OF OBS
   G 6     0     0     0     0     0     0                  PRN / # OF OBS
   G 7     0     0     0     0     0     0                  PRN / # OF OBS
   G 8   171   171   171   111   111   111                  PRN / # OF OBS
   G 9     0     0     0     0     0     0                  PRN / # OF OBS
   G10  1099  1099  1099  1099  1099  1099                  PRN / # OF OBS
   G11   254   254   254   188   188   188                  PRN / # OF OBS
   G12   331   331   331   331   331   331                  PRN / # OF OBS
   G13    28    28    28    23    23    23                  PRN / # OF OBS
   G14     0     0     0     0     0     0                  PRN / # OF OBS
   G15  1098  1098  1098  1098  1098  1098                  PRN / # OF OBS
   G16     0     0     0     0     0     0                  PRN / # OF OBS
   G17     0     0     0     0     0     0                  PRN / # OF OBS
   G18   881   881   881   881   881   881                  PRN / # OF OBS
   G19     0     0     0     0     0     0                  PRN / # OF OBS
   G20  1099  1099  1099  1099  1099  1099                  PRN / # OF OBS
   G21  1099  1099  1099  1099  1099  1099                  PRN / # OF OBS
   G22     0     0     0     0     0     0                  PRN / # OF OBS
   G23     0     0     0     0     0     0                  PRN / # OF OBS
   G24  1099  1099  1099  1099  1099  1099                  PRN / # OF OBS
   G25     0     0     0     0     0     0                  PRN / # OF OBS
   G26     0     0     0     0     0     0                  PRN / # OF OBS
   G27    91    91    91    71    71    71                  PRN / # OF OBS
   G28     0     0     0     0     0     0                  PRN / # OF OBS
   G29     0     0     0     0     0     0                  PRN / # OF OBS
   G30     0     0     0     0     0     0                  PRN / # OF OBS
   G31     0     0     0     0     0     0                  PRN / # OF OBS
   G32  1087  1087  1087  1087  1087  1087                  PRN / # OF OBS
   R 1     0     0     0     0     0     0                  PRN / # OF OBS
   R 2  1099  1099  1099  1099  1099  1099                  PRN / # OF OBS
   R 3  1099  1099  1099  1099  1099  1099                  PRN / # OF OBS
   R 4  1050  1050  1050  1025  1025  1025                  PRN / # OF OBS
   R 5     0     0     0     0     0     0                  PRN / # OF OBS
   R 6     0     0     0     0     0     0                  PRN / # OF OBS
   R 7     0     0     0     0     0     0                  PRN / # OF OBS
   R 8     0     0     0     0     0     0                  PRN / # OF OBS
   R 9     0     0     0     0     0     0                  PRN / # OF OBS
   R10     0     0     0     0     0     0                  PRN / # OF OBS
   R11   447   447   447   434   434   434                  PRN / # OF OBS
   R12  1099  1099  1099  1099  1099  1099                  PRN / # OF OBS
   R13   833   833   833   731   731   731                  PRN / # OF OBS
   R14   296   296   296   295   295   295                  PRN / # OF OBS
   R15     0     0     0     0     0     0                  PRN / # OF OBS
   R16     0     0     0     0     0     0                  PRN / # OF OBS
   R17    67    67    67    67    67    67                  PRN / # OF OBS
   R18   843   843   843   843   843   843                  PRN / # OF OBS
   R19  1085  1085  1085  1085  1085  1085                  PRN / # OF OBS
   R20     0     0     0     0     0     0                  PRN / # OF OBS
   R21     0     0     0     0     0     0                  PRN / # OF OBS
   R22     0     0     0     0     0     0                  PRN / # OF OBS
   R23     0     0     0     0     0     0                  PRN / # OF OBS
   R24     0     0     0     0     0     0                  PRN / # OF OBS
                                                            END OF HEADER
 20 09 28 07 44 20.0000000  0 15G20G24G15G18G21G10G13R 3R 4R 2R18R12
                                R11R19R17
  19983320.884   105013060.30549       486.015    19983320.519    81828355.68648
       378.710  
  20852375.594   109579973.88249      1422.886    20852378.117    85387003.77048
      1108.742  
  21460426.992   112775303.07749     -2632.687    21460427.265    87876865.19947
     -2051.444  
  21663843.502   113844265.23948     -2803.766    21663844.875    88709822.58747
     -2184.757  
  24528197.388   128896539.59745      2588.038    24528196.709   100438861.14943
      2016.647  
  21866642.381   114909983.60249      2470.910    21866645.050    89540254.62147
      1925.379  
  24118721.621   126744735.70145     -3520.258    24118722.216    98762137.77043
     -2743.062  
  19913712.907   106599666.81009      1555.620    19913716.809    82910864.81908
      1209.922  
  23520895.001   125953321.69104      3434.479    23520900.268    97963714.13405
      2671.262  
  19990108.868   106671052.25408     -1842.758    19990113.827    82966389.08507
     -1433.261  
  20818818.314   111132260.11208     -2347.297    20818823.546    86436229.41407
     -1825.680  
  21037373.176   112377872.16608      1818.980    21037378.645    87405033.50307
      1414.757  
  22167881.772   118458443.40705     -1876.503    22167887.274    92134359.15705
     -1459.507  
  21318511.011   114039670.10105      1554.836    21318514.032    88697522.07806
      1209.315  
  23208505.828   124193407.04906     -4567.996    23208512.255    96594895.23606
     -3552.890  
 20 09 28 07 44 25.0000000  0 14G20G24G15G18G21G10G13R 3R 2R18R12R11
                                R19R17
  19982860.576   105010641.34249       479.828    19982860.208    81826470.78948
       373.890  
  20851024.171   109572872.35849      1416.108    20851026.764    85381470.11448
      1103.461  
  21462933.573   112788475.15349     -2637.722    21462933.850    87887129.15347
     -2055.371  
  21666513.256   113858294.89048     -2809.711    21666514.554    88720754.76047
     -2189.391  
  24525736.542   128883606.95046      2583.104    24525735.756   100428783.73944
      2012.804  
  21864292.831   114897636.47649      2466.292    21864295.525    89530633.49247
      1921.784  
  24122071.864   126762340.71846     -3523.473    24122071.725    98775855.98043
     -2745.559  
  19912261.750   106591898.74409      1550.020    19912265.610    82904822.99608
      1205.566  
  19991837.405   106680275.92909     -1848.180    19991842.314    82973563.03807
     -1437.476  
  20821019.643   111144010.82908     -2354.660    20821024.907    86445368.84107
     -1831.405  
  21035673.377   112368792.70408      1811.402    21035678.920    87397971.69807
      1408.863  
  22169640.055   118467838.63907     -1883.625    22169645.587    92141666.54206
     -1465.047  
  21317060.698   114031911.68705      1546.980    21317063.722    88691487.78106
      1203.207  
  23212775.048   124216253.32406     -4572.038    23212781.821    96612664.55306
     -3556.035  
 20 09 28 07 44 30.0000000  0 14G20G24G15G18G21G10G13R 3R 2R18R12R11
                                R19R17
  19982405.115   105008247.87649       478.198    19982404.739    81824605.75248
       372.621  
  20849678.320   109565800.04849      1413.723    20849680.988    85375959.23048
      1101.601  
  21465444.009   112801667.61649     -2638.573    21465444.301    87897408.99747
     -2056.030  
  21669187.570   113872348.41048     -2811.133    21669188.818    88731705.54747
     -2190.440  
  24523279.465   128870694.11246      2582.762    24523278.945   100418721.78844
      2012.550  
  21861946.903   114885308.51149      2465.812    21861949.646    89521027.29148
      1921.410  
  24125424.786   126779960.16246     -3523.059    24125425.012    98789585.37743
     -2745.245  
  19910814.846   106584153.35509      1549.070    19910818.658    82898798.79008
      1204.827  
  19993569.981   106689521.10309     -1849.063    19993574.832    82980753.72607
     -1438.163  
  20823227.047   111155793.88407     -2357.687    20823232.311    86454533.42107
     -1833.762  
  21033979.831   112359746.58708      1807.847    21033985.468    87390935.82907
      1406.101  
  22171404.502   118477266.62107     -1886.593    22171410.001    92148999.40806
     -1467.355  
  21315616.800   114024188.08805      1543.253    21315619.896    88685480.52606
      1200.305  
  23217047.271   124239115.19306     -4572.206    23217054.267    96630445.97905
     -3556.168  
 20 09 28 07 44 35.0000000  0 14G20G24G15G18G21G10G13R 3R 2R18R12R11
                                R19R17
  19981950.640   105005859.46749       476.757    19981950.231    81822744.64948
       371.495  
  20848334.170   109558736.68049      1411.320    20848336.936    85370455.31048
      1099.726  
  21467954.454   112814860.06049     -2639.016    21467954.770    87907688.82347
     -2056.374  
  21671862.532   113886405.33648     -2812.214    21671863.738    88742658.99347
     -2191.340  
  24520822.324   128857780.68946      2582.229    24520822.286   100408659.36943
      2012.121  
  21859600.756   114872979.27149      2465.418    21859603.479    89511420.09848
      1921.104  
  24128776.613   126797573.56946     -3522.777    24128776.573    98803310.11843
     -2745.020  
  19909368.313   106576409.79309      1547.922    19909372.119    82892776.02508
      1203.933  
  19995302.763   106698767.49708     -1849.874    19995307.551    82987945.37007
     -1438.796  
  20825436.626   111167588.55008     -2360.477    20825441.902    86463707.05207
     -1835.929  
  21032288.613   112350712.90208      1805.175    21032294.328    87383909.63007
      1404.022  
  22173171.167   118486706.61207     -1889.645    22173176.665    92156341.62306
     -1469.727  
  21314175.451   114016478.49805      1539.742    21314178.687    88679484.18606
      1197.574  
  23221318.541   124261971.81006     -4571.512    23221325.704    96648223.33506
     -3555.624  
 20 09 28 07 44 40.0000000  0 14G20G24G15G18G21G10G13R 3R 2R18R12R11
                                R19R17
  19981498.484   105003483.27849       473.766    19981498.027    81820893.07248
       369.163  
  20846993.079   109551689.35349      1407.770    20846995.897    85364963.88748
      1096.961  
  21470466.234   112828059.58649     -2640.730    21470466.593    87917974.16347
     -2057.715  
  21674539.496   113900472.81848     -2814.805    21674540.676    88753620.66947
     -2193.355  
  24518366.150   128844873.75246      2580.410    24518366.542   100398602.03944
      2010.710  
  21857255.712   114860655.88549      2463.890    21857258.410    89501817.46448
      1919.909  
  24132128.633   126815188.14946     -3523.559    24132129.083    98817035.80544
     -2745.628  
  19907923.466   106568675.41509      1545.729    19907927.273    82886760.40008
      1202.229  
  19997037.075   106708022.11908     -1851.968    19997041.794    82995143.40607
     -1440.413  
  20827649.750   111179402.10308     -2364.847    20827655.029    86472895.35907
     -1839.327  
  21030601.119   112341698.95808      1800.715    21030606.922    87376898.78507
      1400.551  
  22174941.335   118496165.72507     -1894.050    22174946.892    92163698.71407
     -1473.156  
  21312738.249   114008790.37205      1535.085    21312741.505    88673504.54106
      1193.957  
  23225590.104   124284830.31006     -4572.026    23225597.428    96666002.16506
     -3556.023  
 20 09 28 07 44 45.0000000  0 14G20G24G15G18G21G10G13R 3R 2R18R12R11
                                R19R17
  19981048.845   105001120.25449       471.441    19981048.334    81819051.74748
       367.352  
  20845655.215   109544658.89549      1404.363    20845658.090    85359485.60448
      1094.305  
  21472979.565   112841267.22849     -2642.188    21472979.970    87928265.83547
     -2058.848  
  21677218.669   113914551.80848     -2816.969    21677219.809    88764591.30047
     -2195.043  
  24515911.450   128831974.36946      2579.323    24515912.003   100388550.58243
      2009.867  
  21854911.959   114848339.34949      2462.601    21854914.645    89492220.16748
      1918.910  
  24135481.046   126832804.91846     -3524.050    24135481.404    98830763.15443
     -2746.015  
  19906480.538   106560951.18509      1543.878    19906484.339    82880752.67108
      1200.792  
  19998773.128   106717286.31208     -1853.605    19998777.853    83002348.88307
     -1441.695  
  20829866.589   111191235.36808     -2368.578    20829871.820    86482099.00607
     -1842.230  
  21028917.516   112332705.73208      1796.788    21028923.432    87369904.05807
      1397.504  
  22176715.342   118505644.98106     -1897.769    22176720.908    92171071.45607
     -1476.047  
  21311305.176   114001124.64805      1530.656    21311308.486    88667542.30906
      1190.512  
  23229862.327   124307691.86706     -4572.198    23229869.659    96683783.35605
     -3556.160  
 20 09 28 07 44 50.0000000  0 14G20G24G15G18G21G10G13R 3R 2R18R12R11
                                R19R17
  19980601.509   104998769.36349       468.933    19980600.944    81817219.88748
       365.398  
  20844320.390   109537644.37449      1401.144    20844323.303    85354019.74848
      1091.801  
  21475494.230   112854481.91749     -2643.620    21475494.656    87938562.99047
     -2059.968  
  21679899.840   113928641.24148     -2819.007    21679900.920    88775570.06547
     -2196.633  
  24513458.095   128819081.46546      2578.046    24513458.668   100378504.17644
      2008.862  
  21852569.308   114836028.60849      2461.718    21852571.967    89482627.38847
      1918.222  
  24138833.660   126850422.77045     -3523.812    24138833.861    98844491.28143
     -2745.832  
  19905039.294   106553236.00109      1541.987    19905043.069    82874751.97108
      1199.319  
  20000510.705   106726558.57508     -1855.300    20000515.449    83009560.64407
     -1443.015  
  20832086.907   111203087.29308     -2372.487    20832092.067    86491317.15707
     -1845.272  
  21027237.640   112323732.26108      1792.633    21027243.658    87362924.70307
      1394.269  
  22178492.931   118515143.28507     -1901.530    22178498.486    92178459.00507
     -1478.977  
  21309876.046   113993480.20505      1526.410    21309879.415    88661596.63006
      1187.207  
  23234134.946   124330555.26306     -4572.973    23234142.252    96701565.99206
     -3556.761  
 20 09 28 07 44 55.0000000  0 15G20G24G15G18G21G10G13R 3R 4R 2R18R12
                                R11R19R17
  19980156.431   104996430.40249       466.499    19980155.817    81815397.32148
       363.504  
  20842988.557   109530645.54249      1398.117    20842991.504    85348566.12748
      1089.440  
  21478010.193   112867703.36049     -2644.944    21478010.619    87948865.40747
     -2061.000  
  21682582.961   113942740.91648     -2821.054    21682584.012    88786556.81447
     -2198.227  
  24511005.951   128806194.89046      2576.762    24511005.984   100368462.69144
      2007.863  
  21850227.695   114823723.25249      2460.379    21850230.315    89473038.80648
      1917.179  
  24142186.431   126868041.48345     -3524.570    24142186.191    98858220.10443
     -2746.429  
  19903599.737   106545529.74909      1540.265    19903603.447    82868758.22208
      1197.983  
  23498467.310   125833225.11514      3431.199    23498469.950    97870298.86813
      2668.706  
  20002249.746   106735838.83508     -1856.796    20002254.549    83016778.61807
     -1444.180  
  20834310.657   111214957.79208     -2375.934    20834315.810    86500549.76207
     -1847.952  
  21025561.451   112314778.33108      1788.890    21025567.531    87355960.53707
      1391.358  
  22180273.976   118524660.36707     -1905.300    22180279.565    92185861.16607
     -1481.906  
  21308450.798   113985856.90205      1522.441    21308454.296    88655667.39506
      1184.117  
  23238407.854   124353420.24206     -4573.348    23238415.116    96719349.85006
     -3557.054  
 20 09 28 07 45  0.0000000  0 15G20G24G15G18G21G10G13R 3R 4R 2R18R12
                                R11R19R17
  19979713.573   104994103.04049       464.167    19979712.896    81813583.79048
       361.684  
  20841659.661   109523662.11649      1394.983    20841662.609    85343124.49548
      1086.995  
  21480527.374   112880931.29549     -2646.434    21480527.833    87959172.88447
     -2062.160  
  21685267.975   113956850.48048     -2822.902    21685268.988    88797551.28047
     -2199.668  
  24508555.003   128793314.32646      2575.320    24508555.130   100358425.91643
      2006.746  
  21847887.134   114811423.42549      2459.499    21847889.729    89463454.52947
      1916.492  
  24145539.213   126885660.69145     -3523.394    24145538.932    98871949.36044
     -2745.511  
  19902161.756   106537832.03109      1538.538    19902165.435    82862771.11308
      1196.640  
  23495264.189   125816072.16905      3429.984    23495266.638    97856957.68704
      2667.766  
  20003990.241   106745126.76408     -1858.397    20003995.109    83024002.55807
     -1445.426  
  20836537.819   111226846.34708     -2379.808    20836542.918    86509796.40107
     -1850.964  
  21023888.878   112305843.58808      1784.890    21023894.972    87349011.28607
      1388.249  
  22182058.554   118534196.02007     -1908.976    22182064.138    92193277.78606
     -1484.762  
  21307029.709   113978254.46905      1518.815    21307033.070    88649754.38406
      1181.297  
  23242680.970   124376286.54706     -4572.894    23242688.176    96737134.73805
     -3556.699  
 20 09 28 07 45  5.0000000  0 15G20G24G15G18G21G10G13R 3R 4R 2R18R12
                                R11R19R17
  19979273.494   104991790.31449       460.875    19979272.752    81811781.66248
       359.121  
  20840334.262   109516697.13349      1390.992    20840337.219    85337697.24448
      1083.891  
  21483046.358   112894168.71049     -2648.508    21483046.827    87969487.74447
     -2063.777  
  21687955.454   113970972.99648     -2825.913    21687956.448    88808555.82347
     -2202.015  
  24506105.796   128780442.77746      2573.116    24506105.808   100348396.16344
      2005.027  
  21845548.148   114799131.94049      2457.394    21845550.698    89453876.74448
      1914.848  
  24148892.765   126903283.41145     -3525.233    24148893.202    98885681.44145
     -2746.933  
  19900725.988   106530146.00009      1535.906    19900729.619    82856793.08508
      1194.589  
  23492061.652   125798922.82505      3429.464    23492064.048    97843619.35604
      2667.371  
  20005732.767   106754425.46608     -1860.938    20005737.677    83031234.89107
     -1447.394  
  20838768.942   111238756.22808     -2384.125    20838774.037    86519059.62707
     -1854.324  
  21022220.504   112296931.12408      1780.081    21022226.551    87342079.38107
      1384.508  
  22183847.176   118543753.21707     -1914.042    22183852.643    92200711.15406
     -1488.702  
  21305612.842   113970675.81405      1513.147    21305616.299    88643859.87806
      1176.891  
  23246954.919   124399157.27906     -4574.937    23246962.108    96754923.07406
     -3558.288  
 20 09 28 07 45 10.0000000  0 15G20G24G15G18G21G10G13R 3R 4R 2R18R12
                                R11R19R17
  19978835.994   104989491.20949       459.023    19978835.215    81809990.14848
       357.675  
  20839012.159   109509749.49449      1388.328    20839015.119    85332283.49648
      1081.813  
  21485566.953   112907414.52849     -2649.535    21485567.407    87979809.15847
     -2064.578  
  21690645.203   113985107.40948     -2827.378    21690646.205    88819569.64847
     -2203.156  
  24503658.052   128767579.20446      2572.500    24503657.988   100338372.59344
      2004.543  
  21843210.533   114786847.78649      2456.659    21843213.086    89444304.67648
      1914.277  
  24152246.578   126920908.63045     -3524.706    24152246.465    98899414.30851
     -2746.522  
  19899292.200   106522470.57309      1534.616    19899295.777    82850823.30708
      1193.585  
  23488859.674   125781776.22204      3429.464    23488862.161    97830283.14003
      2667.371  
  20007477.104   106763733.70608     -1861.983    20007482.030    83038474.63607
     -1448.210  
  20841003.791   111250686.22508     -2387.534    20841008.904    86528338.51207
     -1856.976  
  21020556.101   112288039.93208      1776.823    21020562.078    87335164.00707
      1381.973  
  22185639.580   118553330.90707     -1916.968    22185644.957    92208160.47806
     -1490.976  
  21304200.378   113963120.01705      1509.112    21304203.814    88637983.14706
      1173.754  
  23251229.477   124422031.20706     -4574.324    23251236.543    96772713.90405
     -3557.812  
 20 09 28 07 45 15.0000000  0 13G20G24G15G18G21G10R 3R 2R18R12R11R19
                                R17
  19978400.921   104987204.81849       455.851    19978400.122    81808208.54648
       355.211  
  20837693.196   109502818.39349      1384.363    20837696.152    85326882.64048
      1078.726  
  21488088.959   112920667.88449     -2651.582    21488089.399    87990136.44947
     -2066.171  
  21693337.047   113999252.76848     -2830.512    21693338.058    88830591.99347
     -2205.597  
  24501211.690   128754722.70246      2570.663    24501211.375   100328354.49844
      2003.046  
  21840874.137   114774570.03749      2454.676    21840876.692    89434737.59848
      1912.729  
  19897860.222   106514804.80009      1531.913    19897863.731    82844861.03708
      1191.483  
  20009223.200   106773051.11408     -1864.543    20009228.107    83045721.50507
     -1450.203  
  20843242.236   111262635.38408     -2392.070    20843247.352    86537632.29407
     -1860.503  
  21018895.537   112279169.08908      1772.152    21018901.401    87328264.47007
      1378.340  
  22187435.693   118562928.19607     -1921.425    22187440.885    92215625.04106
     -1494.440  
  21302792.001   113955586.27705      1504.305    21302795.492    88632123.57206
      1170.012  
  23255504.529   124444907.46806     -4575.379    23255511.435    96790506.51605
     -3558.633  
 20 09 28 07 45 20.0000000  0 14G20G24G15G18G21G32G10R 3R 2R18R12R11
                                R19R17
  19977968.507   104984932.40749       453.371    19977967.680    81806437.83048
       353.272  
  20836377.608   109495905.08349      1380.948    20836380.569    85321495.64148
      1076.058  
  21490612.665   112933930.01249     -2652.960    21490613.035    88000470.56847
     -2067.246  
  21696031.216   114013410.31948     -2832.383    21696032.242    88841623.85047
     -2207.054  
  24498766.841   128741874.56146      2569.120    24498766.170   100318342.97941
      2001.913  
  24680491.768   129696854.99657      3346.386    24680496.971   101062498.29454
      2607.574  
  21838539.194   114762299.92449      2453.531    21838541.753    89425176.47347
      1911.844  
  19896430.294   106507150.03409      1530.082    19896433.741    82838907.33008
      1190.063  
  20010971.175   106782378.42608     -1866.113    20010976.087    83052976.08107
     -1451.421  
  20845484.538   111274605.03708     -2395.847    20845489.624    86546942.01607
     -1863.440  
  21017239.010   112270319.87808      1768.156    21017244.775    87321381.76107
      1375.233  
  22189235.591   118572546.30406     -1925.616    22189240.708    92223105.79606
     -1497.702  
  21301388.124   113948075.73205      1500.063    21301391.520    88626282.04106
      1166.714  
  23259780.247   124467787.38606     -4575.898    23259786.970    96808301.98905
     -3559.039  
 20 09 28 07 45 25.0000000  0 14G20G24G15G18G21G32G10R 3R 2R18R12R11
                                R19R17
  19977538.080   104982670.53149       451.069    19977537.260    81804675.33048
       351.480  
  20835064.743   109489006.05749      1378.151    20835067.713    85316119.78148
      1073.887  
  21493137.349   112947197.44349     -2654.254    21493137.653    88010808.83047
     -2068.253  
  21698727.024   114027576.60448     -2834.270    21698728.071    88852662.50747
     -2208.526  
  24496322.853   128729031.28546      2567.934    24496321.791   100308335.25143
      2000.987  
  24677307.501   129680122.50247      3346.468    24677311.046   101049459.99345
      2607.569  
  21836205.039   114750034.03949      2452.602    21836207.602    89415618.64048
      1911.112  
  19895001.765   106499502.72609      1528.468    19895005.131    82832959.42908
      1188.809  
  20012720.353   106791712.12408     -1867.648    20012725.293    83060235.62208
     -1452.620  
  20847730.014   111286591.63808     -2399.383    20847735.089    86556264.92907
     -1866.190  
  21015585.834   112261488.78008      1764.241    21015591.548    87314513.14007
      1372.187  
  22191038.760   118582181.70306     -1928.941    22191043.699    92230599.99606
     -1500.293  
  21299987.730   113940584.88005      1495.973    21299991.210    88620455.83306
      1163.535  
  23264055.977   124490667.33806     -4576.417    23264062.526    96826097.48506
     -3559.441  
 20 09 28 07 45 30.0000000  0 15G20G24G15G18G21G32G10R 3R 4R 2R18R12
                                R11R19R17
  19977109.574   104980418.74749       449.469    19977108.737    81802920.69548
       350.229  
  20833754.522   109482120.86249      1375.645    20833757.490    85310754.70048
      1071.930  
  21495662.964   112960469.76749     -2654.917    21495663.195    88021150.91147
     -2068.765  
  21701424.445   114041751.21048     -2835.844    21701425.506    88863707.64747
     -2209.753  
  24493879.713   128716192.50146      2567.305    24493878.295   100298331.01243
      2000.495  
  24674123.250   129663389.58547      3346.585    24674127.568   101036421.40144
      2607.734  
  21833871.620   114737771.96949      2452.019    21833874.192    89406063.78248
      1910.663  
  19893574.503   106491862.38909      1527.398    19893577.800    82827016.94608
      1187.977  
  23476054.338   125713204.76215      3428.867    23476057.785    97776951.05514
      2666.901  
  20014470.669   106801052.11608     -1868.496    20014475.670    83067500.05908
     -1453.358  
  20849978.524   111298594.70808     -2401.973    20849983.652    86565600.64307
     -1868.203  
  21013935.940   112252675.37408      1761.008    21013941.654    87307658.27507
      1369.672  
  22192845.082   118591833.92506     -1932.163    22192849.762    92238107.27705
     -1502.797  
  21298591.060   113933113.26205      1492.089    21298594.469    88614644.57406
      1160.515  
  23268331.661   124513546.85806     -4576.262    23268338.073    96843892.66406
     -3559.320  
 20 09 28 07 45 35.0000000  0 15G20G24G15G18G21G32G10R 3R 4R 2R18R12
                                R11R19R17
  19976683.720   104978180.99249       445.874    19976682.907    81801176.99148
       347.434  
  20832447.704   109475253.54849      1371.640    20832450.685    85305403.55148
      1068.812  
  21498190.230   112973750.88649     -2657.417    21498190.452    88031499.82647
     -2070.719  
  21704124.144   114055937.97448     -2838.581    21704125.248    88874762.26247
     -2211.887  
  24491438.140   128703362.19846      2565.195    24491436.606   100288333.39144
      1998.851  
  24670939.751   129646659.99547      3345.515    24670943.955   101023385.31944
      2606.891  
  21831539.673   114725517.59449      2450.147    21831542.262    89396514.91547
      1909.203  
  19892149.315   106484232.96409      1524.581    19892152.528    82821082.94708
      1185.785  
  23472853.428   125696064.43605      3427.550    23472857.084    97763619.68404
      2665.867  
  20016222.846   106810401.97108     -1871.101    20016227.889    83074772.16908
     -1455.305  
  20852230.911   111310618.20008     -2406.879    20852236.062    86574952.23907
     -1872.020  
  21012290.082   112243883.65408      1755.996    21012295.832    87300820.26607
      1365.772  
  22194655.264   118601507.01706     -1936.854    22194659.715    92245630.78705
     -1506.444  
  21297198.599   113925664.88105      1486.698    21297202.050    88608851.38506
      1156.315  
  23272608.047   124536429.97406     -4577.112    23272614.320    96861690.63306
     -3559.980  
 20 09 28 07 45 40.0000000  0 15G20G24G15G18G21G32G10R 3R 4R 2R18R12
                                R11R19R17
  19976261.113   104975960.36849       442.621    19976260.359    81799446.63648
       344.898  
  20831144.869   109468407.20149      1367.504    20831147.870    85300068.74148
      1065.585  
  21500719.794   112987043.86849     -2659.563    21500719.999    88041857.98947
     -2072.391  
  21706826.755   114070140.06848     -2841.699    21706827.900    88885828.82647
     -2214.315  
  24488998.778   128690543.51146      2562.413    24488997.337   100278344.80344
      1996.688  
  24667757.408   129629937.01547      3344.421    24667761.766   101010354.44344
      2606.038  
  21829209.781   114713274.08549      2447.852    21829212.384    89386974.52048
      1907.417  
  19890726.796   106476617.79509      1521.944    19890729.929    82815160.04308
      1183.690  
  23469653.753   125678930.35705      3426.573    23469657.505    97750293.17804
      2665.109  
  20017977.536   106819765.23908     -1873.815    20017982.599    83082054.70808
     -1457.417  
  20854487.652   111322665.21208     -2411.723    20854492.921    86584322.11607
     -1875.792  
  21010648.946   112235116.84208      1750.999    21010654.680    87294001.62907
      1361.886  
  22196469.912   118611204.07306     -1941.781    22196474.185    92253172.94805
     -1510.273  
  21295811.115   113918243.12105      1481.851    21295814.637    88603078.90506
      1152.547  
  23276885.679   124559319.72806     -4578.171    23276891.791    96879493.76006
     -3560.804  
 20 09 28 07 45 45.0000000  0 15G20G24G15G18G21G32G10R 3R 4R 2R18R12
                                R11R19R17
  19975841.204   104973753.98049       439.921    19975840.505    81797727.37448
       342.797  
  20829845.477   109461578.88249      1363.781    20829848.509    85294747.97948
      1062.687  
  21503251.084   113000345.79549     -2661.241    21503251.286    88052223.12547
     -2073.698  
  21709531.746   114084354.52148     -2844.051    21709532.917    88896905.01447
     -2216.147  
  24486561.057   128677733.35646      2561.210    24486559.828   100268362.83142
      1995.737  
  24664575.802   129613217.65646      3343.612    24664579.773   100997326.40142
      2605.417  
  21826881.430   114701038.49049      2446.367    21826884.014    89377440.29648
      1906.262  
  19889306.382   106469013.77009      1519.664    19889309.435    82809245.80608
      1181.961  
  23466454.681   125661799.62505      3425.437    23466458.523    97736969.28204
      2664.226  
  20019734.121   106829138.62208     -1875.698    20019739.180    83089345.10808
     -1458.883  
  20856748.292   111334732.90908     -2415.491    20856753.673    86593708.09207
     -1878.719  
  21009011.857   112226371.93308      1746.823    21009017.647    87287200.04307
      1358.641  
  22198288.561   118620922.09906     -1945.843    22198292.592    92260731.40705
     -1513.438  
  21294428.164   113910844.79605      1477.487    21294431.614    88597324.65306
      1149.151  
  23281163.996   124582213.24306     -4578.723    23281170.017    96897299.80706
     -3561.237  
 20 09 28 07 45 50.0000000  0 15G20G24G15G18G21G32G10R 3R 4R 2R18R12
                                R11R19R17
  19975423.943   104971561.44449       437.504    19975423.296    81796018.90748
       340.909  
  20828549.435   109454768.16349      1360.844    20828552.473    85289440.92948
      1060.397  
  21505784.034   113013656.31449     -2662.449    21505784.239    88062594.95647
     -2074.636  
  21712238.999   114098580.98148     -2846.050    21712240.197    88907990.56047
     -2217.707  
  24484124.888   128664931.54545      2560.594    24484123.744   100258387.47444
      1995.272  
  24661395.015   129596501.60347      3343.336    24661399.024   100984300.88944
      2605.195  
  21824554.539   114688810.47249      2445.406    21824557.070    89367911.97248
      1905.512  
  19887887.944   106461420.63509      1518.050    19887890.982    82803340.03708
      1180.706  
  23463256.091   125644671.66805      3425.504    23463260.070    97723647.55404
      2664.280  
  20021492.552   106838521.88209     -1877.277    20021497.621    83096643.19808
     -1460.109  
  20859012.665   111346820.85008     -2419.195    20859018.218    86603109.81807
     -1881.602  
  21007378.860   112217648.66008      1743.039    21007384.676    87280415.27107
      1355.694  
  22200111.076   118630660.84606     -1949.734    22200114.930    92268305.98605
     -1516.464  
  21293049.548   113903469.56805      1473.434    21293052.924    88591588.36906
      1146.004  
  23285442.951   124605110.16706     -4579.180    23285448.918    96915108.51006
     -3561.589  
 20 09 28 07 45 55.0000000  0 16G20G24G15G18G21G32G 8G10R 3R 4R 2R18
                                R12R11R19R17
  19975010.549   104969389.26449       433.030    19975009.951    81794326.29848
       337.422  
  20827257.970   109447981.53449      1355.417    20827261.036    85284152.64948
      1056.167  
  21508319.865   113026981.88649     -2666.219    21508320.066    88072978.52447
     -2077.577  
  21714949.786   114112825.91648     -2850.453    21714950.976    88919090.49747
     -2221.121  
  24481691.590   128652144.41546      2556.270    24481690.367   100248423.48443
      1991.898  
  24658215.839   129579795.35747      3340.687    24658220.356   100971283.02744
      2603.132  
  24640025.941   129484214.20114       -51.215           0.000           0.0000 
         0.000  
  21822230.341   114676596.54149      2441.683    21822232.822    89358394.63148
      1902.608  
  19886472.721   106453844.83309      1513.784    19886475.729    82797447.74908
      1177.383  
  23460059.352   125627553.20905      3422.956    23460063.419    97710333.21004
      2662.301  
  20023254.118   106847921.97209     -1881.223    20023259.231    83103954.37608
     -1463.176  
  20861282.144   111358935.66908     -2425.430    20861287.772    86612532.46707
     -1886.445  
  21005751.169   112208953.51708      1736.558    21005756.973    87273652.38507
      1350.651  
  22201938.550   118640426.75007     -1955.461    22201942.311    92275901.71205
     -1520.914  
  21291676.311   113896124.33305      1466.352    21291679.855    88585875.40906
      1140.495  
  23289723.771   124628016.92306     -4582.062    23289729.769    96932924.85706
     -3563.831  
 20 09 28 07 46  0.0000000  0 15G20G24G15G18G21G32G10R 3R 4R 2R18R12
                                R11R19R17
  19974598.861   104967226.01649       432.266    19974598.314    81792640.65248
       336.831  
  20825968.924   109441207.61349      1354.051    20825971.987    85278874.26948
      1055.105  
  21510856.384   113040311.07149     -2665.715    21510856.538    88083364.89247
     -2077.183  
  21717661.877   114127077.86348     -2850.633    21717663.090    88930195.90247
     -2221.277  
  24479258.857   128639360.63247      2557.124    24479257.746   100238462.08743
      1992.563  
  24655036.423   129563087.34947      3342.214    24655041.446   100958263.79544
      2604.320  
  21819906.639   114664385.21449      2442.387    21819909.023    89348879.31047
      1903.145  
  19885058.593   106446274.83509      1513.819    19885061.553    82791559.97708
      1177.414  
  23456862.134   125610432.63105      3424.512    23456866.256    97697017.20404
      2663.503  
  20025016.543   106857326.35509     -1880.854    20025021.630    83111268.89408
     -1462.890  
  20863554.417   111371065.47008     -2427.301    20863560.107    86621966.75407
     -1887.905  
  21004126.535   112200274.88908      1734.586    21004132.360    87266902.33507
      1349.120  
  22203768.872   118650208.15806     -1957.387    22203772.669    92283509.43705
     -1522.414  
  21290306.427   113888797.00005      1464.344    21290310.118    88580176.37306
      1138.933  
  23294004.190   124650921.99706     -4580.233    23294010.292    96950739.90206
     -3562.409  
 20 09 28 07 46  5.0000000  0 16G20G24G15G18G21G32G10G13R 3R 4R 2R18
                                R12R11R19R17
  19974188.718   104965070.82749       429.854    19974188.212    81790961.28848
       334.952  
  20824682.132   109434445.59849      1350.828    20824685.202    85273605.16248
      1052.590  
  21513393.424   113053643.05749     -2666.828    21513393.493    88093753.45347
     -2078.051  
  21720375.130   114141335.98048     -2852.375    21720376.370    88941306.11247
     -2222.632  
  24476826.650   128626579.39147      2555.910    24476825.478   100228502.70144
      1991.617  
  24651856.454   129546376.87746      3342.488    24651861.142   100945242.64244
      2604.531  
  21817583.299   114652175.69949      2441.440    21817585.553    89339365.40047
      1902.418  
  24189164.160   127114914.67815     -3528.573           0.000           0.0000 
         0.000  
  19883645.409   106438709.82409      1512.172    19883648.324    82785676.08408
      1176.133  
  23453664.540   125593309.06205      3424.792    23453668.393    97683698.87304
      2663.726  
  20026779.800   106866735.08809     -1882.188    20026784.798    83118586.79107
     -1463.926  
  20865829.386   111383209.78008     -2430.659    20865835.136    86631412.32007
     -1890.515  
  21002504.858   112191611.96208      1730.503    21002510.682    87260164.51607
      1345.948  
  22205602.016   118660004.30006     -1960.847    22205605.838    92291128.65805
     -1525.109  
  21288939.799   113881487.02305      1460.062    21288943.596    88574490.84206
      1135.605  
  23298284.141   124673824.37606     -4580.379    23298290.308    96968552.83906
     -3562.520  
 20 09 28 07 46 10.0000000  0 16G20G24G15G18G21G32G10G13R 3R 4R 2R18
                                R12R11R19R17
  19973780.669   104962926.60649       427.219    19973780.189    81789290.47248
       332.897  
  20823398.144   109427698.41649      1347.390    20823401.240    85268347.61748
      1049.909  
  21515931.518   113066980.67449     -2668.543    21515931.489    88104146.40447
     -2079.382  
  21723090.126   114155603.16348     -2854.785    21723091.369    88952423.38847
     -2224.511  
  24474395.457   128613803.54346      2554.105    24474394.295   100218547.50544
      1990.211  
  24648676.467   129529666.80746      3341.229    24648681.208   100932221.81145
      2603.551  
  21815260.851   114639970.90249      2439.984    21815262.995    89329855.16548
      1901.280  
  24192521.949   127132560.38445     -3529.617    24192527.079    99064353.72151
     -2750.351  
  19882233.654   106431152.68209      1510.124    19882236.565    82779798.31008
      1174.542  
  23450466.889   125576185.35105      3424.457    23450470.547    97670380.42503
      2663.460  
  20028544.279   106876150.46809     -1884.254    20028549.170    83125909.87107
     -1465.530  
  20868107.600   111395371.10408     -2434.515    20868113.316    86640871.12507
     -1893.516  
  21000886.674   112182967.69408      1726.425    21000892.474    87253441.20407
      1342.777  
  22207438.453   118669818.03506     -1965.426    22207442.404    92298761.55905
     -1528.667  
  21287576.937   113874197.25505      1455.625    21287580.836    88568821.02306
      1132.151  
  23302564.094   124696727.11407     -4581.051    23302570.424    96986366.06506
     -3563.047  
 20 09 28 07 46 15.0000000  0 16G20G24G15G18G21G32G10G13R 3R 4R 2R18
                                R12R11R19R17
  19973375.461   104960797.31649       424.234    19973375.014    81787631.28748
       330.569  
  20822117.742   109420970.04649      1343.641    20822120.836    85263104.73348
      1046.987  
  21518471.427   113080327.89149     -2670.538    21518471.309    88114546.82347
     -2080.945  
  21725807.582   114169883.30448     -2857.409    21725808.832    88963550.75847
     -2226.559  
  24471966.033   128601037.05346      2552.074    24471965.056   100208599.61743
      1988.629  
  24645497.566   129512961.03747      3340.566    24645502.280   100919204.35345
      2603.038  
  21812940.025   114627774.75349      2438.222    21812942.100    89320351.67448
      1899.914  
  24195880.516   127150209.87045     -3530.109    24195885.174    99078106.65041
     -2750.734  
  19880824.147   106423607.48309      1507.769    19880827.019    82773929.81708
      1172.707  
  23447269.857   125559065.67205      3423.112    23447273.492    97657065.14803
      2662.422  
  20030310.904   106885577.05209     -1886.562    20030315.662    83133241.65507
     -1467.332  
  20870389.822   111407553.72808     -2438.691    20870395.476    86650346.48707
     -1896.765  
  20999272.765   112174346.07808      1722.104    20999278.474    87246735.50007
      1339.409  
  22209278.988   118679653.39206     -1969.441    22209283.025    92306411.28105
     -1531.792  
  21286218.728   113866931.85005      1450.852    21286222.615    88563170.15106
      1128.437  
  23306844.921   124719634.15507     -4581.605    23306851.232    97004182.64406
     -3563.480  
 20 09 28 07 46 20.0000000  0 16G20G24G15G18G21G32G10G13R 3R 4R 2R18
                                R12R11R19R17
  19972972.895   104958681.88349       421.473    19972972.467    81785982.89448
       328.418  
  20820840.665   109414259.18149      1340.328    20820843.748    85257875.48748
      1044.405  
  21521012.961   113093683.58349     -2672.250    21521012.737    88124953.85947
     -2082.273  
  21728527.285   114184175.34448     -2859.656    21728528.539    88974687.40947
     -2228.309  
  24469538.262   128588278.87247      2550.512    24469537.186   100198658.14543
      1987.406  
  24642319.241   129496258.54846      3340.191    24642323.755   100906189.44945
      2602.746  
  21810620.639   114615586.17349      2436.816    21810622.685    89310854.09048
      1898.815  
  24199239.608   127167861.95545     -3531.565    24199247.709    99091861.45141
     -2751.883  
  19879416.680   106416073.16909      1505.655    19879419.517    82768069.79908
      1171.062  
  23444073.361   125541948.79905      3423.175    23444076.988    97643752.04104
      2662.468  
  20032079.309   106895013.16309     -1888.433    20032083.955    83140580.85107
     -1468.785  
  20872675.819   111419756.41008     -2442.500    20872681.381    86659837.45707
     -1899.726  
  20997662.832   112165746.07408      1717.555    20997668.505    87240046.61007
      1335.875  
  22211123.227   118689509.22306     -1973.265    22211127.457    92314076.93905
     -1534.761  
  21284864.820   113859689.51205      1446.288    21284868.661    88557537.22306
      1124.887  
  23311126.324   124742544.36706     -4582.460    23311132.651    97022001.66606
     -3564.145  
 20 09 28 07 46 25.0000000  0 16G20G24G15G18G21G32G10G13R 3R 4R 2R18
                                R12R11R19R17
  19972572.747   104956579.05849       419.469    19972572.305    81784344.32848
       326.854  
  20819566.734   109407564.78249      1337.379    20819569.768    85252659.06748
      1042.109  
  21523555.864   113107046.47449     -2672.983    21523555.540    88135366.49447
     -2082.848  
  21731248.959   114198477.99648     -2861.300    21731250.242    88985832.32847
     -2229.589  
  24467111.827   128575527.68147      2549.851    24467110.760   100188722.17844
      1986.901  
  24639141.205   129479558.04446      3340.487    24639145.633   100893176.06844
      2602.972  
  21808302.450   114603403.91649      2436.227    21808304.494    89301361.42248
      1898.359  
  24202598.976   127185515.27004     -3530.098           0.000           0.0000 
         0.000  
  19878010.949   106408548.27709      1504.206    19878013.774    82762217.10408
      1169.933  
  23440877.169   125524833.55605      3423.453    23440880.765    97630440.19504
      2662.688  
  20033849.359   106904458.17509     -1889.559    20033853.932    83147926.97507
     -1469.655  
  20874965.317   111431977.91008     -2445.897    20874970.826    86669343.06407
     -1902.371  
  20996056.722   112157166.46008      1714.281    20996062.312    87233373.59307
      1333.327  
  22212971.125   118699384.33106     -1976.304    22212975.484    92321757.57006
     -1537.128  
  21283515.008   113852469.08205      1441.848    21283518.781    88551921.33506
      1121.437  
  23315408.101   124765456.42906     -4582.847    23315414.488    97039822.15306
     -3564.440  
 20 09 28 07 46 30.0000000  0 16G20G24G15G18G21G32G10G13R 3R 4R 2R18
                                R12R11R19R17
  19972175.001   104954488.79449       416.680    19972174.525    81782715.54648
       324.679  
  20818295.900   109400886.69149      1333.925    20818298.924    85247455.36048
      1039.418  
  21526100.146   113120416.54749     -2674.781    21526099.696    88145784.73047
     -2084.250  
  21733972.653   114212791.22748     -2863.726    21733973.981    88996985.49347
     -2231.499  
  24464686.721   128562783.51047      2547.940    24464685.690   100178791.67343
      1985.410  
  24635963.486   129462859.54846      3339.469    24635967.842   100880164.26445
      2602.183  
  21805985.446   114591227.97649      2434.492    21805987.527    89291873.67448
      1897.004  
  24205958.506   127203169.87505     -3530.793           0.000           0.0000 
         0.000  
  19876607.025   106401032.93209      1502.128    19876609.813    82756371.83307
      1168.324  
  23437681.201   125507719.91504      3422.854    23437684.969    97617129.60004
      2662.222  
  20035620.923   106913911.39409     -1891.672    20035625.466    83155279.47007
     -1471.305  
  20877258.374   111444218.18208     -2449.883    20877263.786    86678863.26407
     -1905.469  
  20994454.434   112148607.13708      1709.852    20994459.937    87226716.34307
      1329.882  
  22214822.523   118709278.54607     -1980.695    22214826.997    92329453.06105
     -1540.542  
  21282169.284   113845270.58805      1437.438    21282173.052    88546322.49906
      1118.003  
  23319690.269   124788370.29906     -4582.711    23319696.692    97057644.03906
     -3564.335  
 20 09 28 07 46 35.0000000  0 16G20G24G15G18G21G32G10G13R 3R 4R 2R18
                                R12R11R19R17
  19971779.672   104952411.29949       414.105    19971779.190    81781096.71748
       322.675  
  20817028.240   109394225.09449      1330.565    20817031.250    85242264.50948
      1036.804  
  21528645.859   113133793.98649     -2676.218    21528645.261    88156208.70747
     -2085.371  
  21736698.379   114227115.23448     -2866.035    21736699.742    89008147.05747
     -2233.277  
  24462262.960   128550046.52947      2546.792    24462261.844   100168866.77443
      1984.519  
  24632786.207   129446163.20746      3338.679    24632790.438   100867154.14044
      2601.569  
  21803669.671   114579058.53049      2433.132    21803671.823    89282391.00548
      1895.948  
  24209318.282   127220825.95944     -3531.578    24209326.615    99133124.07254
     -2751.878  
  19875204.910   106393527.26709      1500.093    19875207.656    82750534.09908
      1166.737  
  23434485.794   125490607.96905      3422.214    23434489.480    97603820.31504
      2661.722  
  20037394.182   106923373.68809     -1893.473    20037398.709    83162639.02407
     -1472.703  
  20879555.001   111456477.39208     -2453.871    20879560.322    86688398.18907
     -1908.570  
  20992855.947   112140068.33508      1705.492    20992861.403    87220075.05307
      1326.492  
  22216677.689   118719192.14607     -1984.809    22216682.124    92337163.64006
     -1543.742  
  21280827.778   113838094.02905      1432.729    21280831.432    88540740.73106
      1114.347  
  23323972.849   124811286.24906     -4583.245    23323979.226    97075467.54806
     -3564.749  
 20 09 28 07 46 40.0000000  0 15G20G24G15G18G21G32G10R 3R 4R 2R18R12
                                R11R19R17
  19971387.526   104950350.46349       410.480    19971387.011    81779490.87048
       319.851  
  20815764.480   109387584.05349      1326.020    20815767.493    85237089.66848
      1033.257  
  21531193.704   113147182.69149     -2678.898    21531192.970    88166641.46247
     -2087.456  
  21739426.862   114241453.85048     -2869.109    21739428.280    89019319.99547
     -2235.671  
  24459841.324   128537320.71347      2543.769    24459840.379   100158950.56043
      1982.156  
  24629610.008   129429472.95046      3337.547    24629614.148   100854148.73043
      2600.684  
  21801355.876   114566899.48849      2430.772    21801358.096    89272916.42948
      1894.108  
  19873805.334   106386035.35109      1496.976    19873808.074    82744707.05508
      1164.315  
  23431291.347   125473501.72604      3420.769    23431295.233    97590515.48104
      2660.598  
  20039169.729   106932848.31108     -1896.191    20039174.249    83170008.17507
     -1474.819  
  20881855.873   111468759.38408     -2458.836    20881861.134    86697950.83307
     -1912.433  
  20991262.015   112131554.02708      1700.272    20991267.499    87213452.81607
      1322.433  
  22218537.213   118729128.97207     -1989.789    22218541.652    92344892.28806
     -1547.612  
  21279491.169   113830943.54005      1428.218    21279494.740    88535179.24406
      1110.832  
  23328256.429   124834208.11106     -4584.616    23328262.820    97093295.65706
     -3565.815  
 20 09 28 07 46 45.0000000  0 15G20G24G15G18G21G32G10R 3R 4R 2R18R12
                                R11R19R17
  19970997.628   104948301.50249       408.520    19970997.083    81777894.27448
       318.323  
  20814503.717   109380958.73049      1323.293    20814506.711    85231927.07148
      1031.133  
  21533742.759   113160577.87849     -2679.745    21533741.918    88177079.26147
     -2088.117  
  21742157.240   114255802.33648     -2870.707    21742158.680    89030500.62347
     -2236.917  
  24457420.843   128524601.24947      2543.187    24457420.135   100149039.28243
      1981.699  
  24626434.092   129412784.02646      3337.531    24626438.331   100841144.41945
      2600.672  
  21799043.166   114554746.08049      2429.977    21799045.442    89263446.24648
      1893.488  
  19872407.389   106378552.13609      1495.683    19872410.117    82738886.78108
      1163.309  
  23428096.962   125456396.50304      3420.042    23428101.039    97577211.43404
      2660.038  
  20040946.764   106942330.75608     -1897.410    20040951.270    83177383.40807
     -1475.766  
  20884160.124   111481059.37908     -2461.965    20884165.345    86707517.49207
     -1914.866  
  20989671.793   112123059.34608      1696.781    20989677.276    87206845.83807
      1319.719  
  22220400.228   118739084.23507     -1993.125    22220404.646    92352635.28106
     -1550.207  
  21278158.503   113823814.33205      1423.789    21278162.033    88529634.30606
      1107.391  
  23332540.198   124857130.96005     -4584.738    23332546.603    97111124.52106
     -3565.909  
 20 09 28 07 46 50.0000000  0 15G20G24G15G18G21G32G10R 3R 4R 2R18R12
                                R11R19R17
  19970610.210   104946265.54749       406.008    19970609.623    81776307.81548
       316.367  
  20813246.164   109374350.21649      1320.219    20813249.181    85226777.57048
      1028.737  
  21536293.241   113173980.65749     -2681.253    21536292.290    88187522.98347
     -2089.289  
  21744889.718   114270161.76048     -2872.719    21744891.163    89041689.77647
     -2238.484  
  24455001.838   128511889.29247      2541.710    24455000.940   100139133.83443
      1980.550  
  24623258.715   129396097.46346      3336.789    24623263.279   100828141.88945
      2600.093  
  21796731.748   114542599.43449      2428.718    21796734.058    89253981.32748
      1892.508  
  19871011.292   106371078.84309      1493.870    19871014.012    82733074.21408
      1161.894  
  23424902.984   125439293.14304      3420.136    23424907.188    97563908.84204
      2660.105  
  20042725.413   106951822.21608     -1899.030    20042729.966    83184765.65507
     -1477.026  
  20886467.908   111493378.45508     -2465.554    20886473.166    86717098.98607
     -1917.656  
  20988085.430   112114585.40108      1692.940    20988090.908    87200255.00007
      1316.729  
  22222266.892   118749059.09207     -1996.637    22222271.274    92360393.49906
     -1552.944  
  21276829.999   113816707.48105      1418.879    21276833.536    88524106.76106
      1103.574  
  23336824.387   124880055.98906     -4585.031    23336830.719    97128955.08306
     -3566.140  
 20 09 28 07 46 55.0000000  0 15G20G24G15G18G21G32G10R 3R 4R 2R18R12
                                R11R19R17
  19970225.430   104944243.44949       402.594    19970224.777    81774732.15448
       313.706  
  20811992.002   109367759.48449      1315.987    20811995.035    85221641.92448
      1025.440  
  21538845.318   113187391.81849     -2683.546    21538844.289    88197973.23947
     -2091.077  
  21747624.427   114284532.96948     -2875.964    21747625.895    89052888.11047
     -2241.016  
  24452584.387   128499185.69147      2539.328    24452583.571   100129234.95744
      1978.694  
  24620083.916   129379414.12646      3335.991    24620088.751   100815141.91644
      2599.472  
  21794421.784   114530460.36549      2426.563    21794424.117    89244522.31748
      1890.828  
  19869617.236   106363616.35309      1490.972    19869619.926    82727270.05408
      1159.644  
  23421709.493   125422192.64704      3419.479    23421713.816    97550608.46704
      2659.597  
  20044505.852   106961323.23408     -1901.621    20044510.504    83192155.33108
     -1479.042  
  20888779.432   111505717.49708     -2470.358    20888784.742    86726696.01107
     -1921.395  
  20986503.209   112106133.21308      1687.772    20986508.618    87193681.07707
      1312.711  
  22224137.383   118759054.27207     -2001.897    22224141.714    92368167.53106
     -1557.030  
  21275505.794   113809623.84505      1413.843    21275509.400    88518597.26906
      1099.655  
  23341109.060   124902984.10706     -4586.655    23341115.322    97146788.04906
     -3567.401  
 20 09 28 07 47  0.0000000  0 15G20G24G15G18G21G32G10R 3R 4R 2R18R12
                                R11R19R17
  19969843.200   104942234.78849       400.660    19969842.510    81773166.96248
       312.199  
  20810741.113   109361186.02249      1313.460    20810744.184    85216519.74348
      1023.472  
  21541398.926   113200810.96249     -2684.375    21541397.799    88208429.71747
     -2091.723  
  21750361.318   114298915.52248     -2877.324    21750362.772    89064095.28947
     -2242.073  
  24450168.431   128486490.00747      2538.663    24450167.621   100119342.20142
      1978.175  
  24616909.719   129362733.76346      3335.910    24616914.598   100802144.22944
      2599.409  
  21792113.188   114518328.51949      2425.926    21792115.556    89235068.92848
      1890.327  
  19868225.112   106356164.30009      1489.699    19868227.804    82721474.01108
      1158.651  
  23418516.545   125405094.77204      3419.680    23418520.904    97537310.13504
      2659.749  
  20046288.057   106970833.63608     -1902.726    20046292.779    83199552.30707
     -1479.901  
  20891094.569   111518076.10708     -2473.440    20891099.977    86736308.25307
     -1923.792  
  20984924.935   112097702.23108      1684.285    20984930.306    87187123.64707
      1310.000  
  22226011.604   118769069.48007     -2004.683    22226015.861    92375957.12606
     -1559.203  
  21274185.888   113802563.01905      1409.921    21274189.558    88513105.51506
      1096.601  
  23345394.144   124925914.80106     -4585.960    23345400.315    97164623.01006
     -3566.866  
 20 09 28 07 47  5.0000000  0 15G20G24G15G18G21G32G10R 3R 4R 2R18R12
                                R11R19R17
  19969463.118   104940237.35149       398.405    19969462.387    81771610.51348
       310.441  
  20809493.060   109354627.45949      1310.246    20809496.168    85211409.17148
      1020.968  
  21543953.643   113214235.87249     -2685.703    21543952.458    88218890.68147
     -2092.758  
  21753099.911   114313307.23948     -2879.304    21753101.353    89075309.60147
     -2243.617  
  24447753.545   128473800.03547      2537.769    24447752.777   100109453.94443
      1977.480  
  24613735.595   129346053.94146      3335.944    24613740.522   100789146.94844
      2599.433  
  21789805.525   114506201.66649      2424.741    21789807.932    89225619.43548
      1889.405  
  19866834.515   106348720.38909      1487.980    19866837.234    82715684.30208
      1157.315  
  23415323.526   125387996.95704      3418.991    23415327.976    97524011.85804
      2659.219  
  20048071.594   106980351.15008     -1904.272    20048076.409    83206954.81607
     -1481.105  
  20893412.969   111530451.88308     -2476.980    20893418.435    86745933.84807
     -1926.543  
  20983350.201   112089290.28508      1680.477    20983355.550    87180581.02407
      1307.038  
  22227889.211   118779102.40607     -2008.301    22227893.347    92383760.50706
     -1562.016  
  21272869.871   113795522.71705      1406.003    21272873.517    88507629.73006
      1093.558  
  23349679.320   124948845.76706     -4586.328    23349685.339    97182458.19806
     -3567.148  
 20 09 28 07 47 10.0000000  0 15G20G24G15G18G21G32G10R 3R 4R 2R18R12
                                R11R19R17
  19969085.571   104938253.23249       395.086    19969084.800    81770064.45148
       307.858  
  20808248.255   109348085.93149      1306.319    20808251.364    85206311.87548
      1017.905  
  21546509.826   113227668.57949     -2687.582    21546508.640    88229357.72847
     -2094.223  
  21755840.626   114327710.13648     -2881.918    21755842.108    89086532.62947
     -2245.652  
  24445340.062   128461117.85146      2535.409    24445339.636   100099571.75344
      1975.652  
  24610561.984   129329376.93846      3335.063    24610567.069   100776151.91045
      2598.745  
  21787499.186   114494081.86749      2423.179    21787501.612    89216175.44148
      1888.191  
  19865445.863   106341286.73009      1485.258    19865448.589    82709902.57608
      1155.198  
  23412130.777   125370901.52204      3418.448    23412135.468    97510715.39504
      2658.788  
  20049856.808   106989877.74008     -1906.516    20049861.697    83214364.39207
     -1482.905  
  20895734.991   111542847.02508     -2481.112    20895740.529    86755574.51007
     -1929.757  
  20981779.451   112080899.40208      1675.698    20981784.775    87174054.78807
      1303.319  
  22229770.458   118789155.06307     -2012.777    22229774.540    92391579.23406
     -1565.495  
  21271557.948   113788505.03005      1401.020    21271561.659    88502171.53706
      1089.684  
  23353964.959   124971779.18206     -4587.218    23353970.780    97200295.27305
     -3567.844  
 20 09 28 07 47 15.0000000  0 16G20G24G15G18G21G32G10G13R 3R 4R 2R18
                                R12R11R19R17
  19968710.794   104936283.73549       392.656    19968709.978    81768529.77448
       305.961  
  20807007.003   109341563.07949      1302.996    20807010.107    85201229.13548
      1015.319  
  21549067.747   113241110.44849     -2689.027    21549066.510    88239831.90347
     -2095.351  
  21758583.722   114342125.54648     -2884.063    21758585.229    89097765.40747
     -2247.323  
  24442928.332   128448444.81046      2533.870    24442928.112   100089696.65443
      1974.448  
  24607389.167   129312703.89446      3334.741    24607394.251   100763159.93845
      2598.500  
  21785194.461   114481970.48849      2421.762    21785196.894    89206738.00748
      1887.086  
  24236212.904   127362158.46654     -3534.660    24236213.291    99243247.51555
     -2754.297  
  19864059.372   106333864.61009      1483.499    19864062.097    82704129.81608
      1153.831  
  23408938.750   125353809.64403      3419.035    23408943.718    97497421.70904
      2659.245  
  20051644.091   106999415.08608     -1908.313    20051649.006    83221782.32907
     -1484.242  
  20898060.906   111555262.85608     -2484.922    20898066.483    86765231.25607
     -1932.722  
  20980212.932   112072531.08708      1671.601    20980218.254    87167546.09707
      1300.129  
  22231655.771   118799228.91507     -2016.655    22231659.724    92399414.44906
     -1568.515  
  21270250.527   113781511.49005      1396.465    21270254.299    88496732.12106
      1086.141  
  23358251.331   124994716.29805     -4587.601    23358256.922    97218135.24005
     -3568.136  
 20 09 28 07 47 20.0000000  0 15G20G24G15G18G21G32G10G13R 3R 2R18R12
                                R11R19R17
  19968338.460   104934327.04549       389.922    19968337.609    81767005.07848
       303.831  
  20805768.910   109335056.79349      1299.469    20805772.019    85196159.31148
      1012.573  
  21551627.050   113254559.61649     -2690.523    21551625.831    88250311.77047
     -2096.516  
  21761328.874   114356551.60748     -2886.461    21761330.378    89109006.48947
     -2249.195  
  24440517.916   128435779.08146      2531.937    24440517.891   100079827.26244
      1972.940  
  24604216.845   129296033.13347      3334.031    24604222.119   100750169.74345
      2597.944  
  21782890.971   114469865.65849      2420.218    21782893.438    89197305.67848
      1885.883  
  24239576.317   127379832.91444     -3535.409    24239582.706    99257019.80443
     -2754.870  
  19862674.711   106326452.28609      1481.440    19862677.444    82698364.68208
      1152.229  
  20053432.933   107008960.97408     -1910.109    20053437.940    83229206.91107
     -1485.672  
  20900390.336   111567697.48008     -2488.854    20900395.897    86774902.62107
     -1935.781  
  20978650.219   112064183.38608      1667.371    20978655.583    87161053.43507
      1296.839  
  22233544.608   118809321.97507     -2020.190    22233548.614    92407264.60106
     -1571.266  
  21268947.462   113774540.12905      1391.843    21268951.048    88491309.95906
      1082.546  
  23362538.042   125017655.16906     -4588.011    23362543.406    97235976.56405
     -3568.460  
 20 09 28 07 47 25.0000000  0 15G20G24G15G18G21G32G10G13R 3R 2R18R12
                                R11R19R17
  19967968.708   104932383.91849       386.891    19967967.836    81765490.95348
       301.473  
  20804534.135   109328567.88149      1295.784    20804537.206    85191103.02148
      1009.703  
  21554187.871   113268016.82149     -2692.577    21554186.667    88260797.90147
     -2098.117  
  21764076.174   114370989.07748     -2889.069    21764077.697    89120256.45747
     -2251.227  
  24438109.065   128423121.39246      2530.011    24438109.308   100069964.14544
      1971.437  
  24601045.059   129279365.37947      3332.644    24601050.420   100737181.88444
      2596.867  
  21780588.886   114457768.18449      2418.336    21780591.359    89187879.07948
      1884.418  
  24242940.151   127397509.38944     -3536.035    24242944.263    99270815.75553
     -2755.352  
  19861292.051   106319050.51709      1478.874    19861294.755    82692607.75408
      1150.234  
  20055223.566   107018516.25608     -1912.444    20055228.604    83236638.80207
     -1487.480  
  20902723.436   111580151.63008     -2493.188    20902728.946    86784589.17207
     -1939.147  
  20977091.498   112055857.04308      1662.694    20977096.911    87154577.38807
      1293.202  
  22235437.210   118819435.02807     -2024.762    22235441.257    92415130.29106
     -1574.819  
  21267648.602   113767591.63605      1386.675    21267652.101    88485905.57706
      1078.526  
  23366825.304   125040596.67006     -4588.976    23366830.401    97253819.95305
     -3569.262  
 20 09 28 07 47 30.0000000  0 15G20G24G15G18G21G32G10G13R 3R 2R18R12
                                R11R19R17
  19967601.516   104930454.18849       385.121    19967600.636    81763987.26548
       300.089  
  20803302.635   109322096.24149      1292.984    20803305.649    85186060.18648
      1007.519  
  21556750.189   113281481.89249     -2693.312    21556748.992    88271290.16247
     -2098.688  
  21766825.611   114385437.75148     -2890.354    21766827.133    89131515.15947
     -2252.230  
  24435701.755   128410471.64246      2529.804    24435702.150   100060107.20344
      1971.277  
  24597873.820   129262700.34647      3333.558    24597879.260   100724196.17245
      2597.582  
  21778288.164   114445677.86949      2417.827    21778290.642    89178458.06148
      1884.023  
  24246304.256   127415187.78744     -3535.703    24246309.116    99284591.10744
     -2755.081  
  19859911.284   106311658.94709      1477.793    19859913.978    82686858.75808
      1149.395  
  20057015.996   107028080.91208     -1913.500    20057021.026    83244077.98507
     -1488.276  
  20905060.179   111592625.19908     -2496.151    20905065.617    86794290.81907
     -1941.457  
  20975536.803   112047551.92108      1659.530    20975542.177    87148117.85907
      1290.746  
  22237333.445   118829567.86807     -2027.897    22237337.614    92423011.38206
     -1577.258  
  21266353.993   113760665.88205      1383.598    21266357.390    88480518.88106
      1076.128  
  23371112.926   125063540.54206     -4588.487    23371117.820    97271665.16805
     -3568.828  
 20 09 28 07 47 35.0000000  0 16G20G24G15G18G21G32G 8G10G13R 3R 2R18
                                R12R11R19R17
  19967236.725   104928537.20049       381.819    19967235.829    81762493.50648
       297.520  
  20802074.293   109315641.10649      1289.062    20802077.241    85181030.21748
      1004.464  
  21559313.865   113294954.13249     -2695.519    21559312.643    88281788.00847
     -2100.409  
  21769577.066   114399896.99248     -2893.351    21769578.572    89142782.09047
     -2254.563  
  24433295.867   128397829.17747      2527.563    24433296.447   100050255.93844
      1969.527  
  24594703.004   129246037.49847      3332.077    24594708.453   100711212.15344
      2596.429  
  24641556.742   129492254.21054      -111.289    24641555.179   100903048.25853
       -86.702  
  21775988.702   114433594.08649      2415.784    21775991.167    89169042.12748
      1882.430  
  24249668.659   127432867.43404     -3535.887           0.000           0.0000 
         0.000  
  19858532.313   106304277.11209      1475.167    19858535.005    82681117.33308
      1147.351  
  20058809.941   107037653.74708     -1915.668    20058814.992    83251523.51807
     -1489.968  
  20907400.355   111605117.34408     -2500.520    20907405.759    86804006.91107
     -1944.852  
  20973985.950   112039267.35508      1654.390    20973991.290    87141674.31007
      1286.749  
  22239233.238   118839719.82207     -2032.464    22239237.537    92430907.32906
     -1580.809  
  21265063.559   113753762.27405      1378.586    21265066.803    88475149.40706
      1072.234  
  23375400.852   125086486.09906     -4589.862    23375405.590    97289511.69205
     -3569.901  
 20 09 28 07 47 40.0000000  0 16G20G24G15G18G21G32G 8G10G13R 3R 2R18
                                R12R11R19R17
  19966874.784   104926635.12449       379.266    19966873.883    81761011.36848
       295.527  
  20800849.492   109309204.70249      1285.961    20800852.412    85176014.84148
      1002.047  
  21561879.311   113308435.73849     -2696.938    21561878.105    88292293.14747
     -2101.512  
  21772330.937   114414368.93448     -2895.296    21772332.431    89154058.93047
     -2255.996  
  24430891.806   128385196.15847      2526.109    24430892.491   100040412.04744
      1968.398  
  24591533.079   129229379.02447      3331.312    24591538.440   100698231.51044
      2595.823  
  24641664.256   129492822.85544      -115.507    24641662.936   100903491.28646
       -90.019  
  21773690.895   114421518.99649      2414.601    21773693.356    89159632.97448
      1881.508  
  24253033.719   127450550.66144     -3536.758    24253037.120    99312134.56555
     -2755.879  
  19857155.532   106296907.00309      1473.194    19857158.207    82675385.02808
      1145.820  
  20060605.994   107047237.79708     -1917.565    20060611.076    83258977.77807
     -1491.440  
  20909744.487   111617630.35208     -2504.336    20909749.834    86813739.24107
     -1947.819  
  20972439.379   112031005.63408      1650.453    20972444.642    87135248.53407
      1283.687  
  22241137.000   118849893.10107     -2036.527    22241141.405    92438819.85606
     -1583.972  
  21263777.601   113746883.01305      1374.180    21263780.749    88469798.88606
      1068.804  
  23379689.606   125109435.55606     -4590.179    23379694.069    97307361.25505
     -3570.145  
 20 09 28 07 47 45.0000000  0 15G20G24G15G18G21G32G10G13R 3R 2R18R12
                                R11R19R17
  19966515.006   104924744.32149       377.065    19966514.090    81759538.01348
       293.813  
  20799627.597   109302783.56949      1282.991    20799630.481    85171011.36248
       999.730  
  21564445.850   113321923.14549     -2698.008    21564444.642    88302802.81447
     -2102.348  
  21775086.546   114428849.94148     -2896.859    21775088.017    89165342.81447
     -2257.339  
  24428488.860   128372568.96647      2524.699    24428489.576   100030572.67044
      1967.300  
  24588363.241   129212721.22847      3331.758    24588368.635   100685251.40544
      2596.171  
  21771394.057   114409448.99949      2413.570    21771396.512    89150227.77948
      1880.698  
  24256398.717   127468233.59644     -3536.835    24256402.775    99325913.42144
     -2755.992  
  19855780.297   106289545.26309      1471.625    19855782.948    82669659.22508
      1144.593  
  20062403.337   107056828.70608     -1918.594    20062408.453    83266437.37108
     -1492.242  
  20912091.785   111630160.45308     -2507.593    20912097.127    86823484.86507
     -1950.355  
  20970896.371   112022763.06808      1646.762    20970901.560    87128837.66207
      1280.816  
  22243044.116   118860083.99607     -2039.949    22243048.552    92446746.10806
     -1586.632  
  21262495.238   113740024.36204      1369.163    21262498.600    88464464.39506
      1064.906  
  23383978.335   125132385.16106     -4589.711    23383982.605    97325210.93505
     -3569.776  
 20 09 28 07 47 50.0000000  0 15G20G24G15G18G21G32G10G13R 3R 2R18R12
                                R11R19R17
  19966157.641   104922866.29149       373.750    19966156.727    81758074.60948
       291.229  
  20798408.881   109296379.07949      1278.691    20798411.755    85166020.85248
       996.382  
  21567013.768   113335417.70649     -2700.194    21567012.558    88313318.06247
     -2104.046  
  21777844.185   114443341.49748     -2899.976    21777845.645    89176634.93347
     -2259.727  
  24426087.309   128359949.04547      2522.918    24426088.016   100020738.99243
      1965.913  
  24585193.831   129196065.61347      3330.293    24585199.123   100672273.03445
      2595.034  
  21769098.467   114397385.56149      2411.266    21769100.909    89140827.70148
      1878.905  
  24259764.022   127485917.77244     -3537.039    24259767.615    99339693.25343
     -2756.147  
  19854406.841   106282193.13809      1468.887    19854409.503    82663940.90808
      1142.464  
  20064202.315   107066428.17908     -1921.457    20064207.426    83273903.62007
     -1494.469  
  20914442.569   111642709.22208     -2512.136    20914447.949    86833245.01607
     -1953.887  
  20969357.203   112014541.16808      1641.823    20969362.307    87122442.85707
      1276.972  
  22244954.754   118870294.08406     -2044.738    22244959.290    92454687.28406
     -1590.354  
  21261217.146   113733187.90105      1364.551    21261220.628    88459147.15406
      1061.316  
  23388267.365   125155336.43906     -4590.969    23388271.601    97343061.89905
     -3570.761  
 20 09 28 07 47 55.0000000  0 15G20G24G15G18G21G32G10G13R 3R 2R18R12
                                R11R19R17
  19965805.114   104921013.65549       367.788    19965804.206    81756630.99948
       286.586  
  20797195.737   109290003.83849      1271.933    20797198.559    85161053.14248
       991.116  
  21569585.430   113348932.01049     -2704.887    21569584.268    88323848.69047
     -2107.706  
  21780606.225   114457856.17748     -2905.394    21780607.655    89187945.05847
     -2263.948  
  24423689.539   128347349.08447      2517.667    24423690.256   100010920.85044
      1961.820  
  24582027.273   129179424.83347      3326.616    24582032.359   100659306.22745
      2592.172  
  21766806.523   114385341.28349      2406.602    21766808.943    89131442.54848
      1875.273  
  24263131.953   127503615.86744     -3541.691    24263134.939    99353483.97642
     -2759.781  
  19853037.622   106274863.53909      1463.547    19853040.301    82658240.10408
      1138.308  
  20066005.299   107076049.18408     -1926.527    20066010.397    83281386.61907
     -1498.414  
  20916799.225   111655289.36608     -2519.402    20916804.678    86843029.56807
     -1959.539  
  20967824.309   112006352.75708      1634.273    20967829.291    87116074.09407
      1271.102  
  22246871.356   118880536.01306     -2051.601    22246876.000    92462653.21606
     -1595.694  
  21259945.530   113726386.42205      1356.694    21259949.168    88453857.10606
      1055.203  
  23392559.090   125178302.20206     -4594.628    23392563.253    97360924.14205
     -3573.605  
 20 09 28 07 48  0.0000000  0 15G20G24G15G18G21G32G10G13R 3R 2R18R12
                                R11R19R17
  19965454.410   104919170.60349       368.851    19965453.507    81755194.85048
       287.414  
  20795985.098   109283641.88849      1272.219    20795987.861    85156095.78748
       991.340  
  21572157.820   113362450.25949     -2702.925    21572156.741    88334382.38247
     -2106.179  
  21783369.653   114472378.18248     -2904.023    21783371.029    89199260.89747
     -2262.879  
  24421292.600   128334753.23947      2519.983    24421293.231   100001105.93144
      1963.629  
  24578860.542   129162783.01947      3329.645    24578865.475   100646338.55744
      2594.526  
  21764515.244   114373300.40649      2408.870    21764517.612    89122060.05448
      1877.043  
  24266499.593   127521312.02804     -3537.406           0.000           0.0000 
         0.000  
  19851669.599   106267540.34309      1465.184    19851672.273    82652544.28208
      1139.582  
  20067809.231   107085675.40408     -1924.695    20067814.322    83288873.67307
     -1496.988  
  20919158.848   111667884.98008     -2519.609    20919164.296    86852826.14507
     -1959.699  
  20966294.674   111998181.75208      1633.612    20966299.558    87109718.87507
      1270.590  
  22248790.903   118890793.77206     -2051.801    22248795.712    92470631.47206
     -1595.847  
  21258677.441   113719603.97205      1355.952    21258681.279    88448581.88106
      1054.629  
  23396850.439   125201266.29606     -4591.022    23396854.669    97378785.08705
     -3570.937  
 20 09 28 07 48  5.0000000  0 14G20G24G15G18G21G32G10R 3R 2R18R12R11
                                R19R17
  19965101.515   104917316.09349       369.933    19965100.651    81753749.77648
       288.257  
  20794773.021   109277272.25349      1272.461    20794775.715    85151132.44148
       991.526  
  21574726.949   113375951.40249     -2700.741    21574725.968    88344902.74947
     -2104.477  
  21786130.461   114486886.41948     -2902.516    21786131.830    89210566.00947
     -2261.781  
  24418892.446   128322140.46947      2522.015    24418893.152    99991277.79045
      1965.206  
  24575689.574   129146119.19147      3332.862    24575694.465   100633353.76745
      2597.035  
  21762220.589   114361241.85149      2411.163    21762222.923    89112663.77948
      1878.827  
  19850298.781   106260202.15209      1466.805    19850301.392    82646836.80008
      1140.844  
  20069610.162   107095285.48308     -1922.788    20069615.209    83296348.17807
     -1495.507  
  20921517.311   111680474.45708     -2519.702    20921522.765    86862617.95407
     -1959.772  
  20964764.305   111990006.73608      1633.043    20964769.104    87103360.53507
      1270.145  
  22250709.396   118901045.95906     -2051.937    22250714.332    92478605.37706
     -1595.956  
  21257408.931   113712819.04604      1355.016    21257412.928    88443304.70106
      1053.898  
  23401137.524   125224207.35806     -4588.180    23401141.835    97396628.12605
     -3568.590  
 20 09 28 07 48 10.0000000  0 14G20G24G15G18G21G32G10R 3R 2R18R12R11
                                R19R17
  19964752.939   104915484.28249       363.383    19964752.107    81752322.39348
       283.156  
  20793565.992   109270929.12049      1265.250    20793568.622    85146189.75048
       985.910  
  21577299.313   113389469.61249     -2705.938    21577298.459    88355436.41847
     -2108.526  
  21788895.161   114501415.07848     -2908.508    21788896.493    89221887.02847
     -2266.375  
  24416495.601   128309544.99447      2516.234    24416496.276    99981463.14144
      1960.699  
  24572520.918   129129467.47447      3328.210    24572525.666   100620378.41045
      2593.409  
  21759929.072   114349199.81549      2406.109    21759931.377    89103280.37447
      1874.890  
  19848931.642   106252883.74809      1461.164    19848934.169    82641144.70408
      1136.457  
  20071414.560   107104914.22508     -1928.406    20071419.606    83303837.19007
     -1499.874  
  20923881.180   111693092.63808     -2527.152    20923886.610    86872432.08007
     -1965.566  
  20963239.682   111981862.44108      1625.055    20963244.477    87097026.09107
      1263.929  
  22252633.417   118911327.31607     -2060.035    22252638.393    92486601.98606
     -1602.254  
  21256146.460   113706066.39904      1345.995    21256150.592    88438052.64606
      1046.882  
  23405426.710   125247159.99806     -4592.551    23405431.164    97414480.16806
     -3571.988  
 20 09 28 07 48 15.0000000  0 14G20G24G15G18G21G32G10R 3R 2R18R12R11
                                R19R17
  19964408.372   104913673.60249       362.042    19964407.584    81750911.47048
       282.108  
  20792363.748   109264611.06549      1263.141    20792366.300    85141266.60048
       984.266  
  21579874.640   113403003.32849     -2706.206    21579873.853    88365982.16747
     -2108.737  
  21791663.480   114515962.53648     -2909.316    21791664.789    89233222.70547
     -2267.003  
  24414101.773   128296965.19047      2516.582    24414102.400    99971660.71344
      1961.026  
  24569354.264   129112826.28647      3329.237    24569358.917   100607411.25944
      2594.211  
  21757640.391   114337172.71749      2406.073    21757642.667    89093908.61648
      1874.862  
  19847567.905   106245583.59109      1460.453    19847570.335    82635466.81008
      1135.905  
  20073222.189   107114560.11008     -1928.772    20073227.262    83311339.53708
     -1500.159  
  20926250.076   111705737.80708     -2529.632    20926255.519    86882267.20207
     -1967.496  
  20961720.451   111973747.32308      1622.237    20961725.379    87090714.33607
      1261.741  
  22254562.619   118921636.16707     -2062.598    22254567.561    92494619.98206
     -1604.245  
  21254889.780   113699344.44704      1343.272    21254893.973    88432824.46606
      1044.770  
  23409717.830   125270122.77406     -4591.323    23409722.447    97432340.09106
     -3571.035  
 20 09 28 07 48 20.0000000  0 14G20G24G15G18G21G32G10R 3R 2R18R12R11
                                R19R17
  19964066.239   104911875.81049       358.000    19964065.515    81749510.60048
       278.956  
  20791164.685   109258309.75949      1258.449    20791167.149    85136356.49548
       980.608  
  21582451.337   113416544.24449     -2709.093    21582450.628    88376533.53347
     -2110.980  
  21794433.792   114530520.56248     -2912.961    21794435.102    89244566.61347
     -2269.844  
  24411709.357   128284392.86447      2513.487    24411710.053    99961864.07744
      1958.562  
  24566188.025   129096187.43147      3327.339    24566192.758   100594445.92745
      2592.734  
  21755352.981   114325152.32549      2402.996    21755355.232    89084542.07848
      1872.460  
  19846206.010   106238293.29009      1456.926    19846208.356    82629796.57608
      1133.163  
  20075031.404   107124214.42808     -1931.977    20075036.522    83318848.45007
     -1502.652  
  20928622.445   111718401.54808     -2534.933    20928627.915    86892116.77207
     -1971.616  
  20960205.147   111965652.99708      1616.683    20960210.178    87084418.74607
      1257.418  
  22256495.386   118931964.19207     -2067.854    22256500.304    92502652.89606
     -1608.335  
  21253637.262   113692644.75504      1337.738    21253641.526    88427613.58306
      1040.460  
  23414009.317   125293087.14107     -4592.976    23414014.049    97450201.24906
     -3572.320  
 20 09 28 07 48 25.0000000  0 14G20G24G15G18G21G32G10R 3R 2R18R12R11
                                R19R17
  19963726.544   104910090.79149       355.793    19963725.882    81748119.67248
       277.238  
  20789968.775   109252025.08549      1255.375    20789971.171    85131459.35348
       978.215  
  21585029.393   113430092.30249     -2710.140    21585028.722    88387090.46247
     -2111.801  
  21797206.109   114545089.03048     -2914.694    21797207.423    89255918.64847
     -2271.195  
  24409318.338   128271827.88047      2512.258    24409319.088    99952073.19544
      1957.601  
  24563022.245   129079550.76947      3326.979    24563027.027   100581482.32044
      2592.452  
  21753066.800   114313138.52249      2402.168    21753069.051    89075180.67247
      1871.820  
  19844845.924   106231012.64609      1455.207    19844848.218    82624133.85508
      1131.823  
  20076842.256   107133877.47808     -1933.480    20076847.433    83326364.15607
     -1503.819  
  20930998.302   111731083.75808     -2538.168    20931003.778    86901980.70207
     -1974.133  
  20958693.721   111957579.44908      1612.624    20958698.875    87078139.31507
      1254.262  
  22258431.609   118942311.12406     -2071.210    22258436.537    92510700.50306
     -1610.945  
  21252388.966   113685967.24604      1333.160    21252393.237    88422419.96906
      1036.902  
  23418301.109   125316053.10107     -4593.671    23418306.011    97468063.65506
     -3572.859  
 20 09 28 07 48 30.0000000  0 14G20G24G15G18G21G32G10R 3R 2R18R12R11
                                R19R17
  19963389.023   104908317.26249       353.383    19963388.437    81746737.70448
       275.359  
  20788775.778   109245755.78249      1252.077    20788778.118    85126574.19048
       975.645  
  21587608.563   113443646.21348     -2711.511    21587607.939    88397651.95447
     -2112.870  
  21799980.139   114559666.62648     -2916.620    21799981.508    89267277.81247
     -2272.694  
  24406928.442   128259268.98847      2510.840    24406929.239    99942287.06844
      1956.499  
  24559856.608   129062915.01447      3327.003    24559861.333   100568519.39545
      2592.469  
  21750781.632   114301130.04149      2400.862    21750783.875    89065823.41547
      1870.800  
  19843487.375   106223740.34809      1453.480    19843489.707    82618477.62308
      1130.483  
  20078654.420   107143547.66108     -1934.828    20078659.646    83333885.41707
     -1504.866  
  20933377.354   111743783.17308     -2541.605    20933382.872    86911858.01707
     -1976.808  
  20957185.924   111949525.28608      1608.750    20957191.186    87071874.96707
      1251.250  
  22260371.176   118952675.74007     -2074.703    22260376.094    92518761.86206
     -1613.660  
  21251144.549   113679310.67304      1329.348    21251148.893    88417242.64006
      1033.938  
  23422592.949   125339019.16906     -4593.257    23422597.975    97485926.12906
     -3572.542  
 20 09 28 07 48 35.0000000  0 15G20G24G15G18G21G32G 8G10R 3R 2R18R12
                                R11R19R17
  19963054.389   104906558.84349       350.151    19963053.836    81745367.50748
       272.844  
  20787586.374   109239505.32849      1248.297    20787588.675    85121703.71048
       972.694  
  21590189.528   113457209.55448     -2713.593    21590188.934    88408220.79247
     -2114.492  
  21802756.608   114574256.94248     -2919.344    21802757.997    89278646.88347
     -2274.815  
  24404540.411   128246719.73547      2508.797    24404541.154    99932508.41444
      1954.901  
  24556691.832   129046283.81647      3325.754    24556696.545   100555560.02545
      2591.495  
  24643041.231   129500055.38154      -150.058    24643044.542   100909146.95155
      -116.929  
  21748498.089   114289130.21949      2398.991    21748500.332    89056472.90747
      1869.339  
  19842131.096   106216480.14609      1450.797    19842133.491    82612830.79408
      1128.395  
  20080468.633   107153228.55308     -1937.262    20080473.821    83341415.01007
     -1506.757  
  20935760.275   111756503.45908     -2546.140    20935765.861    86921751.56107
     -1980.335  
  20955682.389   111941494.14308      1603.897    20955687.745    87065628.51307
      1247.472  
  22262314.783   118963061.75607     -2079.022    22262319.710    92526839.87206
     -1617.022  
  21249904.851   113672678.78304      1324.026    21249909.132    88412084.50806
      1029.801  
  23426885.424   125361989.04007     -4594.351    23426890.606    97503791.57006
     -3573.390  
 20 09 28 07 48 40.0000000  0 16G20G24G15G18G21G32G 8G10R 3R 4R 2R18
                                R12R11R19R17
  19962722.542   104904815.06949       347.082    19962722.038    81744008.72248
       270.449  
  20786400.502   109233273.40349      1244.312    20786402.743    85116847.67548
       969.594  
  21592772.173   113470781.79148     -2715.480    21592771.629    88418796.56047
     -2115.960  
  21805535.425   114588859.50848     -2921.800    21805536.855    89290025.49847
     -2276.730  
  24402154.155   128234179.75047      2506.886    24402154.906    99922737.00344
      1953.414  
  24553527.741   129029656.62646      3324.988    24553532.558   100542603.77545
      2590.898  
  24643184.653   129500810.19244      -152.281    24643188.674   100909737.24152
      -118.659  
  21746216.210   114277139.11849      2397.312    21746218.441    89047129.19448
      1868.035  
  19840776.998   106209231.48909      1448.500    19840779.420    82607192.95308
      1126.608  
  23354739.811   125063570.13414      3410.612    23354743.363    97271680.27113
      2652.698  
  20082284.783   107162919.91108     -1939.507    20082289.932    83348952.73507
     -1508.508  
  20938147.043   111769243.97208     -2550.215    20938152.662    86931660.84607
     -1983.503  
  20954183.136   111933485.62108      1599.465    20954188.525    87059399.66007
      1244.023  
  22264262.303   118973468.58507     -2083.688    22264267.267    92534934.07606
     -1620.644  
  21248669.708   113666070.90905      1319.456    21248673.868    88406945.05606
      1026.245  
  23431178.560   125384962.22706     -4595.473    23431183.865    97521659.59306
     -3574.261  
 20 09 28 07 48 45.0000000  0 16G20G24G15G18G21G32G 8G10R 3R 4R 2R18
                                R12R11R19R17
  19962393.123   104903083.99349       344.902    19962392.639    81742659.82948
       268.749  
  20785217.788   109227058.10249      1241.383    20785219.983    85112004.59548
       967.312  
  21595356.152   113484361.00548     -2716.621    21595355.654    88429377.77147
     -2116.847  
  21808316.190   114603472.36748     -2923.437    21808317.665    89301412.13647
     -2278.152  
  24399769.314   128221647.04347      2505.663    24399770.033    99912971.28344
      1952.468  
  24550364.109   129013031.59446      3324.933    24550368.966   100529649.24045
      2590.858  
  24643330.720   129501579.96404      -155.043           0.000           0.0000 
         0.000  
  21743935.589   114265154.55849      2396.108    21743937.848    89037790.57948
      1867.098  
  19839424.655   106201992.41909      1446.773    19839427.148    82601562.57408
      1125.269  
  23351555.797   125046518.69704      3409.065    23351559.161    97258418.05603
      2651.495  
  20084102.525   107172619.72708     -1940.895    20084107.658    83356497.03507
     -1509.590  
  20940537.237   111782002.86208     -2553.699    20940542.911    86941584.41007
     -1986.214  
  20952687.732   111925497.75208      1595.363    20952693.113    87053186.87907
      1240.839  
  22266213.298   118983894.17207     -2086.938    22266218.341    92543042.86606
     -1623.175  
  21247438.608   113659485.20205      1314.816    21247442.794    88401822.84506
      1022.637  
  23435471.860   125407936.79107     -4594.921    23435477.335    97539528.68006
     -3573.835  
 20 09 28 07 48 50.0000000  0 16G20G24G15G18G21G32G 8G10R 3R 4R 2R18
                                R12R11R19R17
  19962066.256   104901366.41849       342.363    19962065.789    81741321.46448
       266.772  
  20784038.392   109220860.18049      1237.984    20784040.551    85107175.05048
       964.663  
  21597941.605   113497947.90048     -2717.894    21597941.131    88439964.96047
     -2117.839  
  21811099.035   114618096.29048     -2925.780    21811100.572    89312807.39647
     -2279.766  
  24397386.000   128209122.39547      2504.063    24397386.695    99903211.82044
      1951.218  
  24547201.014   128996409.48446      3324.429    24547205.772   100516696.95945
      2590.465  
  24643479.860   129502365.54403      -158.691           0.000           0.0000 
         0.000  
  21741656.392   114253177.29849      2394.874    21741658.630    89028457.65648
      1866.136  
  19838074.287   106194763.79109      1444.858    19838076.817    82595940.31008
      1123.781  
  23348372.286   125029469.66904      3409.886    23348375.767    97245157.67803
      2652.129  
  20085921.922   107182328.50508     -1942.468    20085927.101    83364048.30307
     -1510.813  
  20942930.987   111794780.80208     -2557.491    20942936.730    86951522.79707
     -1989.164  
  20951196.410   111917531.44308      1591.526    20951201.728    87046990.86207
      1237.855  
  22268167.926   118994339.39607     -2090.854    22268173.067    92551166.92906
     -1626.227  
  21246211.795   113652922.32905      1310.468    21246215.979    88396718.39006
      1019.253  
  23439765.565   125430913.39707     -4595.492    23439771.151    97557399.36406
     -3574.277  
 20 09 28 07 48 55.0000000  0 16G20G24G15G18G21G32G 8G10R 3R 4R 2R18
                                R12R11R19R17
  19961741.359   104899659.16649       340.116    19961740.918    81739991.14148
       265.026  
  20782861.666   109214676.32049      1235.210    20782863.821    85102356.47548
       962.503  
  21600527.910   113511539.34048     -2718.863    21600527.481    88450555.69547
     -2118.593  
  21813883.396   114632728.08048     -2927.308    21813884.974    89324208.77247
     -2281.015  
  24395003.624   128196602.64147      2503.229    24395004.313    99893456.17744
      1950.569  
  24544037.841   128979787.08446      3324.094    24544042.657   100503744.43845
      2590.203  
  24643631.348   129503163.65243      -161.601    24643632.406   100911568.12352
      -125.925  
  21739377.993   114241204.16649      2394.089    21739380.235    89019127.94648
      1865.522  
  19836725.203   106187542.22809      1443.397    19836727.808    82590323.54608
      1122.645  
  23345188.068   125012419.82704      3409.468    23345191.938    97231896.67603
      2651.804  
  20087742.449   107192043.40408     -1943.733    20087747.698    83371604.33207
     -1511.797  
  20945327.728   111807574.67308     -2560.352    20945333.555    86961473.57107
     -1991.387  
  20949708.559   111909583.32808      1587.676    20949713.780    87040809.00107
      1234.858  
  22270125.688   119004801.08007     -2094.336    22270130.852    92559303.79806
     -1628.929  
  21244988.795   113646379.38305      1306.573    21244992.875    88391629.43506
      1016.222  
  23444059.073   125453888.79607     -4594.851    23444064.810    97575269.11706
     -3573.776  
 20 09 28 07 49  0.0000000  0 15G20G24G15G18G21G32G10R 3R 4R 2R18R12
                                R11R19R17
  19961419.160   104897966.09449       336.800    19961418.708    81738671.86648
       262.438  
  20781688.388   109208510.54549      1230.992    20781690.516    85097551.98648
       959.214  
  21603115.831   113525139.17248     -2721.254    21603115.451    88461152.96847
     -2120.457  
  21816669.981   114647371.58748     -2930.315    21816671.608    89335619.29347
     -2283.366  
  24392622.852   128184091.69447      2500.953    24392623.524    99883707.36944
      1948.788  
  24540875.384   128963168.28946      3323.133    24540880.184   100490794.73244
      2589.453  
  21737101.133   114229239.06449      2391.941    21737103.360    89009804.49448
      1863.852  
  19835378.232   106180331.85009      1440.663    19835380.910    82584715.48008
      1120.515  
  23342004.228   124995373.22504      3409.449    23342008.659    97218638.21203
      2651.789  
  20089564.829   107201768.10008     -1946.379    20089570.131    83379167.98007
     -1513.788  
  20947728.107   111820388.27608     -2564.930    20947734.048    86971439.69707
     -1994.949  
  20948224.796   111901657.36208      1582.597    20948230.024    87034644.36607
      1230.909  
  22272087.225   119015283.00107     -2098.651    22272092.409    92567456.40606
     -1632.284  
  21243770.025   113639860.13205      1301.351    21243774.133    88386558.90706
      1012.159  
  23448353.144   125476867.05006     -4596.487    23448358.931    97593141.07106
     -3575.055  
 20 09 28 07 49  5.0000000  0 15G20G24G15G18G21G32G10R 3R 4R 2R18R12
                                R11R19R17
  19961099.899   104896288.36949       334.320    19961099.422    81737364.53948
       260.503  
  20780518.735   109202363.85049      1227.858    20780520.857    85092762.36648
       956.772  
  21605705.583   113538748.56748     -2722.483    21605705.256    88471757.69447
     -2121.421  
  21819458.987   114662027.94648     -2932.145    21819460.672    89347039.82447
     -2284.793  
  24390244.000   128171590.65047      2499.598    24390244.469    99873966.31945
      1947.738  
  24537713.816   128946554.23346      3322.496    24537718.714   100477848.72745
      2588.957  
  21734826.033   114217283.14649      2390.690    21734828.286    89000488.19748
      1862.875  
  19834033.525   106173133.74309      1438.922    19834036.313    82579116.96008
      1119.125  
  23338821.583   124978331.12104      3407.722    23338826.415    97205383.24404
      2650.448  
  20091389.319   107211503.89308     -1947.809    20091394.611    83386740.25007
     -1514.964  
  20950132.410   111833222.76708     -2568.738    20950138.464    86981422.08207
     -1997.906  
  20946745.446   111893754.69208      1578.569    20946750.613    87028497.84607
      1227.777  
  22274052.769   119025786.43207     -2102.878    22274057.973    92575625.73206
     -1635.577  
  21242555.880   113633365.65004      1296.671    21242559.954    88381507.65006
      1008.523  
  23452647.903   125499849.14206     -4596.273    23452653.743    97611016.02706
     -3574.882  
 20 09 28 07 49 10.0000000  0 15G20G24G15G18G21G32G10R 3R 4R 2R18R12
                                R11R19R17
  19960783.098   104894623.56849       331.734    19960782.584    81736067.29848
       258.496  
  20779352.274   109196233.96349      1224.355    20779354.419    85087985.84248
       954.042  
  21608296.695   113552365.10849     -2723.938    21608296.444    88482367.98747
     -2122.546  
  21822250.000   114676694.75348     -2934.441    21822251.738    89358468.49447
     -2286.581  
  24387866.560   128159097.14847      2498.113    24387866.938    99864231.13044
      1946.582  
  24534552.598   128929942.45046      3322.258    24534557.657   100464904.50845
      2588.777  
  21732552.191   114205333.99249      2389.340    21732554.483    88991177.16648
      1861.820  
  19832690.693   106165945.42709      1436.660    19832693.521    82573526.05108
      1117.402  
  23335639.534   124961290.79904      3408.343    23335644.495    97192129.66304
      2650.934  
  20093215.418   107221248.30908     -1949.737    20093220.695    83394319.24007
     -1516.468  
  20952540.138   111846075.69608     -2572.277    20952546.309    86991418.79707
     -2000.663  
  20945270.026   111885872.98008      1574.230    20945275.131    87022367.64907
      1224.402  
  22276021.909   119036308.85306     -2106.194    22276027.122    92583809.83206
     -1638.156  
  21241345.938   113626893.52605      1292.147    21241349.932    88376473.77806
      1005.000  
  23456942.948   125522832.70006     -4596.723    23456948.834    97628892.11206
     -3575.233  
 20 09 28 07 49 15.0000000  0 15G20G24G15G18G21G32G10R 3R 4R 2R18R12
                                R11R19R17
  19960468.622   104892970.92149       329.016    19960468.057    81734779.51648
       256.371  
  20778188.833   109190120.01049      1220.694    20778191.014    85083221.73448
       951.190  
  21610889.028   113565988.00448     -2725.578    21610888.864    88492983.23147
     -2123.832  
  21825042.830   114691371.20748     -2936.659    21825044.619    89369904.68747
     -2288.308  
  24385490.362   128146610.42847      2496.387    24385490.702    99854501.21645
      1945.238  
  24531391.685   128913332.33446      3321.645    24531396.908   100451961.58245
      2588.297  
  21730279.455   114193390.83849      2387.554    21730281.832    88981870.81948
      1860.433  
  19831349.537   106158766.24009      1434.676    19831352.395    82567942.23508
      1115.855  
  23332458.030   124944251.55104      3407.988    23332462.868    97178876.92104
      2650.656  
  20095042.980   107231000.59108     -1951.554    20095048.238    83401904.34407
     -1517.878  
  20954951.140   111858946.19608     -2576.262    20954957.417    87001429.18507
     -2003.761  
  20943798.314   111878011.42308      1569.945    20943803.430    87016253.10007
      1221.069  
  22277994.441   119046849.46707     -2110.121    22277999.662    92592008.08806
     -1641.210  
  21240140.095   113620443.01405      1287.144    21240144.018    88371456.71706
      1001.113  
  23461238.066   125545816.90206     -4597.378    23461243.981    97646768.70806
     -3575.741  
 20 09 28 07 49 20.0000000  0 15G20G24G15G18G21G32G10R 3R 4R 2R18R12
                                R11R19R17
  19960156.850   104891332.45749       326.039    19960156.237    81733502.79148
       254.050  
  20777028.867   109184024.25549      1217.164    20777031.079    85078471.80748
       948.441  
  21613482.951   113579619.25848     -2727.168    21613482.878    88503604.97547
     -2125.069  
  21827837.887   114706059.33148     -2939.047    21827839.727    89381349.96747
     -2290.172  
  24383115.877   128134132.55147      2494.672    24383116.248    99844778.19545
      1943.897  
  24528231.527   128896725.84447      3321.151    24528236.795   100439021.47944
      2587.914  
  21728008.263   114181455.70949      2385.819    21728010.670    88972570.72848
      1859.081  
  19830010.448   106151598.11709      1432.309    19830013.321    82562367.02708
      1114.016  
  23329276.668   124927215.53304      3406.437    23329281.791    97165626.72304
      2649.456  
  20096872.371   107240762.60308     -1953.511    20096877.595    83409497.01407
     -1519.401  
  20957365.977   111871836.50708     -2580.113    20957372.155    87011454.98507
     -2006.753  
  20942330.753   111870172.06808      1565.460    20942335.885    87010155.82007
      1217.582  
  22279970.790   119057410.35407     -2114.522    22279975.986    92600222.10206
     -1644.633  
  21238938.727   113614016.22505      1282.660    21238942.559    88366458.10106
       997.620  
  23465533.714   125568803.69107     -4597.609    23465539.705    97664647.30206
     -3575.921  
 20 09 28 07 49 25.0000000  0 15G20G24G15G18G21G32G10R 3R 4R 2R18R12
                                R11R19R17
  19959847.494   104889706.77749       323.792    19959846.841    81732236.02548
       252.301  
  20775872.051   109177945.20749      1214.089    20775874.290    85073734.88748
       946.043  
  21616078.203   113593257.45949     -2728.120    21616078.202    88514232.14047
     -2125.813  
  21830634.882   114720757.70248     -2940.804    21830636.792    89392803.23147
     -2291.539  
  24380742.821   128121662.05447      2493.469    24380743.200    99835060.92744
      1942.961  
  24525071.716   128880121.48646      3320.746    24525077.124   100426083.03044
      2587.598  
  21725738.318   114169527.22149      2384.992    21725740.764    88963275.81248
      1858.433  
  19828673.171   106144439.69609      1430.625    19828676.054    82556799.37008
      1112.707  
  23326095.475   124910181.23404      3407.081    23326100.928    97152377.85504
      2649.956  
  20098703.385   107250533.02708     -1954.972    20098708.559    83417096.22607
     -1520.581  
  20959784.158   111884744.98308     -2583.484    20959790.276    87021494.89807
     -2009.379  
  20940867.070   111862353.49108      1561.441    20940872.188    87004074.71507
      1214.452  
  22281950.646   119067989.97706     -2117.746    22281955.780    92608450.69506
     -1647.140  
  21237741.456   113607611.69404      1278.773    21237745.293    88361476.80106
       994.602  
  23469829.624   125591791.75206     -4597.272    23469835.646    97682526.89506
     -3575.659  
 20 09 28 07 49 30.0000000  0 15G20G24G15G18G21G32G10R 3R 4R 2R18R12
                                R11R19R17
  19959540.667   104888094.23549       321.336    19959539.954    81730979.49548
       250.387  
  20774718.462   109171883.14949      1210.777    20774720.736    85069011.21348
       943.461  
  21618674.889   113606902.95249     -2729.827    21618674.937    88524864.99447
     -2127.144  
  21833433.924   114735466.67248     -2942.843    21833435.840    89404264.76947
     -2293.082  
  24378371.289   128109199.38147      2491.987    24378371.547    99825349.77944
      1941.809  
  24521912.444   128863519.74646      3320.227    24521917.884   100413146.59544
      2587.188  
  21723469.697   114157605.76149      2383.676    21723472.156    88953986.36648
      1857.410  
  19827337.709   106137291.20608      1428.691    19827340.687    82551239.43708
      1111.202  
  23322914.398   124893149.05304      3406.145    23322920.449    97139130.64604
      2649.227  
  20100536.038   107260312.25708     -1956.741    20100541.190    83424702.29307
     -1521.914  
  20962205.789   111897672.09608     -2587.129    20962211.875    87031549.30907
     -2012.214  
  20939407.372   111854556.14508      1557.559    20939412.478    86998010.11007
      1211.434  
  22283934.119   119078588.74507     -2121.722    22283939.155    92616694.17306
     -1650.234  
  21236548.608   113601229.88705      1274.824    21236552.237    88356513.17706
       991.530  
  23474125.890   125614781.47206     -4597.761    23474131.772    97700407.78906
     -3576.039  
 20 09 28 07 49 35.0000000  0 15G20G24G15G18G21G32G10R 3R 4R 2R18R12
                                R11R19R17
  19959236.304   104886494.76549       318.273    19959235.547    81729733.15848
       247.999  
  20773568.096   109165837.99749      1207.086    20773570.390    85064300.71048
       940.586  
  21621272.930   113620555.68849     -2731.539    21621273.057    88535503.48747
     -2128.476  
  21836234.950   114750186.16048     -2945.145    21836236.848    89415734.49347
     -2294.914  
  24376001.207   128096744.42447      2489.984    24376001.447    99815644.61645
      1940.245  
  24518753.636   128846920.53546      3319.309    24518759.143   100400212.14144
      2586.469  
  21721202.435   114145691.24549      2381.824    21721204.883    88944702.32548
      1855.965  
  19826004.160   106130152.83109      1426.379    19826007.210    82545687.37208
      1109.405  
  23319734.274   124876118.97804      3404.832    23319740.372    97125885.05204
      2648.206  
  20102370.319   107270100.24308     -1958.703    20102375.445    83432315.16207
     -1523.441  
  20964630.940   111910617.78208     -2591.421    20964636.952    87041618.16207
     -2015.555  
  20937951.640   111846779.82008      1552.941    20937956.699    86991961.87007
      1207.843  
  22285921.162   119089206.55707     -2125.828    22285926.096    92624952.47106
     -1653.425  
  21235359.904   113594870.62305      1269.379    21235363.366    88351567.08906
       987.292  
  23478422.290   125637772.62506     -4598.534    23478428.202    97718289.79106
     -3576.641  
 20 09 28 07 49 40.0000000  0 16G20G24G15G18G21G32G 8G10R 3R 4R 2R18
                                R12R11R19R17
  19958934.503   104884908.66749       316.491    19958933.699    81728497.23448
       246.613  
  20772421.004   109159810.01749      1204.401    20772423.275    85059603.58948
       938.496  
  21623872.394   113634215.89848     -2732.229    21623872.560    88546147.79647
     -2129.016  
  21839038.016   114764916.43748     -2946.593    21839039.917    89427212.62447
     -2296.051  
  24373632.651   128084297.45447      2489.147    24373633.078    99805945.66845
      1939.594  
  24515595.386   128830324.09746      3318.948    24515600.841   100387279.89344
      2586.198  
  24645138.363   129511075.44555      -188.820    24645139.319   100917727.90052
      -147.132  
  21718936.549   114133783.96649      2381.184    21718938.957    88935423.92648
      1855.465  
  19824672.535   106123024.69409      1425.023    19824675.627    82540143.25708
      1108.348  
  23316554.807   124859091.19904      3405.895    23316560.591    97112641.25104
      2649.030  
  20104206.230   107279897.07608     -1959.769    20104211.345    83439934.92107
     -1524.270  
  20967059.596   111923582.14408     -2594.155    20967065.545    87051701.54807
     -2017.680  
  20936499.897   111839024.90408      1549.386    20936504.940    86985930.26807
      1205.073  
  22287911.801   119099843.74107     -2128.676    22287916.685    92633225.83506
     -1655.637  
  21234175.200   113588534.25605      1265.015    21234178.759    88346638.80406
       983.902  
  23482719.049   125660765.51506     -4598.313    23482725.051    97736173.13106
     -3576.465  
 20 09 28 07 49 45.0000000  0 16G20G24G15G18G21G32G 8G10R 3R 4R 2R18
                                R12R11R19R17
  19958634.794   104883333.68549       313.374    19958633.966    81727269.97048
       244.183  
  20771276.750   109153797.01749      1200.555    20771279.010    85054918.14248
       935.496  
  21626472.859   113647881.34049     -2734.171    21626473.067    88556796.18647
     -2130.526  
  21841842.705   114779655.26948     -2949.277    21841844.621    89438697.41647
     -2298.141  
  24371265.194   128071856.28747      2487.347    24371265.691    99796251.26745
      1938.191  
  24512437.202   128813728.16946      3318.550    24512442.879   100374348.00144
      2585.883  
  24645319.879   129512028.19245      -192.770    24645320.884   100918470.25244
      -150.218  
  21716671.607   114121881.68049      2379.386    21716673.982    88926149.41848
      1854.063  
  19823342.405   106115904.49709      1422.688    19823345.521    82534605.32508
      1106.530  
  23313375.169   124842063.51005      3404.938    23313380.818    97099397.51304
      2648.289  
  20106043.439   107289700.80808     -1961.940    20106048.530    83447560.04807
     -1525.952  
  20969491.308   111936563.00207     -2598.386    20969497.226    87061797.75707
     -2020.972  
  20935051.758   111831289.17308      1544.476    20935056.819    86979913.59607
      1201.258  
  22289905.663   119110497.95907     -2133.218    22289910.448    92641512.45606
     -1659.171  
  21232994.534   113582218.45505      1260.386    21232997.964    88341726.50606
       980.297  
  23487015.700   125683757.82406     -4598.753    23487021.703    97754056.02406
     -3576.812  
 20 09 28 07 49 50.0000000  0 16G20G24G15G18G21G32G 8G10R 3R 4R 2R18
                                R12R11R19R17
  19958338.098   104881774.47649       310.722    19958337.236    81726055.00648
       242.121  
  20770136.216   109147803.62649      1197.151    20770138.468    85050247.97048
       932.843  
  21629075.218   113661556.64149     -2735.503    21629075.433    88567452.25447
     -2131.566  
  21844649.884   114794407.22148     -2951.319    21844651.814    89450192.43647
     -2299.734  
  24368899.719   128059425.57447      2485.613    24368900.311    99786564.99744
      1936.835  
  24509280.057   128797137.44746      3318.136    24509285.733   100361420.17345
      2585.558  
  24645504.832   129512998.81545      -195.184    24645506.098   100919226.64244
      -152.081  
  21714408.479   114109989.01649      2378.023    21714410.821    88916882.40448
      1853.004  
  19822014.625   106108796.94309      1420.710    19822017.793    82529077.22608
      1104.991  
  23310196.253   124825040.52405      3404.926    23310201.917    97086157.44004
      2648.281  
  20107882.749   107299515.78208     -1963.515    20107887.822    83455193.91907
     -1527.180  
  20971927.014   111949565.06308     -2601.973    20971932.932    87071910.46107
     -2023.762  
  20933608.084   111823577.19808      1540.516    20933613.130    86973915.39907
      1198.180  
  22291903.683   119121173.96107     -2137.003    22291908.295    92649816.01706
     -1662.113  
  21231818.629   113575927.97204      1256.136    21231821.959    88336833.91506
       976.996  
  23491313.146   125706754.26207     -4599.160    23491319.207    97771942.11905
     -3577.129  
 20 09 28 07 49 55.0000000  0 15G20G24G15G18G21G32G 8G10R 3R 4R 2R18
                                R12R11R19
  19958043.912   104880228.54949       307.851    19958043.039    81724850.38148
       239.879  
  20768998.946   109141827.32749      1193.483    20769001.187    85045591.11748
       929.988  
  21631679.005   113675239.38449     -2737.094    21631679.195    88578114.13147
     -2132.804  
  21847459.135   114809169.87148     -2953.694    21847461.035    89461695.78647
     -2301.586  
  24366535.666   128047002.76547      2484.265    24366536.332    99776884.89645
      1935.793  
  24506123.485   128780549.48647      3317.284    24506129.074   100348494.49745
      2584.898  
  24645692.347   129513985.05844      -198.780    24645693.230   100919995.13444
      -154.895  
  21712146.705   114098103.56449      2376.363    21712149.026    88907621.01348
      1851.707  
  19820688.783   106101699.70309      1418.507    19820691.961    82523557.15108
      1103.285  
  23307017.999   124808019.99805      3403.854    23307023.544    97072919.25504
      2647.440  
  20109723.766   107309339.70208     -1965.604    20109728.784    83462834.75107
     -1528.805  
  20974366.209   111962585.71108     -2605.780    20974372.128    87082037.62107
     -2026.723  
  20932168.449   111815886.64508      1535.918    20932173.443    86967933.86107
      1194.602  
  22293905.165   119131869.11807     -2140.964    22293909.714    92658134.48905
     -1665.195  
  21230647.058   113569660.45005      1250.953    21230650.327    88331959.17706
       972.964  
 20 09 28 07 50  0.0000000  0 15G20G24G15G18G21G32G 8G10R 3R 4R 2R18
                                R12R11R19
  19957752.281   104878696.04849       305.022    19957751.399    81723656.22448
       237.676  
  20767864.976   109135868.49449      1189.953    20767867.223    85040947.88148
       927.234  
  21634284.236   113688929.65249     -2738.995    21634284.381    88588781.86947
     -2134.284  
  21850270.442   114823943.32848     -2955.895    21850272.313    89473207.56547
     -2303.297  
  24364173.135   128034588.14146      2482.538    24364173.878    99767211.16845
      1934.440  
  24502967.520   128763964.40547      3316.465    24502972.836   100335571.07345
      2584.258  
  24645882.862   129514986.87544      -201.780    24645885.233   100920775.73043
      -157.229  
  21709886.308   114086225.44049      2374.824    21709888.681    88898365.33748
      1850.507  
  19819364.873   106094612.80009      1416.273    19819368.046    82518045.11608
      1101.542  
  23303840.297   124791001.82605      3403.387    23303845.568    97059682.91004
      2647.077  
  20111566.417   107319172.47608     -1967.598    20111571.428    83470482.46907
     -1530.354  
  20976808.868   111975625.20108     -2609.948    20976814.861    87092179.43407
     -2029.965  
  20930732.886   111808217.72108      1531.605    20930737.787    86961969.16107
      1191.249  
  22295910.321   119142583.65307     -2145.007    22295914.709    92666468.01205
     -1668.339  
  21229479.664   113563415.83704      1246.179    21229483.016    88327102.25806
       969.249  
 20 09 28 07 50  5.0000000  0 15G20G24G15G18G21G32G 8G10R 3R 4R 2R18
                                R12R11R19
  19957463.206   104877176.98149       302.948    19957462.330    81722472.53748
       236.058  
  20766734.313   109129926.91149      1187.015    20766736.553    85036318.07148
       924.941  
  21636890.904   113702627.41049     -2739.831    21636890.969    88599455.44247
     -2134.937  
  21853083.795   114838727.56748     -2957.515    21853085.653    89484727.75047
     -2304.563  
  24361812.124   128022181.63246      2480.711    24361813.019    99757543.75144
      1933.019  
  24499812.034   128747382.18347      3316.714    24499817.245   100322649.86345
      2584.452  
  24646076.366   129516004.34144      -204.394    24646080.226   100921568.56643
      -159.269  
  21707627.288   114074354.64949      2373.737    21707629.722    88889115.37348
      1849.667  
  19818042.918   106087536.20909      1414.469    19818046.019    82512541.10008
      1100.136  
  23300662.750   124773986.11104      3403.059    23300668.044    97046448.47604
      2646.823  
  20113410.804   107329014.60408     -1968.964    20113415.861    83478137.45907
     -1531.422  
  20979255.094   111988683.38308     -2613.112    20979261.105    87102335.79007
     -2032.425  
  20929301.345   111800570.21808      1527.698    20929306.121    86956021.10507
      1188.210  
  22297918.985   119153317.50106     -2148.492    22297923.327    92674816.55705
     -1671.055  
  21228316.721   113557194.21904      1242.047    21228320.042    88322263.22806
       966.034  
 20 09 28 07 50 10.0000000  0 15G20G24G15G18G21G32G 8G10R 3R 4R 2R18
                                R12R11R19
  19957176.782   104875671.81149       299.434    19957175.929    81721299.67948
       233.319  
  20765607.011   109124003.02649      1182.788    20765609.237    85031702.05748
       921.647  
  21639499.063   113716333.09649     -2742.176    21639499.034    88610135.18947
     -2136.766  
  21855899.293   114853523.01248     -2960.538    21855901.106    89496256.65647
     -2306.917  
  24359452.729   128009783.67946      2478.366    24359453.654    99747883.04645
      1931.198  
  24496657.196   128730803.23747      3315.034    24496662.341   100309731.21244
      2583.144  
  24646272.309   129517037.80644      -209.132    24646275.093   100922373.98544
      -162.944  
  21705369.734   114062491.59249      2371.487    21705372.251    88879871.43748
      1847.913  
  19816723.010   106080470.39109      1411.695    19816725.990    82507045.46507
      1097.984  
  23297485.672   124756973.22304      3401.843    23297491.018    97033216.24704
      2645.879  
  20115256.904   107338865.90308     -1971.594    20115262.026    83485799.57107
     -1533.465  
  20981704.866   112001760.80408     -2617.559    20981710.975    87112507.11107
     -2035.883  
  20927873.890   111792944.72708      1522.629    20927878.585    86950090.17707
      1184.265  
  22299931.413   119164071.15207     -2153.184    22299935.726    92683180.50805
     -1674.698  
  21227157.937   113550996.00404      1236.961    21227161.447    88317442.38806
       962.078  
 20 09 28 07 50 15.0000000  0 15G20G24G15G18G21G32G 8G10R 3R 4R 2R18
                                R12R11R19
  19956893.083   104874180.89849       296.894    19956892.224    81720137.92148
       231.343  
  20764483.197   109118097.37649      1179.636    20764485.431    85027100.25748
       919.199  
  21642108.774   113730047.06449     -2743.526    21642108.707    88620821.39347
     -2137.815  
  21858716.957   114868330.00248     -2962.289    21858718.786    89507794.55447
     -2308.281  
  24357095.029   127997394.66346      2477.206    24357096.011    99738229.26444
      1930.288  
  24493503.058   128714227.94747      3315.043    24493508.032   100296815.40945
      2583.148  
  24646471.899   129518087.69444      -211.758    24646475.596   100923197.04153
      -165.007  
  21703113.739   114050636.66649      2370.394    21703116.335    88870633.84048
      1847.063  
  19815405.152   106073415.73009      1410.034    19815408.045    82501558.50507
      1096.691  
  23294309.178   124739963.58604      3402.058    23294314.561    97019986.54104
      2646.046  
  20117104.884   107348727.23508     -1973.094    20117110.073    83493469.49507
     -1534.633  
  20984158.350   112014857.69908     -2621.128    20984164.485    87122693.57707
     -2038.660  
  20926450.587   111785341.51208      1518.675    20926455.190    86944176.57707
      1181.190  
  22301947.581   119174844.84907     -2156.569    22301951.876    92691560.04706
     -1677.332  
  21226003.729   113544821.55004      1232.875    21226007.281    88312640.03506
       958.897  
 20 09 28 07 50 20.0000000  0 14G20G24G15G18G21G32G10R 3R 4R 2R18R12
                                R11R19
  19956611.852   104872702.95849       294.081    19956611.004    81718986.28148
       229.151  
  20763362.608   109112208.57749      1175.801    20763364.832    85022511.59148
       916.207  
  21644719.834   113743768.03149     -2745.219    21644719.680    88631513.04947
     -2139.137  
  21861536.607   114883147.26648     -2964.812    21861538.403    89519340.47347
     -2310.245  
  24354738.935   127985013.27346      2475.647    24354739.774    99728581.46245
      1929.078  
  24490349.377   128697655.08147      3313.925    24490354.171   100283901.49744
      2582.280  
  21700859.078   114038788.62449      2368.659    21700861.751    88861401.60247
      1845.710  
  19814089.143   106066370.94009      1407.676    19814091.944    82496079.22308
      1094.855  
  23291132.922   124722955.91304      3401.215    23291138.465    97006758.36904
      2645.391  
  20118954.416   107358596.90708     -1975.137    20118959.667    83501145.90207
     -1536.223  
  20986615.288   112027972.78408     -2625.066    20986621.428    87132894.20107
     -2041.722  
  20925031.214   111777759.34708      1514.144    20925035.712    86938279.34307
      1177.667  
  22303967.311   119185637.39307     -2160.793    22303971.525    92699954.25606
     -1680.616  
  21224853.763   113538669.57205      1227.749    21224857.317    88307855.16706
       954.918  
 20 09 28 07 50 25.0000000  0 14G20G24G15G18G21G32G10R 3R 4R 2R18R12
                                R11R19
  19956333.127   104871238.24649       291.757    19956332.301    81717844.94648
       227.339  
  20762245.257   109106336.79849      1172.977    20762247.502    85017936.19048
       914.007  
  21647332.271   113757496.22949     -2746.133    21647332.037    88642210.34147
     -2139.847  
  21864358.251   114897975.01448     -2966.323    21864359.996    89530894.55147
     -2311.425  
  24352384.262   127972639.82246      2474.007    24352385.102    99718939.78744
      1927.788  
  24487196.243   128681084.87547      3314.023    24487200.898   100270989.65545
      2582.351  
  21698605.769   114026947.68749      2367.801    21698608.497    88852174.90147
      1845.034  
  19812775.019   106059336.20509      1406.184    19812777.744    82490607.76608
      1093.695  
  23287957.328   124705950.37505      3401.179    23287962.689    96993531.84204
      2645.362  
  20120805.633   107368475.57808     -1976.269    20120810.932    83508829.30907
     -1537.069  
  20989075.626   112041106.30008     -2628.188    20989081.845    87143109.15407
     -2044.148  
  20923615.797   111770198.50908      1510.284    20923620.241    86932398.69807
      1174.668  
  22305990.617   119196448.88907     -2164.094    22305994.689    92708363.19806
     -1683.183  
  21223708.026   113532540.27505      1224.011    21223711.548    88303087.93906
       952.003  
 20 09 28 07 50 30.0000000  0 15G20G24G15G18G21G27G32G10R 3R 4R 2R18
                                R12R11R19
  19956056.122   104869782.58049       289.874    19956055.328    81716710.66048
       225.870  
  20761130.378   109100478.03349      1170.098    20761132.649    85013370.92848
       911.765  
  21649945.264   113771227.47249     -2746.796    21649945.013    88652910.00647
     -2140.362  
  21867181.074   114912809.07948     -2967.917    21867182.797    89542453.54647
     -2312.668  
  24350030.316   127960270.09546      2473.155    24350031.142    99709301.06145
      1927.136  
  24483564.371   128661998.35415     -1943.218           0.000           0.0000 
         0.000  
  24484042.832   128664513.12347      3313.831    24484047.384   100258076.60444
      2582.206  
  21696353.041   114015109.70749      2366.878    21696355.781    88842950.50147
      1844.319  
  19811461.968   106052307.36809      1404.859    19811464.692    82485140.89808
      1092.667  
  23284781.177   124688942.79404      3401.133    23284786.507    96980303.75004
      2645.327  
  20122657.695   107378358.53608     -1977.479    20122663.009    83516516.05407
     -1538.043  
  20991538.644   112054253.96408     -2631.233    20991544.948    87153335.10407
     -2046.519  
  20922203.564   111762654.76808      1506.577    20922208.011    86926531.33307
      1171.777  
  22308016.648   119207275.13506     -2167.094    22308020.659    92716783.61306
     -1685.520  
  21222565.577   113526429.63304      1220.425    21222569.242    88298335.21306
       949.214  
 20 09 28 07 50 35.0000000  0 15G20G24G15G18G21G27G32G10R 3R 4R 2R18
                                R12R11R19
  19955781.861   104868341.26349       286.761    19955781.099    81715587.55248
       223.444  
  20760018.960   109094637.43249      1166.148    20760021.268    85008819.82148
       908.687  
  21652559.876   113784967.07249     -2748.812    21652559.594    88663616.18647
     -2141.937  
  21870006.125   114927654.72848     -2970.426    21870007.769    89554021.58146
     -2314.620  
  24347678.068   127947909.42146      2470.979    24347678.798    99699669.35544
      1925.433  
  24485415.021   128671723.77305     -1946.112           0.000           0.0000 
         0.000  
  24480890.115   128647945.10747      3313.406    24480894.561   100245166.47844
      2581.875  
  21694101.904   114003279.96749      2364.952    21694104.611    88833732.52447
      1842.820  
  19810151.013   106045289.82009      1402.276    19810153.800    82479682.80508
      1090.659  
  23281605.747   124671938.56904      3398.991    23281610.948    96967078.25204
      2643.660  
  20124511.627   107388251.47008     -1979.542    20124516.948    83524210.55908
     -1539.647  
  20994005.355   112067421.21608     -2635.523    20994011.723    87163576.29507
     -2049.855  
  20920795.511   111755133.51608      1501.930    20920799.989    86920681.47707
      1168.167  
  22310046.433   119218121.65706     -2171.272    22310050.418    92725219.77906
     -1688.772  
  21221427.857   113520342.97004      1215.034    21221431.336    88293601.13806
       945.023  
 20 09 28 07 50 40.0000000  0 15G20G24G15G18G21G27G32G10R 3R 4R 2R18
                                R12R11R19
  19955510.233   104866913.90949       283.843    19955509.521    81714475.33048
       221.176  
  20758910.945   109088814.71249      1162.585    20758913.272    85004282.63648
       905.910  
  21655175.985   113798714.59849     -2750.343    21655175.691    88674328.54347
     -2143.124  
  21872833.276   114942511.57048     -2972.620    21872834.861    89565598.33247
     -2316.331  
  24345327.563   127935557.39846      2469.854    24345328.373    99690044.41444
      1924.563  
  24487269.027   128681461.92145     -1949.070    24487268.561   100271272.31553
     -1518.758  
  24477738.029   128631380.53247      3312.117    24477742.373   100232259.01445
      2580.871  
  21691852.276   113991458.08949      2363.511    21691854.931    88824520.68047
      1841.698  
  19808842.096   106038283.08709      1400.116    19808844.952    82474233.12708
      1088.980  
  23278430.698   124654937.23205      3399.594    23278435.831    96953855.00304
      2644.066  
  20126367.337   107398153.80408     -1981.636    20126372.693    83531912.37008
     -1541.277  
  20996475.654   112080607.52608     -2639.327    20996482.060    87173832.31307
     -2052.816  
  20919391.554   111747634.29608      1497.598    20919396.143    86914848.75407
      1164.797  
  22312079.779   119228987.90106     -2175.280    22312083.908    92733671.29406
     -1691.890  
  21220294.483   113514279.71804      1210.265    21220297.771    88288885.28306
       941.312  
 20 09 28 07 50 45.0000000  0 15G20G24G15G18G21G27G32G10R 3R 4R 2R18
                                R12R11R19
  19955241.530   104865501.83849       281.690    19955240.851    81713375.01348
       219.495  
  20757806.570   109083011.14849      1159.398    20757808.946    84999760.38848
       903.426  
  21657793.846   113812471.42749     -2751.555    21657793.566    88685048.14647
     -2144.073  
  21875662.812   114957380.94748     -2974.315    21875664.337    89577184.84547
     -2317.652  
  24342978.936   127923215.40846      2468.496    24342979.687    99680427.28144
      1923.508  
  24489125.391   128691214.11805     -1951.168           0.000           0.0000 
         0.000  
  24474586.870   128614820.67347      3312.409    24474591.053   100219355.23045
      2581.094  
  21689604.421   113979645.46749      2362.542    21689607.025    88815316.03747
      1840.940  
  19807535.467   106031288.62909      1398.526    19807538.382    82468792.99508
      1087.742  
  23275256.612   124637940.30704      3399.918    23275261.587    96940635.20004
      2644.382  
  20128225.094   107408067.08708     -1982.805    20128230.513    83539622.70208
     -1542.184  
  20998949.754   112093814.28408     -2642.437    20998956.206    87184104.23207
     -2055.233  
  20917992.025   111740158.61208      1493.535    20917996.715    86909034.32707
      1161.632  
  22314117.075   119239875.09106     -2178.668    22314121.360    92742139.08706
     -1694.527  
  21219165.596   113508241.40104      1206.890    21219168.876    88284188.82106
       938.691  
 20 09 28 07 50 50.0000000  0 15G20G24G15G18G21G27G32G10R 3R 4R 2R18
                                R12R11R19
  19954974.830   104864100.31649       278.917    19954974.195    81712282.91648
       217.336  
  20756704.917   109077221.98549      1155.777    20756707.337    84995249.35648
       900.605  
  21660412.560   113826232.73549     -2753.121    21660412.247    88695771.23947
     -2145.293  
  21878493.830   114972258.04448     -2976.738    21878495.283    89588777.37847
     -2319.539  
  24340631.363   127910878.70446      2466.367    24340632.088    99670814.25545
      1921.843  
  24490983.284   128700975.60005     -1954.301           0.000           0.0000 
         0.000  
  24471435.694   128598260.75747      3311.565    24471439.821   100206451.43045
      2580.444  
  21687357.403   113967837.28149      2360.676    21687359.972    88806114.85447
      1839.484  
  19806230.195   106024301.49609      1396.229    19806233.140    82463358.55408
      1085.952  
  23272082.437   124620942.74204      3398.835    23272087.150    96927414.91004
      2643.543  
  20130083.959   107417986.37708     -1985.038    20130089.459    83547337.70408
     -1543.922  
  21001426.858   112107036.73308     -2646.628    21001433.274    87194388.35107
     -2058.491  
  20916596.011   111732701.54008      1488.854    20916600.781    86903234.38507
      1158.000  
  22316157.510   119250778.55606     -2182.499    22316161.872    92750619.53706
     -1697.508  
  21218040.611   113502223.26904      1201.402    21218043.806    88279508.05806
       934.425  
 20 09 28 07 50 55.0000000  0 15G20G24G15G18G21G27G32G10R 3R 4R 2R18
                                R12R11R19
  19954710.720   104862712.50549       276.629    19954710.158    81711201.51048
       215.550  
  20755606.620   109071450.55249      1152.746    20755609.123    84990752.13448
       898.241  
  21663032.723   113840001.72549     -2754.434    21663032.407    88706500.32347
     -2146.312  
  21881326.919   114987146.05948     -2978.468    21881328.301    89600378.42547
     -2320.886  
  24338285.383   127898550.43446      2465.276    24338285.975    99661207.84344
      1920.999  
  24492843.404   128710749.43944     -1955.852    24492842.096   100294098.76153
     -1524.039  
  24468285.074   128581704.04547      3311.409    24468289.128   100193550.08745
      2580.316  
  21685111.854   113956036.74649      2359.589    21685114.397    88796919.63047
      1838.636  
  19804926.933   106017324.97209      1394.391    19804929.830    82457932.37108
      1084.522  
  23268908.791   124603947.97904      3398.421    23268913.233    96914196.78204
      2643.223  
  20131944.528   107427914.88608     -1986.249    20131950.094    83555059.87507
     -1544.862  
  21003907.466   112120278.04008     -2649.956    21003913.860    87204687.13707
     -2061.082  
  20915204.082   111725266.32408      1485.042    20915208.961    86897451.44007
      1155.034  
  22318201.586   119261701.51107     -2186.183    22318206.047    92759115.15106
     -1700.366  
  21216919.853   113496228.43804      1196.340    21216923.157    88274845.40806
       930.484  
 20 09 28 07 51  0.0000000  0 15G20G24G15G18G21G27G32G10R 3R 4R 2R18
                                R12R11R19
  19954449.519   104861339.97749       272.762    19954449.012    81710132.00348
       212.538  
  20754511.953   109065698.25749      1148.296    20754514.536    84986269.82948
       894.776  
  21665654.641   113853779.86949     -2756.831    21665654.278    88717236.54047
     -2148.184  
  21884162.379   115002046.53348     -2981.601    21884163.712    89611989.17647
     -2323.300  
  24335941.272   127886232.17246      2462.301    24335941.826    99651609.19544
      1918.675  
  24494705.740   128720537.26844     -1959.046    24494713.123   100301725.58643
     -1526.522  
  24465135.310   128565151.98447      3309.453    24465139.439   100180652.38745
      2578.792  
  21682868.067   113944245.40849      2357.117    21682870.581    88787731.57948
      1836.715  
  19803625.945   106010360.64909      1391.363    19803628.799    82452515.67808
      1082.172  
  23265735.946   124586957.41604      3397.304    23265740.213    96900981.92003
      2642.352  
  20133807.121   107437854.16508     -1989.265    20133812.733    83562790.42307
     -1547.211  
  21006391.840   112133539.61408     -2654.726    21006398.234    87215001.67807
     -2064.793  
  20913816.567   111717854.56408      1479.703    20913821.534    86891686.74707
      1150.878  
  22320249.646   119272645.41107     -2191.176    22320254.098    92767627.05906
     -1704.249  
  21215803.842   113490258.31704      1191.343    21215807.175    88270201.98906
       926.601  
 20 09 28 07 51  5.0000000  0 16G20G24G15G18G21G27G32G 8G10R 3R 4R 2
                                R18R12R11R19
  19954190.853   104859980.71249       270.871    19954190.377    81709072.84248
       211.069  
  20753420.513   109059962.98349      1145.843    20753423.170    84981800.77648
       892.862  
  21668277.929   113867565.21849     -2757.121    21668277.550    88727978.36947
     -2148.405  
  21886999.813   115016957.41248     -2982.577    21887001.132    89623608.03147
     -2324.089  
  24333598.733   127873921.91946      2461.930    24333599.234    99642016.79844
      1918.390  
  24496570.185   128730337.05744     -1959.800    24496577.787   100309361.75945
     -1527.133  
  24461986.056   128548602.63847      3310.266    24461990.173   100167756.79345
      2579.430  
  24648627.834   129529412.83254      -241.098    24648629.185   100931992.41251
      -187.866  
  21680625.636   113932461.26049      2356.660    21680628.153    88778549.12048
      1836.354  
  19802326.820   106003406.42709      1390.473    19802329.676    82447106.83508
      1081.479  
  23262563.607   124569969.08704      3398.132    23262567.750    96887768.81704
      2642.995  
  20135671.334   107447802.15108     -1989.866    20135676.988    83570527.74207
     -1547.680  
  21008879.638   112146819.49008     -2657.266    21008886.024    87225330.46807
     -2066.766  
  20912433.062   111710464.21808      1476.535    20912438.122    86885938.70407
      1148.417  
  22322301.083   119283608.23006     -2193.949    22322305.640    92776153.69205
     -1706.410  
  21214692.173   113484311.25804      1188.007    21214695.540    88265576.49506
       924.004  
 20 09 28 07 51 10.0000000  0 15G20G24G15G18G21G32G 8G10R 3R 4R 2R18
                                R12R11R19
  19953935.207   104858637.24949       266.565    19953934.755    81708025.98748
       207.714  
  20752332.835   109054247.41649      1140.632    20752335.564    84977347.08448
       888.801  
  21670903.060   113881360.27949     -2760.707    21670902.642    88738727.77747
     -2151.199  
  21889839.718   115031881.24348     -2986.656    21889841.009    89635236.97947
     -2327.270  
  24331258.186   127861622.23046      2458.219    24331258.621    99632432.59844
      1915.491  
  24458837.859   128532058.52947      3307.813    24458841.922   100154865.29445
      2577.515  
  24648859.815   129530633.62104      -246.065           0.000           0.0000 
         0.000  
  21678385.048   113920686.85749      2353.241    21678387.606    88769374.26448
      1833.695  
  19801030.087   105996464.97709      1386.433    19801032.956    82441707.93208
      1078.336  
  23259392.044   124552985.73004      3395.805    23259396.311    96874559.54204
      2641.179  
  20137537.663   107457761.45808     -1993.616    20137543.395    83578273.86707
     -1550.594  
  21011371.342   112160120.28308     -2662.960    21011377.695    87235675.52607
     -2071.195  
  20911054.003   111703097.91108      1470.022    20911059.133    86880209.35107
      1143.347  
  22324356.630   119294592.57407     -2199.910    22324361.228    92784697.05505
     -1711.046  
  21213584.984   113478389.57804      1181.352    21213588.611    88260970.74206
       918.823  
 20 09 28 07 51 15.0000000  0 15G20G24G15G18G21G32G 8G10R 3R 4R 2R18
                                R12R11R19
  19953681.325   104857302.96549       266.863    19953680.864    81706986.28348
       207.944  
  20751247.677   109048545.02649      1140.059    20751250.437    84972903.67048
       888.355  
  21673528.762   113895158.40549     -2759.000    21673528.328    88749479.55347
     -2149.874  
  21892680.827   115046811.34448     -2985.711    21892682.119    89646870.81947
     -2326.531  
  24328918.400   127849326.41446      2459.691    24328918.525    99622851.45244
      1916.640  
  24455689.368   128515513.00847      3310.253    24455693.381   100141972.70345
      2579.421  
  24649093.806   129531865.62743      -246.555    24649087.676   100933899.76255
      -192.121  
  21676145.029   113908915.54449      2354.715    21676147.623    88760201.81548
      1834.844  
  19799734.483   105989529.44509      1387.495    19799737.355    82436313.63008
      1079.164  
  23256220.257   124536000.33305      3398.336    23256224.585    96861348.69904
      2642.792  
  20139404.882   107467725.45008     -1992.339    20139410.672    83586023.63607
     -1549.601  
  21013865.677   112173435.17908     -2663.438    21013871.992    87246031.55207
     -2071.566  
  20909678.190   111695748.75308      1468.968    20909683.337    86874493.35607
      1142.530  
  22326414.960   119305591.63507     -2200.358    22326419.589    92793251.87405
     -1711.394  
  21212481.558   113472486.48904      1179.879    21212485.168    88256379.45706
       917.684  
 20 09 28 07 51 20.0000000  0 15G20G24G15G18G21G32G 8G10R 3R 4R 2R18
                                R12R11R19
  19953429.512   104855979.67849       262.969    19953429.075    81705955.15648
       204.909  
  20750165.366   109042857.54149      1135.417    20750168.145    84968471.86748
       884.742  
  21676155.364   113908961.41548     -2761.741    21676154.975    88760235.14147
     -2152.011  
  21895523.497   115061749.54748     -2989.016    21895524.764    89658510.97347
     -2329.104  
  24326579.665   127837036.34346      2457.035    24326579.664    99613274.76944
      1914.566  
  24452540.935   128498967.90847      3308.313    24452544.886   100129080.42445
      2577.905  
  24649329.984   129533110.74804      -250.956           0.000           0.0000 
         0.000  
  21673905.960   113897149.15649      2352.113    21673908.571    88751033.21048
      1832.816  
  19798440.386   105982601.82209      1384.085    19798443.247    82430925.47808
      1076.512  
  23253048.286   124519014.88105      3396.726    23253052.873    96848137.81704
      2641.902  
  20141273.265   107477695.62508     -1995.258    20141279.100    83593778.21208
     -1551.870  
  21016362.954   112186766.00308     -2668.258    21016369.260    87256399.97007
     -2075.315  
  20908305.955   111688418.79708      1463.488    20908311.078    86868792.27907
      1138.266  
  22328476.438   119316607.26607     -2205.577    22328481.037    92801819.58905
     -1715.453  
  21211381.979   113466604.04804      1173.905    21211385.568    88251804.22706
       913.039  
 20 09 28 07 51 25.0000000  0 15G20G24G15G18G21G32G 8G10R 3R 4R 2R18
                                R12R11R19
  19953181.140   104854674.38349       259.664    19953180.693    81704938.04248
       202.335  
  20749087.202   109037191.84549      1131.374    20749089.993    84964057.04448
       881.589  
  21678784.228   113922776.31449     -2763.848    21678783.878    88770999.99447
     -2153.652  
  21898369.038   115076702.84548     -2991.719    21898370.319    89670162.88747
     -2331.214  
  24324243.326   127824759.11345      2454.457    24324243.203    99603708.16844
      1912.574  
  24449393.904   128482430.21547      3307.218    24449397.909   100116193.92345
      2577.055  
  24649570.194   129534375.90503      -254.030           0.000           0.0000 
         0.000  
  21671669.162   113885394.70249      2350.175    21671671.796    88741873.89648
      1831.304  
  19797149.089   105975689.09909      1381.479    19797151.930    82425548.91708
      1074.479  
  23249877.756   124502036.36805      3395.270    23249882.442    96834932.33404
      2640.770  
  20143144.218   107487679.33008     -1997.562    20143150.063    83601543.30807
     -1553.663  
  21018864.577   112200119.80408     -2672.832    21018870.830    87266786.25407
     -2078.874  
  20906938.632   111681115.08708      1458.480    20906943.710    86863111.61207
      1134.374  
  22330542.228   119327646.56606     -2209.526    22330546.818    92810405.71905
     -1718.520  
  21210287.382   113460749.25404      1168.858    21210291.144    88247250.49906
       909.112  
 20 09 28 07 51 30.0000000  0 16G20G24G15G18G21G27G32G 8G10R 3R 4R 2
                                R18R12R11R19
  19952935.513   104853383.45149       256.887    19952935.029    81703932.12148
       200.168  
  20748012.508   109031544.34949      1127.949    20748015.266    84959656.40448
       878.921  
  21681414.621   113936599.37548     -2765.409    21681414.331    88781771.19847
     -2154.867  
  21901216.774   115091667.57848     -2994.026    21901218.016    89681823.70347
     -2333.012  
  24321908.742   127812490.94445      2453.379    24321908.507    99594148.50944
      1911.718  
  24505927.406   128779517.43015     -1973.577           0.000           0.0000 
         0.000  
  24446247.549   128465896.31847      3306.640    24446251.533   100103310.38245
      2576.602  
  24649813.403   129535657.63003      -258.050           0.000           0.0000 
         0.000  
  21669433.955   113873648.54749      2348.586    21669436.578    88732721.05348
      1830.065  
  19795859.886   105968787.67309      1379.366    19795862.732    82420181.14908
      1072.839  
  23246707.612   124485061.26704      3395.418    23246712.601    96821729.49504
      2640.879  
  20145017.035   107497672.97308     -1999.508    20145022.899    83609316.14807
     -1555.176  
  21021369.846   112213493.00808     -2676.277    21021376.020    87277187.62807
     -2081.554  
  20905575.552   111673833.88308      1454.120    20905580.563    86857448.45307
      1130.980  
  22332611.790   119338705.89506     -2214.117    22332616.290    92819007.43805
     -1722.089  
  21209197.296   113454918.40404      1163.718    21209201.199    88242715.37606
       905.108  
 20 09 28 07 51 35.0000000  0 15G20G24G15G18G21G27G32G10R 3R 4R 2R18
                                R12R11R19
  19952692.443   104852106.01049       254.016    19952691.932    81702936.70948
       197.930  
  20746941.090   109025914.23149      1124.292    20746943.829    84955269.30048
       876.074  
  21684046.411   113950429.74248     -2766.706    21684046.169    88792548.10647
     -2155.879  
  21904066.490   115106642.84548     -2996.101    21904067.712    89693492.72947
     -2334.628  
  24319575.641   127800230.95045      2451.477    24319575.401    99584595.26645
      1910.237  
  24507806.419   128789390.67745     -1975.858    24507811.916   100355388.17154
     -1539.461  
  24443101.734   128449365.32647      3306.276    24443105.794   100090429.10845
      2576.323  
  21667200.182   113861909.83749      2346.945    21667202.737    88723574.00548
      1828.784  
  19794572.607   105961896.57809      1377.105    19794575.455    82414821.40808
      1071.082  
  23243537.807   124468088.60703      3394.109    23243543.104    96808528.55704
      2639.863  
  20146891.488   107507675.32008     -2001.297    20146897.350    83617095.75407
     -1556.562  
  21023878.568   112226884.60808     -2680.141    21023884.679    87287603.31007
     -2084.559  
  20904216.553   111666574.41408      1449.664    20904221.488    86851802.21407
      1127.516  
  22334684.955   119349784.23206     -2217.729    22334689.267    92827623.94305
     -1724.901  
  21208111.642   113449110.70104      1159.534    21208115.563    88238198.27506
       901.855  
 20 09 28 07 51 40.0000000  0 15G20G24G15G18G21G27G32G10R 3R 4R 2R18
                                R12R11R19
  19952452.005   104850842.34849       251.613    19952451.457    81701952.03948
       196.063  
  20745873.062   109020301.83049      1121.171    20745875.759    84950896.01148
       873.640  
  21686679.690   113964267.77748     -2767.934    21686679.458    88803330.98347
     -2156.836  
  21906918.301   115121628.96048     -2997.648    21906919.474    89705170.21947
     -2335.831  
  24317244.231   127787979.58845      2449.902    24317244.243    99575048.75044
      1909.012  
  24509687.806   128799276.24445     -1978.491    24509687.164   100363070.21754
     -1541.683  
  24439956.503   128432837.61546      3305.854    24439960.725   100077550.35745
      2575.987  
  21664967.899   113850178.89049      2345.847    21664970.382    88714433.00848
      1827.934  
  19793287.297   105955016.18309      1375.473    19793290.147    82409469.99008
      1069.808  
  23240368.634   124451118.76604      3393.566    23240374.041    96795329.77204
      2639.438  
  20148767.733   107517687.20108     -2002.855    20148773.595    83624882.77408
     -1557.777  
  21026390.839   112240294.90908     -2683.602    21026396.855    87298033.53507
     -2087.249  
  20902861.690   111659336.92108      1445.758    20902866.631    86846173.05807
      1124.476  
  22336761.664   119360881.91006     -2221.269    22336765.943    92836255.48205
     -1727.652  
  21207030.398   113443326.49204      1155.362    21207034.319    88233699.44606
       898.612  
 20 09 28 07 51 45.0000000  0 14G20G24G15G18G21G27G32G10R 3R 2R18R12
                                R11R19
  19952213.771   104849590.38649       248.836    19952213.193    81700976.48148
       193.894  
  20744808.011   109014705.13749      1117.530    20744810.719    84946534.94648
       870.801  
  21689314.005   113978111.35548     -2769.608    21689313.779    88814118.17847
     -2158.140  
  21909771.788   115136623.82348     -3000.133    21909772.946    89716854.52347
     -2337.770  
  24314914.098   127775734.71645      2448.770    24314914.346    99565507.33744
      1908.140  
  24511570.959   128809172.09345     -1980.563    24511572.348   100370781.32341
     -1543.309  
  24436811.512   128416310.98546      3305.066    24436815.955   100064672.48445
      2575.374  
  21662736.680   113838453.59849      2344.233    21662739.118    88705296.41648
      1826.671  
  19792003.594   105948144.32609      1373.151    19792006.457    82404125.21108
      1068.004  
  20150645.293   107527705.94108     -2004.680    20150651.133    83632675.12907
     -1559.198  
  21028906.152   112253721.69408     -2687.293    21028912.121    87308476.58507
     -2090.120  
  20901510.534   111652119.38208      1441.300    20901515.524    86840559.42207
      1121.011  
  22338841.668   119371996.82106     -2224.976    22338845.926    92844900.41905
     -1730.539  
  21205952.988   113437563.51104      1149.843    21205956.984    88229217.13206
       894.324  
 20 09 28 07 51 50.0000000  0 14G20G24G15G18G21G27G32G10R 3R 2R18R12
                                R11R19
  19951978.077   104848351.71349       246.977    19951977.459    81700011.28048
       192.445  
  20743746.220   109009125.51049      1114.703    20743748.937    84942187.18848
       868.601  
  21691949.688   113991962.02648     -2770.277    21691949.481    88824910.90747
     -2158.660  
  21912627.260   115151628.96348     -3001.512    21912628.380    89728546.82747
     -2338.844  
  24312585.466   127763497.95745      2446.574    24312585.914    99555972.17144
      1906.421  
  24513456.384   128819079.66245     -1981.878    24513459.292   100378501.54343
     -1544.316  
  24433666.940   128399787.05246      3304.734    24433671.606   100051796.71445
      2575.117  
  21660506.830   113826735.53449      2343.315    21660509.252    88696165.45848
      1825.957  
  19790721.808   105941282.67109      1371.780    19790724.650    82398788.37308
      1066.941  
  20152524.506   107537733.52708     -2005.926    20152530.312    83640474.35507
     -1560.168  
  21031424.900   112267166.63308     -2690.273    21031430.779    87318933.75407
     -2092.437  
  20900163.431   111644923.27108      1437.554    20900168.456    86834962.44407
      1118.094  
  22340925.111   119383130.57706     -2228.503    22340929.412    92853560.01005
     -1733.281  
  21204879.898   113431823.39404      1146.090    21204883.878    88224752.59906
       891.401  
 20 09 28 07 51 55.0000000  0 14G20G24G15G18G21G27G32G10R 3R 2R18R12
                                R11R19
  19951744.264   104847122.98549       245.098    19951743.608    81699053.82748
       190.980  
  20742687.063   109003559.79049      1112.113    20742689.812    84937850.27948
       866.582  
  21694586.058   114005816.42848     -2770.854    21694585.894    88835706.54747
     -2159.113  
  21915484.054   115166641.04748     -3002.979    21915485.137    89740244.55047
     -2339.987  
  24310257.718   127751265.74445      2446.612    24310258.091    99546440.62544
      1906.449  
  24515343.417   128828995.71245     -1984.116    24515347.595   100386228.29944
     -1546.058  
  24430522.343   128383262.52246      3305.543    24430527.162   100038920.46045
      2575.745  
  21658277.717   113815021.37149      2342.742    21658280.117    88687037.55147
      1825.511  
  19789441.230   105934427.66509      1370.589    19789444.056    82393456.70408
      1066.012  
  20154404.754   107547766.45708     -2006.562    20154410.491    83648277.73707
     -1560.664  
  21033946.389   112280626.22808     -2693.054    21033952.228    87329402.32007
     -2094.602  
  20898819.713   111637745.21508      1434.132    20898824.738    86829379.50607
      1115.433  
  22343011.392   119394279.58906     -2231.215    22343015.791    92862231.46405
     -1735.390  
  21203810.440   113426102.79704      1142.563    21203814.437    88220303.25306
       888.659  
 20 09 28 07 52  0.0000000  0 15G20G24G15G18G21G27G32G 8G10R 3R 2R18
                                R12R11R19
  19951512.906   104845907.22249       240.765    19951512.209    81698106.47548
       187.604  
  20741631.148   108998010.98649      1106.933    20741633.926    84933526.53948
       862.547  
  21697223.728   114019677.63748     -2774.022    21697223.601    88846507.48647
     -2161.582  
  21918342.745   115181663.10048     -3006.715    21918343.819    89751950.03147
     -2342.898  
  24307931.402   127739041.43445      2443.226    24307931.940    99536915.17743
      1903.812  
  24517232.574   128838923.30045     -1987.914    24517237.639   100393964.09044
     -1549.027  
  24427378.196   128366740.41746      3303.188    24427383.190   100026046.11045
      2573.914  
  24651336.705   129543647.13615      -276.499           0.000           0.0000 
         0.000  
  21656049.911   113803314.17449      2339.805    21656052.303    88677915.05948
      1823.223  
  19788162.529   105927582.55709      1366.992    19788165.302    82388132.73308
      1063.214  
  20156286.526   107557807.54508     -2010.308    20156292.157    83656087.47207
     -1563.578  
  21036471.220   112294103.66708     -2698.496    21036476.996    87339884.75907
     -2098.835  
  20897479.998   111630588.41608      1428.160    20897484.970    86823813.10807
      1110.789  
  22345101.212   119405447.11106     -2236.624    22345105.620    92870917.32405
     -1739.598  
  21202745.268   113420404.84404      1136.105    21202749.272    88215871.51206
       883.636  
 20 09 28 07 52  5.0000000  0 16G20G24G15G18G21G27G32G 8G10R 3R 4R 2
                                R18R12R11R19
  19951285.141   104844710.43349       238.272    19951284.438    81697173.91448
       185.668  
  20740579.559   108992484.87949      1103.758    20740582.319    84929220.47848
       860.066  
  21699863.835   114033551.55348     -2775.125    21699863.741    88857318.32447
     -2162.437  
  21921204.408   115196700.96248     -3008.136    21921205.495    89763667.83647
     -2344.008  
  24305607.719   127726830.77345      2441.542    24305608.278    99527400.38843
      1902.503  
  24519125.085   128848868.17045     -1989.468    24519129.747   100401713.29645
     -1550.241  
  24424235.660   128350226.59546      3302.832    24424240.783   100013178.19845
      2573.633  
  24651601.505   129545037.07905      -278.840           0.000           0.0000 
         0.000  
  21653824.553   113791619.80749      2338.354    21653826.931    88668802.56548
      1822.094  
  19786886.758   105920753.28209      1365.187    19786889.492    82382821.07708
      1061.809  
  23224527.393   124366289.10615      3391.609    23224532.808    96729357.93914
      2637.917  
  20158170.962   107567863.03608     -2011.558    20158176.505    83663908.40307
     -1564.550  
  21039000.499   112307604.85108     -2701.629    21039006.204    87350385.66707
     -2101.269  
  20896145.333   111623458.75108      1423.929    20896150.230    86818267.81407
      1107.495  
  22347195.580   119416639.06306     -2239.972    22347200.119    92879622.18505
     -1742.199  
  21201685.474   113414735.47204      1132.144    21201689.437    88211462.00706
       880.559  
 20 09 28 07 52 10.0000000  0 16G20G24G15G18G21G27G32G 8G10R 3R 4R 2
                                R18R12R11R19
  19951059.484   104843524.66149       236.047    19951058.764    81696249.94148
       183.933  
  20739530.798   108986973.69349      1100.547    20739533.598    84924926.04848
       857.565  
  21702504.846   114047430.22448     -2776.367    21702504.780    88868132.87347
     -2163.406  
  21924067.613   115211746.82648     -3010.160    21924068.701    89775391.87347
     -2345.581  
  24303285.151   127714625.94145      2440.094    24303285.735    99517890.15043
      1901.379  
  24521019.312   128858822.58245     -1992.449    24521024.452   100409470.01743
     -1552.555  
  24421093.213   128333713.26847      3301.909    24421098.467   100000310.68945
      2572.917  
  24651868.772   129546440.01645      -281.930    24651869.070   100945282.79152
      -219.633  
  21651600.131   113779930.45249      2337.125    21651602.508    88659693.98447
      1821.136  
  19785612.480   105913931.87909      1363.168    19785615.165    82377515.53508
      1060.237  
  23221360.462   124349330.83505      3391.480    23221366.062    96716168.17904
      2638.280  
  20160056.582   107577924.85108     -2013.065    20160061.980    83671734.26307
     -1565.722  
  21041532.733   112321121.83808     -2705.233    21041538.329    87360898.86907
     -2104.073  
  20894814.275   111616348.35608      1420.128    20894819.053    86812737.51407
      1104.542  
  22349293.099   119427847.44006     -2243.444    22349297.723    92888339.79705
     -1744.905  
  21200629.533   113409086.64804      1127.542    21200633.411    88207068.47605
       876.972  
 20 09 28 07 52 15.0000000  0 16G20G24G15G18G21G27G32G 8G10R 3R 4R 2
                                R18R12R11R19
  19950836.332   104842352.11649       233.249    19950835.596    81695336.26448
       181.750  
  20738485.316   108981479.77649      1097.112    20738488.149    84920645.07948
       854.894  
  21705147.202   114061315.89649     -2777.999    21705147.088    88878952.87247
     -2164.680  
  21926932.759   115226802.92848     -3012.086    21926933.811    89787123.89747
     -2347.081  
  24300964.131   127702429.20946      2438.218    24300964.829    99508386.20743
      1899.910  
  24522915.888   128868788.69145     -1994.086    24522921.118   100417235.73242
     -1553.847  
  24417951.344   128317202.66447      3301.921    24417956.628    99987445.29045
      2572.926  
  24652138.924   129547858.35945      -285.574    24652140.478   100946387.88241
      -222.530  
  21649377.102   113768248.38949      2335.722    21649379.479    88650591.08348
      1820.043  
  19784340.073   105907120.58609      1361.241    19784342.758    82372217.86108
      1058.737  
  23218194.105   124332374.82604      3391.120    23218199.700    96702980.20604
      2637.542  
  20161943.800   107587995.40908     -2014.965    20161949.100    83679566.91607
     -1567.198  
  21044068.315   112334656.78608     -2708.839    21044073.790    87371426.05007
     -2106.879  
  20893487.257   111609259.50608      1415.461    20893491.940    86807223.97607
      1100.914  
  22351394.167   119439074.47206     -2247.132    22351398.835    92897071.92805
     -1747.770  
  21199577.895   113403460.87704      1122.421    21199581.678    88202692.87005
       872.991  
 20 09 28 07 52 20.0000000  0 16G20G24G15G18G21G27G32G 8G10R 3R 4R 2
                                R18R12R11R19
  19950615.853   104841193.52249       230.465    19950615.108    81694433.46448
       179.578  
  20737443.208   108976003.58549      1093.905    20737446.073    84916377.92248
       852.395  
  21707791.029   114075209.24049     -2779.026    21707790.881    88889778.85447
     -2165.480  
  21929799.953   115241869.91548     -3014.055    21929801.014    89798864.39347
     -2348.616  
  24298644.866   127690241.29846      2436.512    24298645.698    99498889.09944
      1898.573  
  24524814.752   128878767.22345     -1996.598    24524819.956   100425011.25141
     -1555.788  
  24414810.144   128300695.45347      3301.550    24414815.543    99974582.53746
      2572.636  
  24652411.920   129549292.55605      -288.022           0.000           0.0000 
         0.000  
  21647155.581   113756574.27749      2334.297    21647157.968    88641494.37047
      1818.933  
  19783069.700   105900320.21109      1359.319    19783072.413    82366928.67808
      1057.246  
  23215028.091   124315421.65504      3390.984    23215033.924    96689794.45604
      2637.441  
  20163832.725   107598075.13408     -2016.624    20163837.945    83687406.70207
     -1568.487  
  21046607.381   112348210.46308     -2712.078    21046612.802    87381967.78407
     -2109.397  
  20892164.419   111602192.85908      1411.288    20892168.990    86801727.70007
      1097.667  
  22353498.815   119450320.98306     -2250.621    22353503.541    92905819.21205
     -1750.488  
  21198530.559   113397858.61604      1118.854    21198534.356    88198335.55106
       870.218  
 20 09 28 07 52 25.0000000  0 16G20G24G15G18G21G27G32G 8G10R 3R 4R 2
                                R18R12R11R19
  19950397.789   104840047.59049       227.530    19950397.037    81693540.53048
       177.292  
  20736404.269   108970543.98449      1090.055    20736407.117    84912123.69348
       849.394  
  21710436.073   114089108.97748     -2780.676    21710435.883    88900609.82047
     -2166.761  
  21932668.972   115256946.52748     -3016.566    21932670.027    89810612.39747
     -2350.574  
  24296327.062   127678060.90346      2434.940    24296327.524    99489397.87644
      1897.343  
  24526715.786   128888756.81845     -1999.273    24526720.299   100432795.30744
     -1557.874  
  24411669.333   128284190.38147      3300.507    24411674.693    99961721.44145
      2571.823  
  24652687.590   129550741.39804      -291.570           0.000           0.0000 
         0.000  
  21644935.321   113744906.85849      2332.461    21644937.751    88632402.88848
      1817.504  
  19781801.105   105893529.35709      1357.000    19781803.894    82361646.91308
      1055.444  
  23211862.519   124298470.25304      3390.690    23211868.422    96676610.06504
      2637.054  
  20165723.155   107608162.95808     -2018.699    20165728.323    83695252.78207
     -1570.102  
  21049149.751   112361781.52608     -2716.253    21049155.093    87392523.03807
     -2112.645  
  20890845.469   111595147.20308      1406.773    20890849.985    86796247.75207
      1094.156  
  22355607.019   119461585.61306     -2255.066    22355611.637    92914580.58405
     -1753.944  
  21197487.489   113392278.77304      1113.667    21197491.302    88193995.67806
       866.188  
 20 09 28 07 52 30.0000000  0 16G20G24G15G18G21G27G32G 8G10R 3R 4R 2
                                R18R12R11R19
  19950182.520   104838916.30749       224.938    19950181.745    81692659.00748
       175.272  
  20735368.875   108965103.04649      1086.504    20735371.719    84907884.00748
       846.624  
  21713082.681   114103017.02648     -2782.078    21713082.481    88911447.26047
     -2167.855  
  21935540.149   115272034.66048     -3018.581    21935541.240    89822369.37747
     -2352.145  
  24294011.100   127665889.97546      2433.772    24294011.435    99479914.06744
      1896.441  
  24528619.284   128898759.51945     -2001.319    24528623.295   100440589.63444
     -1559.472  
  24408529.326   128267689.40747      3300.136    24408534.604    99948863.54946
      2571.535  
  24652966.393   129552206.95944      -294.246    24652968.496   100949760.47753
      -229.281  
  21642716.720   113733248.06549      2331.101    21642719.133    88623318.11248
      1816.438  
  19780534.676   105886750.09209      1354.870    19780537.509    82356374.15608
      1053.789  
  23208697.520   124281522.51504      3389.609    23208703.548    96663428.50804
      2636.367  
  20167615.495   107618260.90908     -2020.269    20167620.607    83703106.74407
     -1571.320  
  21051695.706   112375371.94708     -2719.797    21051701.047    87403093.34907
     -2115.401  
  20889530.781   111588124.43708      1402.593    20889535.267    86790785.61407
      1090.905  
  22357718.794   119472870.23906     -2258.378    22357723.481    92923357.50705
     -1756.520  
  21196448.900   113386723.20904      1108.637    21196452.872    88189674.70206
       862.273  
 20 09 28 07 52 35.0000000  0 16G20G24G15G18G21G27G32G 8G10R 3R 4R 2
                                R18R12R11R19
  19949969.668   104837797.73449       222.140    19949968.887    81691787.38948
       173.094  
  20734336.620   108959678.70049      1083.008    20734339.480    84903657.25548
       843.901  
  21715730.507   114116931.44748     -2783.496    21715730.298    88922289.66047
     -2168.961  
  21938413.142   115287132.34148     -3020.726    21938414.224    89834133.79947
     -2353.722  
  24291696.542   127653726.54346      2431.934    24291696.842    99470436.04044
      1895.008  
  24530524.895   128908773.19945     -2003.559    24530528.591   100448392.56341
     -1561.203  
  24405389.731   128251190.56647      3299.218    24405395.073    99936007.31945
      2570.819  
  24653248.083   129553687.24744      -298.281    24653247.678   100950927.83654
      -232.426  
  21640499.398   113721595.95849      2329.492    21640501.788    88614238.55047
      1815.187  
  19779269.983   105879980.24809      1352.809    19779272.867    82351108.71908
      1052.184  
  23205532.851   124264576.45105      3388.707    23205538.846    96650248.25804
      2635.664  
  20169509.342   107628366.84008     -2022.301    20169514.423    83710966.90907
     -1572.905  
  21054244.891   112388979.76208     -2723.702    21054250.270    87413677.19507
     -2118.441  
  20888220.036   111581122.64508      1398.227    20888224.480    86785339.78207
      1087.507  
  22359834.022   119484172.90806     -2262.405    22359838.716    92932148.48805
     -1759.647  
  21195414.494   113381190.02204      1103.355    21195418.639    88185371.12105
       858.163  
 20 09 28 07 52 40.0000000  0 16G20G24G15G18G21G27G32G 8G10R 3R 4R 2
                                R18R12R11R19
  19949759.421   104836692.94249       220.359    19949758.644    81690926.51348
       171.706  
  20733307.730   108954271.97249      1080.375    20733310.586    84899444.23048
       841.851  
  21718379.750   114130853.37448     -2784.496    21718379.604    88933137.90647
     -2169.742  
  21941288.143   115302240.66848     -3022.066    21941289.249    89845906.51547
     -2354.762  
  24289383.629   127641571.76246      2430.647    24289383.991    99460964.80043
      1894.016  
  24532432.838   128918799.06845     -2004.511    24532436.374   100456204.86544
     -1561.953  
  24402250.750   128234694.92347      3299.628    24402256.056    99923153.57245
      2571.141  
  24653532.653   129555183.20544      -300.249    24653538.409   100952111.51851
      -233.961  
  21638283.570   113709951.64149      2328.819    21638285.904    88605165.06047
      1814.659  
  19778007.297   105873221.17909      1351.629    19778010.186    82345851.66408
      1051.262  
  23202368.660   124247633.06905      3389.335    23202374.680    96637070.08704
      2636.147  
  20171404.846   107638481.83108     -2023.176    20171409.967    83718834.12107
     -1573.585  
  21056797.521   112402605.96708     -2726.402    21056802.962    87424275.35207
     -2120.539  
  20886913.425   111574142.89808      1394.434    20886917.846    86779911.10507
      1084.558  
  22361952.711   119495494.66206     -2265.379    22361957.573    92940954.30505
     -1761.960  
  21194384.484   113375680.19004      1100.546    21194388.731    88181085.69505
       855.979  
 20 09 28 07 52 45.0000000  0 16G20G24G15G18G21G27G32G 8G10R 3R 4R 2
                                R18R12R11R19
  19949551.389   104835599.75749       217.172    19949550.618    81690074.67948
       169.223  
  20732281.837   108948880.83449      1076.328    20732284.657    84895243.34848
       838.695  
  21721029.957   114144780.52448     -2786.207    21721029.921    88943990.23047
     -2171.070  
  21944164.746   115317357.44548     -3024.359    21944165.845    89857685.81947
     -2356.648  
  24287071.927   127629423.46746      2428.426    24287072.116    99451498.59144
      1892.277  
  24534342.708   128928834.94245     -2008.280    24534345.450   100464025.02641
     -1564.905  
  24399111.999   128218200.36247      3298.319    24399117.232    99910300.67445
      2570.121  
  24653819.840   129556692.59944      -303.520    24653824.233   100953288.67154
      -236.507  
  21636068.828   113698312.93749      2326.980    21636071.107    88596095.93447
      1813.226  
  19776746.158   105866470.42409      1349.104    19776749.073    82340601.07708
      1049.301  
  23199204.546   124230690.22705      3388.358    23199210.569    96623892.33204
      2635.390  
  20173301.660   107648603.74808     -2025.163    20173306.817    83726706.72107
     -1575.132  
  21059353.198   112416248.37708     -2730.167    21059358.689    87434886.11007
     -2123.469  
  20885610.522   111567183.02508      1389.694    20885614.968    86774497.88007
      1080.874  
  22364074.653   119506833.36406     -2269.340    22364079.622    92949773.29705
     -1765.042  
  21193358.455   113370191.60004      1094.652    21193362.661    88176816.79805
       851.394  
 20 09 28 07 52 50.0000000  0 16G20G24G15G18G21G27G32G 8G10R 3R 4R 2
                                R18R12R11R19
  19949346.261   104834521.83449       214.336    19949345.503    81689234.73648
       167.012  
  20731259.561   108943508.79949      1072.723    20731262.349    84891057.35548
       835.887  
  21723681.889   114158716.61648     -2787.754    21723681.932    88954849.52047
     -2172.281  
  21947043.671   115332486.35848     -3026.789    21947044.786    89869474.56947
     -2358.538  
  24284762.183   127617285.27146      2427.063    24284762.422    99442040.28244
      1891.223  
  24536255.082   128938884.40844     -2010.797    24536258.039   100471855.85244
     -1566.859  
  24395974.119   128201710.50247      3297.828    24395979.302    99897451.43645
      2569.733  
  24654110.411   129558219.31504      -306.562           0.000           0.0000 
         0.000  
  21633855.863   113686683.53749      2325.219    21633858.098    88587034.06448
      1811.859  
  19775487.324   105859731.91109      1346.905    19775490.263    82335360.01408
      1047.593  
  23196041.391   124213751.73905      3388.063    23196047.255    96610717.96204
      2635.160  
  20175200.518   107658736.35508     -2027.347    20175205.655    83734587.63507
     -1576.827  
  21061912.651   112429910.75208     -2734.222    21061918.140    87445512.39107
     -2126.621  
  20884312.004   111560246.73308      1385.363    20884316.540    86769102.98907
      1077.504  
  22366200.336   119518192.68306     -2273.613    22366205.444    92958608.31205
     -1768.371  
  21192337.013   113364727.94604      1090.925    21192341.162    88172567.29305
       848.495  
 20 09 28 07 52 55.0000000  0 16G20G24G15G18G21G27G32G 8G10R 3R 4R 2
                                R18R12R11R19
  19949143.852   104833458.16749       211.508    19949143.116    81688405.90148
       164.808  
  20730240.778   108938155.02749      1069.063    20730243.531    84886885.58848
       833.035  
  21726335.316   114172660.59548     -2789.339    21726335.435    88965714.95347
     -2173.516  
  21949924.695   115347626.33548     -3028.983    21949925.819    89881271.95147
     -2360.249  
  24282454.198   127605156.23346      2425.136    24282454.536    99432589.06145
      1889.715  
  24538169.674   128948946.40644     -2013.948    24538173.108   100479696.33244
     -1569.320  
  24392836.950   128185224.38447      3296.792    24392842.037    99884605.11245
      2568.925  
  24654404.007   129559762.32544      -309.964    24654399.562   100955643.82553
      -241.530  
  21631644.471   113675062.40849      2323.577    21631646.686    88577978.63548
      1810.578  
  19774230.575   105853004.46309      1344.570    19774233.549    82330127.55208
      1045.772  
  23192878.862   124196816.50505      3386.823    23192884.454    96597546.10004
      2634.191  
  20177101.147   107668878.44408     -2029.058    20177106.278    83742475.92707
     -1578.160  
  21064475.616   112443592.00108     -2737.858    21064481.119    87456153.35407
     -2129.448  
  20883017.750   111553333.08908      1380.840    20883022.367    86763725.71107
      1073.987  
  22368329.649   119529571.52406     -2277.417    22368334.854    92967458.52405
     -1771.327  
  21191320.096   113359288.37704      1086.089    21191324.149    88168336.51905
       844.734  
 20 09 28 07 53  0.0000000  0 16G20G24G15G18G21G27G32G 8G10R 3R 4R 2
                                R18R12R11R19
  19948943.765   104832406.76549       208.901    19948943.065    81687586.63248
       162.780  
  20729225.063   108932817.34849      1065.852    20729227.790    84882726.36348
       830.534  
  21728989.867   114186610.41848     -2790.461    21728990.004    88976584.93847
     -2174.391  
  21952807.420   115362775.37748     -3030.819    21952808.584    89893076.39047
     -2361.683  
  24280147.567   127593034.33246      2423.621    24280147.966    99423143.41745
      1888.530  
  24540086.293   128959019.06044     -2015.925    24540090.494   100487545.20744
     -1570.840  
  24389700.123   128168739.93447      3296.577    24389705.097    99871760.11845
      2568.762  
  24654700.430   129561319.54144      -313.550    24654698.490   100956874.10851
      -244.323  
  21629434.256   113663447.55549      2322.250    21629436.506    88568928.10248
      1809.542  
  19772975.570   105846286.20109      1342.663    19772978.559    82324902.24008
      1044.293  
  23189716.652   124179882.42305      3386.827    23189721.907    96584375.14404
      2634.194  
  20179003.166   107679027.98408     -2030.702    20179008.306    83750370.01707
     -1579.441  
  21067041.706   112457290.09008     -2741.409    21067047.222    87466807.41107
     -2132.210  
  20881727.321   111546439.91608      1376.456    20881732.049    86758364.35707
      1070.573  
  22370462.424   119540967.89606     -2280.918    22370467.543    92976322.36004
     -1774.051  
  21190307.263   113353870.86904      1081.063    21190311.280    88164122.88905
       840.824  
 20 09 28 07 53  5.0000000  0 16G20G24G15G18G21G27G32G 8G10R 3R 4R 2
                                R18R12R11R19
  19948746.503   104831370.17949       205.901    19948745.848    81686778.90548
       160.445  
  20728212.905   108927498.36149      1061.800    20728215.590    84878581.69848
       827.374  
  21731646.034   114200568.66748     -2792.367    21731646.156    88987461.50047
     -2175.870  
  21955692.380   115377935.97648     -3033.148    21955693.532    89904889.83246
     -2363.452  
  24277842.732   127580922.06246      2421.476    24277843.306    99413705.31244
      1886.866  
  24542005.334   128969104.68944     -2018.397    24542010.136   100495404.07341
     -1572.773  
  24386564.097   128152259.72647      3295.672    24386568.965    99858918.39745
      2568.055  
  24654999.957   129562893.49943      -316.844    24654995.104   100958100.62953
      -246.891  
  21627225.695   113651841.52349      2320.519    21627227.998    88559884.44048
      1808.195  
  19771722.753   105839579.58309      1340.160    19771725.758    82319685.97608
      1042.344  
  23186555.273   124162952.09806      3385.727    23186560.202    96571207.12804
      2633.343  
  20180907.122   107689187.85708     -2032.827    20180912.276    83758272.13707
     -1581.093  
  21069611.407   112471007.48708     -2745.398    21069616.928    87477476.48907
     -2135.313  
  20880441.200   111539569.93608      1371.828    20880446.064    86753021.03707
      1066.973  
  22372598.813   119552384.33106     -2285.479    22372603.853    92985201.81105
     -1777.602  
  21189299.173   113348477.67604      1076.183    21189302.953    88159928.18705
       837.027  
 20 09 28 07 53 10.0000000  0 15G20G24G15G18G21G32G 8G10R 3R 4R 2R18
                                R12R11R19
  19948552.323   104830349.78549       202.809    19948551.704    81685983.79448
       158.031  
  20727204.549   108922199.41649      1058.086    20727207.206    84874452.65748
       824.483  
  21734304.086   114214536.73248     -2794.180    21734304.167    88998345.70547
     -2177.284  
  21958579.786   115393109.55548     -3035.613    21958580.943    89916713.39147
     -2365.418  
  24275540.084   127568820.84846      2419.757    24275540.330    99404275.76244
      1885.515  
  24383429.137   128135785.20947      3294.284    24383434.020    99846081.10645
      2566.977  
  24655302.791   129564485.46603      -319.313           0.000           0.0000 
         0.000  
  21625019.054   113640245.69749      2318.604    21625021.433    88550848.73948
      1806.706  
  19770472.389   105832886.06809      1337.645    19770475.399    82314479.91408
      1040.391  
  23183394.795   124146027.03906      3385.222    23183399.540    96558043.20404
      2632.948  
  20182813.182   107699358.98808     -2035.023    20182818.349    83766183.01607
     -1582.800  
  21072184.995   112484745.53508     -2749.465    21072190.504    87488161.63207
     -2138.477  
  20879159.645   111532724.41408      1367.222    20879164.680    86747696.73907
      1063.391  
  22374739.212   119563822.28806     -2289.695    22374744.131    92994097.97305
     -1780.882  
  21188295.992   113343110.36304      1071.440    21188299.466    88155753.62505
       833.343  
 20 09 28 07 53 15.0000000  0 15G20G24G15G18G21G32G 8G10R 3R 4R 2R18
                                R12R11R19
  19948360.252   104829340.54149       200.590    19948359.690    81685197.37248
       156.304  
  20726199.086   108916915.64049      1055.043    20726201.707    84870335.43248
       822.113  
  21736963.032   114228509.52248     -2795.160    21736963.055    89009233.59447
     -2178.050  
  21961468.702   115408291.03648     -3037.202    21961469.843    89928543.11246
     -2366.655  
  24273238.540   127556725.71546      2418.289    24273238.500    99394850.99844
      1884.378  
  24380294.278   128119311.22847      3294.469    24380299.081    99833244.23945
      2567.113  
  24655607.793   129566090.66903      -322.027           0.000           0.0000 
         0.000  
  21622813.424   113628655.06849      2317.608    21622815.819    88541817.08648
      1805.930  
  19769223.512   105826200.57509      1336.065    19769226.502    82309280.09108
      1039.164  
  23180234.304   124129102.00606      3385.008    23180238.966    96544879.30804
      2632.785  
  20184720.462   107709536.69308     -2036.331    20184725.659    83774099.00007
     -1583.815  
  21074761.525   112498499.28808     -2752.266    21074767.021    87498858.98907
     -2140.655  
  20877881.753   111525898.39208      1363.039    20877886.916    86742387.60607
      1060.137  
  22376882.681   119575276.58406     -2292.937    22376887.470    93003006.88604
     -1783.394  
  21187296.647   113337763.98004      1066.828    21187299.910    88151595.32105
       829.750  
 20 09 28 07 53 20.0000000  0 14G20G24G15G18G21G32G10R 3R 4R 2R18R12
                                R11R19
  19948170.656   104828344.14349       198.297    19948170.128    81684420.96148
       154.516  
  20725196.793   108911648.49149      1052.012    20725199.392    84866231.15248
       819.750  
  21739623.224   114242488.80148     -2796.265    21739623.224    89020126.54047
     -2178.914  
  21964359.467   115423482.07748     -3038.938    21964360.601    89940380.27946
     -2368.007  
  24270938.447   127544638.26946      2416.800    24270938.413    99385432.21243
      1883.227  
  24377159.856   128102839.54447      3294.504    24377164.538    99820409.15345
      2567.140  
  21620609.112   113617071.29649      2316.343    21620611.539    88532790.77348
      1804.940  
  19767976.408   105819524.73009      1334.469    19767979.384    82304087.77108
      1037.921  
  23177074.158   124112178.78306      3384.667    23177078.783    96531716.81904
      2632.519  
  20186629.286   107719722.29808     -2037.675    20186634.461    83782021.14107
     -1584.862  
  21077341.261   112512270.28408     -2755.753    21077346.776    87509569.75507
     -2143.366  
  20876607.812   111519093.47908      1359.148    20876613.091    86737094.90107
      1057.116  
  22379029.652   119586748.87706     -2296.016    22379034.194    93011929.77605
     -1785.793  
  21186301.406   113332440.05104      1063.354    21186304.598    88147454.49105
       827.054  
 20 09 28 07 53 25.0000000  0 14G20G24G15G18G21G32G10R 3R 4R 2R18R12
                                R11R19
  19947983.409   104827360.18449       195.070    19947982.925    81683654.23748
       152.000  
  20724197.610   108906397.78149      1048.054    20724200.193    84862139.69348
       816.660  
  21742284.555   114256474.09948     -2798.156    21742284.560    89031024.17347
     -2180.387  
  21967251.969   115438682.30748     -3041.512    21967253.083    89952224.60647
     -2370.011  
  24268639.673   127532558.09846      2415.188    24268639.675    99376019.10844
      1881.964  
  24374025.822   128086369.76847      3293.378    24374030.429    99807575.56445
      2566.265  
  21618406.071   113605494.01949      2314.378    21618408.488    88523769.52248
      1803.414  
  19766731.013   105812858.15909      1331.925    19766733.990    82298902.66308
      1035.940  
  23173914.146   124095256.90606      3384.026    23173918.801    96518555.38904
      2632.023  
  20188539.495   107729915.63008     -2039.987    20188544.703    83789949.29307
     -1586.655  
  21079924.163   112526058.18008     -2759.609    21079929.742    87520293.67007
     -2146.366  
  20875337.754   111512309.36708      1354.238    20875343.166    86731818.36707
      1053.297  
  22381179.888   119598238.80506     -2300.105    22381184.310    93020866.38704
     -1788.976  
  21185310.386   113327138.32204      1057.718    21185313.479    88143330.91505
       822.667  
 20 09 28 07 53 30.0000000  0 14G20G24G15G18G21G32G10R 3R 4R 2R18R12
                                R11R19
  19947798.768   104826389.82549       192.766    19947798.301    81682898.11148
       150.202  
  20723201.775   108901164.56949      1044.895    20723204.331    84858061.86848
       814.199  
  21744947.209   114270466.53248     -2799.194    21744947.283    89041927.36147
     -2181.194  
  21970146.436   115453892.80448     -3043.136    21970147.498    89964076.93747
     -2371.277  
  24266342.479   127520486.41746      2413.565    24266342.399    99366612.58444
      1880.691  
  24370892.304   128069902.98947      3293.007    24370896.851    99794744.33645
      2565.979  
  21616204.490   113593924.38249      2313.191    21616206.913    88514754.22048
      1802.487  
  19765487.600   105806202.04109      1330.141    19765490.548    82293725.67908
      1034.550  
  23170754.494   124078337.64706      3383.484    23170759.391    96505395.99604
      2631.602  
  20190451.429   107740117.89008     -2041.519    20190456.610    83797884.38707
     -1587.848  
  21082510.473   112539864.17208     -2762.906    21082516.105    87531031.65307
     -2148.929  
  20874071.816   111505547.20308      1350.301    20874077.350    86726558.91007
      1050.233  
  22383333.625   119609747.44206     -2303.832    22383337.996    93029817.55604
     -1791.870  
  21184323.574   113321859.73404      1053.995    21184326.740    88139225.34805
       819.769  
 20 09 28 07 53 35.0000000  0 15G20G24G15G18G21G27G32G10R 3R 4R 2R18
                                R12R11R19
  19947616.739   104825433.22549       189.972    19947616.297    81682152.70848
       148.026  
  20722209.293   108895949.04149      1041.468    20722211.850    84853997.82348
       811.535  
  21747611.251   114284466.29348     -2800.668    21747611.432    89052836.26347
     -2182.343  
  21973042.900   115469113.76148     -3045.151    21973043.939    89975937.41147
     -2372.852  
  24264046.923   127508423.37846      2411.758    24264047.097    99357212.80044
      1879.285  
  24553568.429   129029871.53655     -2032.602    24553572.297   100542774.28355
     -1583.848  
  24367759.409   128053439.45247      3292.378    24367763.950    99781915.59845
      2565.484  
  21614004.384   113582362.52949      2311.581    21614006.803    88505744.98348
      1801.229  
  19764246.161   105799556.55109      1328.019    19764249.100    82288556.96608
      1032.897  
  23167595.434   124061421.08305      3382.972    23167600.520    96492238.68805
      2631.198  
  20192365.067   107750329.11808     -2043.164    20192370.175    83805826.45307
     -1589.128  
  21085100.141   112553688.21208     -2766.582    21085105.879    87541783.67507
     -2151.789  
  20872810.022   111498807.08508      1345.921    20872815.632    86721316.60007
      1046.827  
  22385490.913   119621275.02206     -2307.336    22385495.286    93038783.45305
     -1794.594  
  21183341.243   113316604.61004      1050.109    21183344.356    88135138.02105
       816.745  
 20 09 28 07 53 40.0000000  0 16G20G24G15G18G21G27G32G 8G10R 3R 4R 2
                                R18R12R11R19
  19947436.664   104824486.86549       187.863    19947436.203    81681415.28648
       146.382  
  20721219.518   108890747.73949      1038.370    20721222.099    84849944.86448
       809.121  
  21750276.006   114298469.86248     -2801.691    21750276.320    89063748.12447
     -2183.141  
  21975940.666   115484341.65348     -3046.586    21975941.678    89987803.29447
     -2373.969  
  24261752.361   127496365.53045      2410.472    24261752.529    99347817.11345
      1878.289  
  24555503.348   129040035.01145     -2034.124    24555504.460   100550693.82445
     -1585.039  
  24364626.431   128036975.60747      3292.405    24364630.931    99769086.62846
      2565.507  
  24657176.425   129574336.13954      -337.141    24657181.685   100967028.81153
      -262.710  
  21611805.093   113570805.02349      2310.644    21611807.512    88496739.13048
      1800.500  
  19763006.075   105792918.18309      1326.480    19763009.027    82283393.79008
      1031.702  
  23164436.323   124044503.78405      3382.855    23164441.554    96479080.80004
      2631.109  
  20194279.643   107760545.62908     -2044.203    20194284.736    83813772.62507
     -1589.940  
  21087692.592   112567526.92408     -2769.566    21087698.393    87552547.10507
     -2154.108  
  20871551.759   111492085.54608      1341.988    20871557.362    86716088.73907
      1043.770  
  22387651.019   119632817.94106     -2310.793    22387655.327    93047761.28204
     -1797.288  
  21182362.863   113311369.59304      1043.995    21182365.726    88131066.34505
       811.991  
 20 09 28 07 53 45.0000000  0 16G20G24G15G18G21G27G32G 8G10R 3R 4R 2
                                R18R12R11R19
  19947259.346   104823555.02249       184.929    19947258.871    81680689.17048
       144.098  
  20720233.238   108885564.73949      1034.648    20720235.800    84845906.16848
       806.214  
  21752942.282   114312481.45648     -2803.094    21752942.683    89074666.24947
     -2184.234  
  21978840.578   115499580.73448     -3049.175    21978841.530    89999677.89147
     -2375.983  
  24259459.596   127484317.06345      2408.723    24259460.039    99338428.65943
      1876.925  
  24557440.583   129050211.12345     -2036.449    24557440.863   100558623.25844
     -1586.848  
  24361494.190   128020515.72647      3291.569    24361498.755    99756260.76845
      2564.859  
  24657498.770   129576030.01044      -340.457    24657502.857   100968348.67841
      -265.309  
  21609607.429   113559256.06349      2308.804    21609609.835    88487739.94648
      1799.070  
  19761768.094   105786291.17209      1324.284    19761771.075    82278239.44308
      1029.996  
  23161277.696   124027589.91605      3382.394    23161283.198    96465925.57904
      2630.749  
  20196196.117   107770772.08508     -2046.348    20196201.168    83821726.52907
     -1591.608  
  21090288.561   112581384.53908     -2773.499    21090294.442    87563325.24307
     -2157.172  
  20870297.738   111485386.91308      1337.159    20870303.379    86710878.69307
      1040.007  
  22389814.880   119644380.49206     -2314.577    22389819.004    93056754.35305
     -1800.233  
  21181388.602   113306158.67604      1039.520    21181391.576    88127013.40605
       808.511  
 20 09 28 07 53 50.0000000  0 16G20G24G15G18G21G27G32G 8G10R 3R 4R 2
                                R18R12R11R19
  19947085.047   104822639.04449       181.688    19947084.536    81679975.42248
       141.570  
  20719250.720   108880401.51149      1030.727    20719253.270    84841882.87148
       803.159  
  21755610.351   114326502.44148     -2804.992    21755610.842    89085591.69447
     -2185.706  
  21981742.881   115514832.31248     -3051.593    21981743.807    90011562.23047
     -2377.870  
  24257168.811   127472279.47145      2406.754    24257169.332    99329048.75343
      1875.395  
  24559380.197   129060401.30445     -2039.272    24559378.773   100566563.64143
     -1589.042  
  24358362.988   128004061.14547      3290.551    24358367.564    99743439.03346
      2564.065  
  24657824.500   129577741.63645      -344.452    24657827.572   100969683.51754
      -268.405  
  21607411.638   113547717.01349      2306.839    21607413.998    88478748.48548
      1797.538  
  19760532.520   105779676.88909      1321.745    19760535.502    82273095.00308
      1028.023  
  23158120.003   124010680.92505      3381.663    23158125.780    96452774.13904
      2630.203  
  20198114.674   107781009.71308     -2048.495    20198119.694    83829689.12407
     -1593.276  
  21092888.369   112595262.39708     -2777.405    21092894.270    87574119.13107
     -2160.207  
  20869048.278   111478712.55308      1332.520    20869053.939    86705687.52207
      1036.401  
  22391982.685   119655964.05406     -2318.726    22391986.708    93065763.78005
     -1803.456  
  21180419.412   113300973.47604      1034.503    21180422.250    88122980.46906
       804.609  
 20 09 28 07 53 55.0000000  0 16G20G24G15G18G21G27G32G 8G10R 3R 4R 2
                                R18R12R11R19
  19946913.284   104821736.42349       179.179    19946912.734    81679272.07848
       139.617  
  20718271.501   108875255.64849      1027.438    20718274.039    84837873.11648
       800.601  
  21758279.750   114340530.32248     -2806.211    21758280.272    89096522.50247
     -2186.660  
  21984647.090   115530093.87748     -3053.219    21984647.984    90023454.34846
     -2379.136  
  24254879.645   127460250.13145      2405.129    24254880.345    99319675.20245
      1874.117  
  24561321.566   129070602.92345     -2041.254    24561320.845   100574512.94541
     -1590.585  
  24355232.269   127987609.41647      3290.098    24355236.901    99730619.52145
      2563.711  
  24658153.188   129579468.47045      -346.734    24658158.469   100971028.92243
      -270.230  
  21605217.265   113536185.40849      2305.668    21605219.585    88469762.82548
      1796.625  
  19759298.842   105773072.82109      1319.784    19759301.844    82267958.50808
      1026.499  
  23154962.766   123993774.34805      3380.874    23154968.803    96439624.59604
      2629.570  
  20200034.735   107791255.59008     -2050.085    20200039.772    83837658.13007
     -1594.515  
  21095491.508   112609157.94308     -2780.969    21095497.372    87584926.76807
     -2162.980  
  20867802.895   111472059.97108      1328.266    20867808.610    86700513.30307
      1033.093  
  22394153.889   119667566.08705     -2322.565    22394158.003    93074787.60505
     -1806.440  
  21179454.300   113295811.30804      1030.535    21179457.317    88118965.43906
       801.522  
 20 09 28 07 54  0.0000000  0 16G20G24G15G18G21G27G32G 8G10R 3R 4R 2
                                R18R12R11R19
  19946744.196   104820847.92149       176.175    19946743.604    81678579.74048
       137.276  
  20717295.711   108870127.83549      1023.625    20717298.241    84833877.41648
       797.625  
  21760950.592   114354565.78548     -2807.843    21760951.164    89107459.23347
     -2187.929  
  21987553.309   115545366.19248     -3055.569    21987554.237    90035354.84547
     -2380.969  
  24252592.113   127448229.85045      2402.648    24252592.969    99310308.80944
      1872.202  
  24563265.000   129080816.79844     -2043.656    24563264.911   100582471.73044
     -1592.468  
  24352102.276   127971161.25547      3288.977    24352106.915    99717802.78445
      2562.839  
  24658485.039   129581211.32444      -349.859    24658488.709   100972387.13743
      -272.613  
  21603024.470   113524662.00849      2303.645    21603026.747    88460783.55248
      1795.046  
  19758067.202   105766479.76009      1317.382    19758070.213    82262830.57308
      1024.632  
  23151806.176   123976870.82505      3380.246    23151812.270    96426477.37403
      2629.073  
  20201956.598   107801510.99008     -2052.245    20201961.637    83845634.54907
     -1596.195  
  21098098.036   112623071.98508     -2784.722    21098103.938    87595748.79007
     -2165.897  
  20866561.680   111465429.87408      1323.737    20866567.486    86695356.55507
      1029.570  
  22396328.644   119679187.28705     -2326.167    22396332.890    93083826.29405
     -1809.246  
  21178493.780   113290673.07804      1024.675    21178496.811    88114969.04606
       796.969  
 20 09 28 07 54  5.0000000  0 15G20G24G15G18G21G27G32G 8G10R 3R 4R 2
                                R18R12R11
  19946578.432   104819976.88849       171.413    19946577.807    81677901.01448
       133.566  
  20716323.988   108865021.45949      1017.991    20716326.515    84829898.42548
       793.242  
  21763623.531   114368612.23648     -2811.491    21763624.173    89118404.50747
     -2190.776  
  21990462.223   115560652.57948     -3059.851    21990463.185    90047266.31347
     -2384.304  
  24250306.711   127436221.95144      2399.816    24250308.055    99300952.03146
      1869.992  
  24565211.153   129091046.21644     -2048.862    24565210.605   100590442.64645
     -1596.515  
  24348973.588   127954720.01647      3286.188    24348978.299    99704991.43645
      2560.664  
  24658820.524   129582973.52944      -355.594    24658824.993   100973760.19643
      -277.097  
  21600833.871   113513150.14149      2300.105    21600836.111    88451813.26448
      1792.284  
  19756838.284   105759901.26309      1313.229    19756841.250    82257713.96808
      1021.398  
  23148650.796   123959973.78405      3377.664    23148656.799    96413335.22803
      2627.066  
  20203880.866   107811779.18708     -2056.187    20203885.890    83853620.91407
     -1599.262  
  21100708.653   112637007.82308     -2790.527    21100714.582    87606587.77107
     -2170.413  
  20865325.328   111458825.69308      1317.011    20865331.209    86690219.98007
      1024.343  
  22398507.491   119690831.07405     -2331.922    22398512.043    93092882.56005
     -1813.722  
 20 09 28 07 54 10.0000000  0 15G20G24G15G18G21G27G32G 8G10R 3R 4R 2
                                R18R12R11
  19946416.670   104819126.94949       168.789    19946416.036    81677238.71448
       131.519  
  20715357.045   108859940.10949      1014.647    20715359.551    84825938.92948
       790.636  
  21766299.257   114382673.24248     -2812.699    21766299.913    89129361.12547
     -2191.719  
  21993374.492   115575956.65248     -3061.624    21993375.505    90059191.55747
     -2385.687  
  24248024.412   127424230.13845      2397.925    24248025.771    99291607.70945
      1868.504  
  24567160.697   129101294.88744     -2050.831    24567162.023   100598421.71954
     -1598.050  
  24345846.870   127938289.34647      3285.870    24345851.640    99692188.32345
      2560.417  
  24659160.458   129584758.67844      -358.323    24659165.240   100975151.23145
      -279.215  
  21598646.154   113501653.45949      2298.730    21598648.360    88442854.81948
      1791.218  
  19755612.683   105753340.71109      1311.226    19755615.624    82252611.31708
      1019.844  
  23145497.369   123943087.04405      3376.973    23145503.307    96400201.07703
      2626.531  
  20205808.229   107822063.87408     -2057.612    20205813.229    83861620.11607
     -1600.371  
  21103324.034   112650969.02608     -2793.694    21103329.932    87617446.48007
     -2172.879  
  20864094.560   111452251.15108      1312.772    20864100.479    86685106.44607
      1021.047  
  22400691.203   119702501.14005     -2335.421    22400696.065    93101959.25005
     -1816.444  
 20 09 28 07 54 15.0000000  0 15G20G24G15G18G21G27G32G 8G10R 3R 4R 2
                                R18R12R11
  19946256.115   104818283.31849       167.964    19946255.453    81676581.34248
       130.878  
  20714392.020   108854868.80449      1013.133    20714394.545    84821987.26748
       789.449  
  21768974.910   114396733.95548     -2812.229    21768975.616    89140317.52247
     -2191.352  
  21996287.294   115591263.59548     -3061.805    21996288.331    90071119.02947
     -2385.823  
  24245742.454   127412239.52745      2397.645    24245744.174    99282264.42046
      1868.293  
  24569111.172   129111547.82844     -2051.354    24569111.481   100606403.89454
     -1598.456  
  24342719.357   127921854.40447      3287.312    24342724.201    99679381.88946
      2561.542  
  24659501.995   129586552.02644      -359.972    24659508.081   100976548.64044
      -280.504  
  21596458.513   113490157.17049      2299.125    21596460.680    88433896.66748
      1791.527  
  19754387.636   105746783.12609      1311.082    19754390.546    82247510.97808
      1019.730  
  23142342.874   123926195.33504      3379.063    23142348.961    96387063.05803
      2628.156  
  20207735.782   107832349.66708     -2057.480    20207740.772    83869620.16707
     -1600.266  
  21105941.379   112664940.68708     -2795.582    21105947.247    87628313.31807
     -2174.343  
  20862866.545   111445691.15608      1310.308    20862872.456    86680004.22507
      1019.128  
  22402876.992   119714182.39705     -2337.753    22402882.118    93111044.66005
     -1818.258  
 20 09 28 07 54 20.0000000  0 15G20G24G15G18G21G27G32G 8G10R 3R 4R 2
                                R18R12R11
  19946097.138   104817447.95349       165.862    19946096.449    81675930.40448
       129.237  
  20713429.326   108849809.75249      1010.327    20713431.870    84818045.14948
       787.265  
  21771650.876   114410796.34348     -2812.905    21771651.597    89151275.22047
     -2191.879  
  21999201.034   115606575.30648     -3062.922    21999202.060    90083050.23347
     -2386.694  
  24243461.244   127400252.12345      2396.902    24243463.132    99272923.56143
      1867.710  
  24571063.066   129121807.22644     -2052.226    24571063.146   100614398.28945
     -1599.120  
  24339591.441   127905417.18547      3287.020    24339596.273    99666573.67246
      2561.312  
  24659845.249   129588355.36844      -361.586    24659850.855   100977953.86641
      -281.738  
  21594271.294   113478663.19149      2298.405    21594273.458    88424940.32748
      1790.965  
  19753163.517   105740230.51009      1309.729    19753166.388    82242414.50208
      1018.680  
  23139187.870   123909300.90304      3378.780    23139194.044    96373922.97203
      2627.941  
  20209663.983   107842638.81908     -2058.461    20209668.924    83877622.84007
     -1601.027  
  21108561.076   112678924.80708     -2798.500    21108566.882    87639189.85007
     -2176.612  
  20861641.597   111439147.73608      1306.844    20861647.531    86674914.90707
      1016.433  
  22405065.226   119725876.74505     -2340.586    22405070.555    93120140.26004
     -1820.461  
 20 09 28 07 54 25.0000000  0 14G20G24G15G18G21G32G 8G10R 3R 4R 2R18
                                R12R11
  19945940.330   104816624.01549       163.035    19945939.643    81675288.37348
       127.035  
  20712469.574   108844766.09549      1006.605    20712472.124    84814115.02548
       784.363  
  21774327.761   114424863.62848     -2814.430    21774328.534    89162236.73447
     -2193.065  
  22002116.290   115621895.01748     -3065.266    22002117.303    90094987.66347
     -2388.523  
  24241181.268   127388271.11245      2395.159    24241183.164    99263587.75345
      1866.366  
  24336463.673   127888980.84647      3286.641    24336468.510    99653766.13045
      2561.015  
  24660190.994   129590171.86804      -365.038           0.000           0.0000 
         0.000  
  21592085.113   113467174.73549      2296.562    21592087.270    88415988.28648
      1789.526  
  19751940.955   105733686.22709      1307.504    19751943.808    82237324.50208
      1016.948  
  23136032.913   123892406.62504      3378.727    23136039.197    96360782.99004
      2628.109  
  20211593.407   107852934.59608     -2060.456    20211598.271    83885630.65907
     -1602.581  
  21111183.667   112692924.50408     -2801.983    21111189.458    87650078.49507
     -2179.323  
  20860420.383   111432624.13508      1302.128    20860426.263    86669841.00207
      1012.766  
  22407256.744   119737587.49005     -2344.222    22407261.977    93129248.61005
     -1823.289  
 20 09 28 07 54 30.0000000  0 14G20G24G15G18G21G32G 8G10R 3R 4R 2R18
                                R12R11
  19945785.562   104815810.76649       161.230    19945784.887    81674654.67248
       125.628  
  20711512.591   108839737.05249      1003.991    20711515.185    84810196.30248
       782.331  
  21777005.444   114438934.97748     -2815.059    21777006.238    89173201.42347
     -2193.555  
  22005032.927   115637221.92348     -3066.495    22005033.928    90106930.69547
     -2389.479  
  24238902.404   127376295.69545      2394.327    24238904.222    99254256.18144
      1865.698  
  24333336.010   127872544.67547      3286.476    24333340.853    99640958.74245
      2560.890  
  24660538.932   129592001.07644      -367.785    24660542.451   100980802.77651
      -286.559  
  21589899.826   113455691.06549      2295.667    21589902.001    88407039.97648
      1788.831  
  19750719.824   105727149.42009      1306.261    19750722.640    82232240.32208
      1015.980  
  23132877.998   123875512.04104      3379.117    23132884.088    96347642.79103
      2628.207  
  20213523.915   107863236.15708     -2061.394    20213528.687    83893642.97607
     -1603.313  
  21113809.030   112706938.99108     -2804.671    21113814.866    87660978.65007
     -2181.413  
  20859202.725   111426119.56408      1298.526    20859208.550    86664781.89607
      1009.965  
  22409451.163   119749313.80306     -2347.429    22409456.176    93138369.06805
     -1825.781  
 20 09 28 07 54 35.0000000  0 13G20G24G15G18G21G32G10R 3R 4R 2R18R12
                                R11
  19945633.884   104815013.81449       157.562    19945633.233    81674033.67448
       122.776  
  20710559.461   108834728.19749       999.785    20710562.078    84806293.29848
       779.055  
  21779684.978   114453016.02448     -2817.327    21779685.782    89184173.67447
     -2195.319  
  22007951.960   115652561.64348     -3069.374    22007953.026    90118883.72347
     -2391.808  
  24236625.657   127364331.59445      2391.703    24236627.563    99244933.58045
      1863.667  
  24330209.397   127856114.21747      3285.237    24330214.333    99628155.78945
      2559.926  
  21587716.519   113444217.77249      2293.546    21587718.700    88398099.75348
      1787.180  
  19749501.163   105720625.76709      1303.230    19749503.960    82227166.37008
      1013.624  
  23129724.156   123858622.82904      3377.226    23129729.919    96334506.75403
      2626.734  
  20215456.573   107873549.28608     -2063.852    20215461.311    83901664.30407
     -1605.219  
  21116438.225   112720973.96808     -2809.077    21116444.171    87671894.73607
     -2184.844  
  20857989.706   111419639.70908      1293.484    20857995.484    86659742.00607
      1006.038  
  22411649.507   119761061.43006     -2351.624    22411654.462    93147506.13205
     -1829.042  
 20 09 28 07 54 40.0000000  0 13G20G24G15G18G21G32G10R 3R 4R 2R18R12
                                R11
  19945485.564   104814234.44949       154.401    19945484.917    81673426.37548
       120.308  
  20709610.387   108829740.84449       995.593    20709613.078    84802407.05148
       775.788  
  21782366.644   114467108.08348     -2819.168    21782367.457    89195154.49947
     -2196.758  
  22010873.688   115667915.45648     -3071.816    22010874.771    90130847.72047
     -2393.629  
  24234351.170   127352380.01945      2389.601    24234353.229    99235620.68546
      1862.031  
  24327084.126   127839690.80347      3284.070    24327089.095    99615358.33846
      2559.015  
  21585535.472   113432756.20249      2291.241    21585537.630    88389168.66448
      1785.383  
  19748285.212   105714116.68909      1300.608    19748288.010    82222103.75808
      1011.585  
  23126571.483   123841740.28505      3375.992    23126576.742    96321375.91503
      2625.777  
  20217391.654   107883875.15608     -2066.270    20217396.322    83909695.53607
     -1607.102  
  21119071.518   112735030.79308     -2813.238    21119077.583    87682827.81207
     -2188.077  
  20856781.602   111413185.98308      1288.495    20856787.340    86654722.43907
      1002.159  
  22413852.117   119772831.66606     -2356.445    22413857.026    93156660.76005
     -1832.789  
 20 09 28 07 54 45.0000000  0 14G20G24G15G18G21G27G32G10R 3R 4R 2R18
                                R12R11
  19945339.826   104813468.68749       151.546    19945339.197    81672829.67548
       118.085  
  20708664.636   108824771.07448       991.862    20708667.400    84798534.50248
       772.875  
  21785049.632   114481207.12848     -2820.733    21785050.459    89206140.75647
     -2197.980  
  22013797.353   115683279.32448     -3073.961    22013798.476    90142819.55347
     -2395.355  
  24232078.480   127340437.04645      2387.789    24232080.759    99226314.42645
      1860.604  
  24580857.366   129173277.11754     -2064.417    24580857.443   100654501.14351
     -1608.617  
  24323959.472   127823270.47947      3283.722    24323964.449    99602563.27645
      2558.746  
  21583355.900   113421302.31949      2289.800    21583358.021    88380243.56448
      1784.261  
  19747071.241   105707618.08109      1298.457    19747073.995    82217049.29108
      1009.909  
  23123419.275   123824860.25804      3375.738    23123424.052    96308247.07303
      2625.582  
  20219328.355   107894209.67008     -2067.999    20219332.973    83917733.48207
     -1608.449  
  21121708.130   112749105.33008     -2817.199    21121714.337    87693774.66807
     -2191.160  
  20855577.593   111406754.29108      1283.882    20855583.305    86649720.00807
       998.569  
  22416058.125   119784620.34206     -2359.777    22416063.054    93165829.72205
     -1835.386  
 20 09 28 07 54 50.0000000  0 14G20G24G15G18G21G27G32G10R 3R 4R 2R18
                                R12R11
  19945194.896   104812707.13649       151.941    19945194.271    81672236.26048
       118.390  
  20707720.375   108819809.23449       991.577    20707723.191    84794668.12348
       772.656  
  21787732.179   114495303.75348     -2819.003    21787733.007    89217125.15647
     -2196.624  
  22016721.107   115698643.88348     -3072.973    22016722.268    90154791.92947
     -2394.526  
  24229805.637   127328493.26745      2389.128    24229807.715    99217007.56445
      1861.652  
  24582821.705   129183598.22744     -2065.183    24582821.790   100662543.50345
     -1609.229  
  24320833.621   127806843.80247      3286.300    24320838.612    99589763.27945
      2560.753  
  21581176.018   113409846.77449      2291.413    21581178.119    88371317.16648
      1785.511  
  19745857.422   105701120.31909      1299.547    19745860.135    82211995.47408
      1010.753  
  23120265.552   123807973.34004      3377.906    23120270.459    96295112.81403
      2627.265  
  20221264.908   107904543.45708     -2066.660    20221269.543    83925770.87207
     -1607.402  
  21124346.291   112763187.94907     -2817.452    21124352.575    87704727.80907
     -2191.354  
  20854375.940   111400335.15308      1282.719    20854381.615    86644727.34807
       997.671  
  22418265.855   119796418.00206     -2360.257    22418270.826    93175005.68405
     -1835.758  
 20 09 28 07 54 55.0000000  0 13G20G24G15G18G21G32G10R 3R 4R 2R18R12
                                R11
  19945053.837   104811965.89849       143.874    19945053.217    81671658.66948
       112.104  
  20706780.773   108814871.68349       982.672    20706783.623    84790820.68848
       765.718  
  21790417.307   114509414.10348     -2825.785    21790418.137    89228120.22047
     -2201.914  
  22019648.078   115714025.18948     -3080.316    22019649.253    90166777.35047
     -2400.250  
  24227535.722   127316564.75445      2381.512    24227538.064    99207712.66145
      1855.726  
  24317709.662   127790426.94647      3280.113    24317714.628    99576970.93245
      2555.933  
  21578998.890   113398405.66949      2284.277    21579000.934    88362402.02048
      1779.953  
  19744646.828   105694639.91309      1291.983    19744649.496    82206955.15808
      1004.871  
  23117113.758   123791095.78304      3371.402    23117118.737    96281985.81603
      2622.198  
  20223204.344   107914892.68808     -2073.776    20223209.038    83933820.27807
     -1612.938  
  21126989.056   112777295.11507     -2826.335    21126995.435    87715700.04707
     -2198.265  
  20853179.691   111393944.81508      1272.805    20853185.338    86639757.08807
       989.956  
  22420478.285   119808240.90006     -2369.487    22420483.309    93184201.25805
     -1842.937  
 20 09 28 07 55  0.0000000  0 13G20G24G15G18G21G32G10R 3R 4R 2R18R12
                                R11
  19944917.852   104811251.23149       142.808    19944917.227    81671101.78248
       111.277  
  20705846.975   108809964.63649       980.984    20705849.835    84786997.01248
       764.397  
  21793106.214   114523544.34348     -2825.519    21793107.035    89239130.80647
     -2201.703  
  22022579.424   115729429.48048     -3080.617    22022580.654    90178780.69547
     -2400.483  
  24225269.865   127304657.78445      2381.914    24225272.125    99198434.55344
      1856.039  
  24314588.742   127774026.08647      3281.280    24314593.651    99564191.05245
      2556.843  
  21576825.677   113386985.23049      2284.585    21576827.689    88353502.97648
      1780.195  
  19743440.688   105688183.13109      1291.741    19743443.269    82201933.21508
      1004.683  
  23113964.712   123774234.06604      3373.054    23113969.787    96268871.14303
      2623.484  
  20225147.874   107925263.89208     -2073.718    20225152.648    83941886.76207
     -1612.895  
  21129637.605   112791433.00108     -2828.026    21129644.020    87726696.18207
     -2199.578  
  20851990.022   111387589.72708      1270.112    20851995.655    86634814.25407
       987.867  
  22422696.703   119820095.48206     -2371.479    22422701.706    93193421.47105
     -1844.488  
 20 09 28 07 55  5.0000000  0 14G20G24G15G18G21G32G10R 3R 4R 2R18R12
                                R11R19
  19944782.320   104810538.97349       141.809    19944781.688    81670546.77348
       110.495  
  20704914.401   108805063.98649       979.270    20704917.264    84783178.32348
       763.066  
  21795794.356   114537670.43649     -2825.184    21795795.131    89250138.14347
     -2201.444  
  22025510.519   115744832.58248     -3080.741    22025511.833    90190783.10347
     -2400.581  
  24223003.513   127292748.20945      2382.233    24223005.757    99189154.31244
      1856.281  
  24311466.282   127757617.10447      3282.344    24311471.132    99551404.82645
      2557.672  
  21574651.781   113375561.30249      2284.772    21574653.765    88344601.21448
      1780.344  
  19742234.311   105681725.39609      1291.242    19742236.901    82196910.52508
      1004.297  
  23110814.220   123757363.45104      3375.214    23110819.291    96255749.50003
      2625.156  
  20227090.861   107935632.13908     -2073.796    20227095.691    83949950.95707
     -1612.956  
  21132287.286   112805577.08308     -2829.777    21132293.707    87737697.13707
     -2200.938  
  20850802.333   111381245.23808      1267.483    20850807.954    86629879.65207
       985.820  
  22424916.479   119831957.04407     -2373.129    22424921.376    93202647.13205
     -1845.769  
  21166404.205   113225989.09614       964.976    21166407.327    88064671.17015
       750.539  
 20 09 28 07 55 10.0000000  0 14G20G24G15G18G21G32G10R 3R 4R 2R18R12
                                R11R19
  19944648.842   104809837.41849       138.512    19944648.202    81670000.10648
       107.926  
  20703984.615   108800177.92849       975.055    20703987.476    84779370.99648
       759.777  
  21798483.242   114551800.50648     -2827.128    21798483.993    89261148.58347
     -2202.960  
  22028442.951   115760242.77748     -3083.566    22028444.372    90202791.04847
     -2402.780  
  24220738.231   127280844.41845      2379.465    24220740.607    99179878.64944
      1854.128  
  24308343.893   127741208.24847      3280.875    24308348.626    99538618.71845
      2556.526  
  21572478.782   113364142.20749      2282.605    21572480.791    88335703.21848
      1778.652  
  19741029.339   105675275.08809      1288.574    19741031.906    82191893.61608
      1002.218  
  23107663.745   123740492.42604      3373.538    23107668.627    96242627.62903
      2623.862  
  20229034.980   107946006.45608     -2076.109    20229039.871    83958019.86707
     -1614.754  
  21134939.733   112819735.83908     -2833.979    21134946.117    87748709.49607
     -2204.211  
  20849618.269   111374919.90308      1262.457    20849623.773    86624959.95707
       981.910  
  22427139.182   119843834.05407     -2377.848    22427143.965    93211884.80205
     -1849.441  
  21165504.003   113221174.09504       959.585    21165507.133    88060926.17805
       746.344  
 20 09 28 07 55 15.0000000  0 14G20G24G15G18G21G32G10R 3R 4R 2R18R12
                                R11R19
  19944518.162   104809150.56349       136.563    19944517.505    81669464.89348
       106.409  
  20703058.370   108795310.44649       972.269    20703061.209    84775578.15048
       757.608  
  21801173.669   114565938.54448     -2827.726    21801174.362    89272165.22447
     -2203.425  
  22031377.506   115775664.05748     -3084.660    22031378.994    90214807.61647
     -2403.530  
  24218474.744   127268950.27345      2379.281    24218476.975    99170610.48644
      1853.979  
  24305222.263   127724803.56447      3281.184    24305226.889    99525835.85145
      2556.766  
  21570307.468   113352731.94049      2281.780    21570309.522    88326812.11048
      1778.011  
  19739826.503   105668836.33809      1287.273    19739829.079    82186885.70308
      1001.211  
  23104513.816   123723625.13304      3373.793    23104518.771    96229508.65303
      2624.065  
  20230980.896   107956390.35908     -2077.132    20230985.854    83966096.23307
     -1615.550  
  21137595.681   112833913.40508     -2836.750    21137602.051    87759736.48107
     -2206.362  
  20848438.521   111368617.77508      1258.694    20848443.897    86620058.30507
       978.983  
  22429365.579   119855730.62007     -2380.520    22429370.163    93221137.69005
     -1851.520  
  21164608.486   113216383.61904       956.063    21164611.633    88057200.27905
       743.604  
 20 09 28 07 55 20.0000000  0 14G20G24G15G18G21G32G10R 3R 4R 2R18R12
                                R11R19
  19944389.954   104808476.76449       133.187    19944389.287    81668939.85948
       103.780  
  20702135.377   108790459.99649       968.112    20702138.178    84771798.58748
       754.374  
  21803865.307   114580082.94749     -2829.875    21803865.983    89283186.83547
     -2205.101  
  22034313.858   115791094.78448     -3087.562    22034315.463    90226831.55847
     -2405.898  
  24216212.669   127257064.27245      2376.085    24216215.049    99161348.71344
      1851.496  
  24302101.065   127708401.43247      3280.038    24302105.628    99513054.96645
      2555.870  
  21568137.533   113341328.88649      2279.523    21568139.617    88317926.61848
      1776.254  
  19738625.552   105662407.58109      1284.516    19738628.165    82181885.56408
       999.081  
  23101364.418   123706759.81304      3372.539    23101369.312    96216391.20303
      2623.086  
  20232928.364   107966782.39008     -2079.601    20232933.353    83974178.92207
     -1617.473  
  21140254.810   112848107.92508     -2840.719    21140261.136    87770776.64507
     -2209.452  
  20847262.781   111362337.15208      1253.667    20847268.032    86615173.38307
       975.073  
  22431595.224   119867645.01407     -2384.707    22431599.796    93230404.44505
     -1854.772  
  21163717.082   113211615.95704       951.019    21163720.380    88053492.08105
       739.680  
 20 09 28 07 55 25.0000000  0 14G20G24G15G18G21G32G10R 3R 4R 2R18R12
                                R11R19
  19944264.726   104807818.68549       129.805    19944264.065    81668427.06648
       101.144  
  20701216.122   108785629.24449       964.081    20701218.869    84768034.35648
       751.230  
  21806558.659   114594236.35849     -2831.804    21806559.309    89294215.46547
     -2206.605  
  22037252.524   115806537.61448     -3089.844    22037254.178    90238864.91747
     -2407.675  
  24213952.661   127245188.94245      2373.973    24213955.097    99152095.21545
      1849.852  
  24298980.880   127692004.50247      3278.840    24298985.325    99500278.15845
      2554.941  
  21565969.496   113329935.74049      2277.332    21565971.589    88309048.84548
      1774.542  
  19737426.996   105655991.49409      1281.867    19737429.645    82176895.27008
       997.003  
  23098215.603   123689899.23804      3371.855    23098220.587    96203277.43803
      2622.558  
  20234877.932   107977185.53208     -2081.898    20234882.956    83982270.24707
     -1619.258  
  21142917.640   112862322.19708     -2844.964    21142923.925    87781832.18807
     -2212.753  
  20846091.544   111356080.77108      1248.581    20846096.737    86610307.31907
       971.121  
  22433828.747   119879580.00207     -2389.406    22433833.356    93239687.21305
     -1858.429  
  21162830.607   113206873.94804       945.824    21162833.942    88049803.85305
       735.637  
 20 09 28 07 55 30.0000000  0 14G20G24G15G18G21G32G10R 3R 4R 2R18R12
                                R11R19
  19944141.988   104807173.69449       127.589    19944141.335    81667924.47848
        99.421  
  20700300.116   108780815.53949       961.113    20700302.806    84764283.41848
       748.913  
  21809253.236   114608396.11349     -2832.644    21809253.835    89305249.03447
     -2207.258  
  22040192.974   115821989.87748     -3091.663    22040194.690    90250905.63847
     -2409.094  
  24211694.401   127233321.77045      2372.664    24211696.721    99142848.04144
      1848.828  
  24295861.129   127675610.19347      3278.277    24295865.490    99487503.36045
      2554.496  
  21563802.847   113318549.83149      2276.374    21563804.900    88300176.70948
      1773.792  
  19736230.279   105649585.21609      1280.155    19736232.937    82171912.61308
       995.676  
  23095067.390   123673040.82804      3370.973    23095072.233    96190165.37303
      2621.871  
  20236829.027   107987596.70208     -2083.206    20236834.058    83990367.82607
     -1620.276  
  21145583.696   112876553.47208     -2847.987    21145589.904    87792900.94707
     -2215.105  
  20844924.401   111349845.97508      1244.597    20844929.482    86605458.04207
       968.020  
  22436065.621   119891532.80307     -2392.680    22436070.260    93248983.81605
     -1860.976  
  21161948.584   113202154.78004       941.354    21161951.778    88046133.37905
       732.159  
 20 09 28 07 55 35.0000000  0 14G20G24G15G18G21G32G10R 3R 4R 2R18R12
                                R11R19
  19944021.950   104806542.89149       124.562    19944021.320    81667432.94248
        97.062  
  20699387.543   108776019.90449       957.155    20699390.227    84760546.56148
       745.835  
  21811949.218   114622563.30949     -2834.332    21811949.808    89316288.40647
     -2208.574  
  22043135.411   115837452.64348     -3093.519    22043137.202    90262954.54147
     -2410.539  
  24209437.927   127221463.85445      2371.409    24209440.130    99133608.14945
      1847.854  
  24292742.092   127659219.44747      3277.827    24292746.380    99474731.34645
      2554.148  
  21561637.794   113307172.27249      2274.391    21561639.816    88291311.08248
      1772.253  
  19735035.607   105643189.98409      1277.746    19735038.269    82166938.54508
       993.789  
  23091919.715   123656185.48504      3370.694    23091924.433    96177055.70803
      2621.655  
  20238781.786   107998016.87508     -2085.003    20238786.809    83998472.40507
     -1621.671  
  21148253.085   112890802.82308     -2851.878    21148259.318    87803983.77407
     -2218.132  
  20843761.427   111343633.88808      1240.020    20843766.463    86600626.43007
       964.460  
  22438305.994   119903504.51907     -2396.477    22438310.652    93258295.13205
     -1863.929  
  21161070.929   113197459.54204       936.469    21161074.061    88042481.53105
       728.362  
 20 09 28 07 55 40.0000000  0 14G20G24G15G18G21G32G10R 3R 4R 2R18R12
                                R11R19
  19943904.657   104805926.51349       121.925    19943904.059    81666952.65148
        95.007  
  20698478.468   108771242.68249       953.770    20698481.161    84756824.05648
       743.194  
  21814646.638   114636738.16149     -2835.608    21814647.184    89327333.74047
     -2209.569  
  22046079.902   115852926.14248     -3095.695    22046081.715    90275011.80047
     -2412.254  
  24207183.382   127209615.42446      2369.180    24207185.154    99124375.58541
      1846.104  
  24289623.787   127642832.67547      3276.664    24289627.901    99461962.44945
      2553.245  
  21559474.347   113295803.25249      2273.140    21559476.371    88282452.10648
      1771.277  
  19733843.049   105636806.09709      1275.754    19733845.691    82161973.30408
       992.254  
  23088772.941   123639333.59104      3371.108    23088777.264    96163948.70603
      2621.976  
  20240736.354   108008446.82308     -2086.823    20240741.376    84006584.58307
     -1623.090  
  21150925.932   112905070.56708     -2855.102    21150932.168    87815080.90207
     -2220.636  
  20842602.744   111337444.72608      1235.741    20842607.765    86595812.64107
       961.132  
  22440549.900   119915495.33307     -2399.895    22440554.557    93267621.30205
     -1866.594  
  21160197.811   113192788.60704       932.031    21160200.875    88038848.59605
       724.913  
 20 09 28 07 55 45.0000000  0 14G20G24G15G18G21G32G10R 3R 4R 2R18R12
                                R11R19
  19943789.833   104805323.10549       119.792    19943789.235    81666482.46848
        93.344  
  20697572.593   108766482.34049       950.737    20697575.306    84753114.70148
       740.831  
  21817345.223   114650919.22649     -2836.469    21817345.720    89338383.92047
     -2210.237  
  22049026.166   115868408.89348     -3097.004    22049028.011    90287076.26547
     -2413.297  
  24204930.386   127197775.00646      2367.508    24204932.085    99115149.26944
      1844.808  
  24286505.936   127626448.28847      3276.992    24286509.958    99449195.39944
      2553.499  
  21557312.266   113284441.37949      2272.089    21557314.280    88273598.70448
      1770.461  
  19732652.270   105630432.04009      1274.262    19732654.950    82157015.70908
       991.113  
  23085626.483   123622483.51404      3370.698    23085630.433    96150843.11003
      2621.660  
  20242692.409   108018884.67508     -2088.030    20242697.395    84014702.91307
     -1624.026  
  21153601.881   112919355.09208     -2858.309    21153608.139    87826191.08107
     -2223.132  
  20841448.153   111331277.04608      1231.719    20841453.126    86591015.56407
       958.004  
  22442797.168   119927503.83707     -2403.226    22442801.752    93276961.23704
     -1869.180  
  21159328.847   113188140.33004       927.663    21159331.891    88035233.26605
       721.512  
 20 09 28 07 55 50.0000000  0 15G20G24G15G18G21G32G 8G10R 3R 4R 2R18
                                R12R11R19
  19943677.168   104804731.07649       117.098    19943676.582    81666021.14248
        91.242  
  20696669.623   108761737.29649       947.379    20696672.383    84749417.25648
       738.214  
  21820044.680   114665104.90949     -2837.683    21820045.120    89349437.69747
     -2211.187  
  22051973.871   115883899.28448     -3098.921    22051975.701    90299146.68647
     -2414.788  
  24202678.600   127185940.94545      2366.222    24202679.865    99105927.93143
      1843.805  
  24283388.235   127610064.75147      3276.409    24283392.187    99436429.02345
      2553.046  
  24666521.224   129623445.22914      -416.680           0.000           0.0000 
         0.000  
  21555151.228   113273085.04449      2270.516    21555153.241    88264749.61148
      1769.233  
  19731463.039   105624066.08909      1272.257    19731465.737    82152064.41208
       989.535  
  23082479.993   123605633.91704      3369.397    23082483.738    96137737.92403
      2620.651  
  20244649.674   108029329.07608     -2089.461    20244654.603    84022826.33507
     -1625.141  
  21156280.654   112933654.71708     -2861.418    21156286.922    87837312.99607
     -2225.550  
  20840297.232   111325129.15608      1227.402    20840302.254    86586233.88407
       954.645  
  22445047.401   119939528.27307     -2406.644    22445051.786    93286313.56604
     -1871.843  
  21158463.735   113183513.15904       923.554    21158466.869    88031634.36405
       718.319  
 20 09 28 07 55 55.0000000  0 15G20G24G15G18G21G32G 8G10R 3R 4R 2R18
                                R12R11R19
  19943567.240   104804153.40349       114.320    19943566.662    81665571.00448
        89.078  
  20695770.171   108757010.70449       943.637    20695772.988    84745734.19748
       735.296  
  21822745.611   114679298.27149     -2839.351    21822745.994    89360497.45147
     -2212.483  
  22054923.611   115899400.39448     -3101.027    22054925.454    90311225.46647
     -2416.453  
  24200428.555   127174116.41046      2364.476    24200429.497    99096714.01944
      1842.452  
  24280271.257   127593685.14047      3275.637    24280275.193    99423665.70245
      2552.444  
  24666919.618   129625539.77544      -420.534    24666928.936   101006926.76953
      -327.691  
  21552991.785   113261737.31649      2268.895    21552993.881    88255907.23448
      1767.968  
  19730275.902   105617711.47309      1269.968    19730278.664    82147121.93408
       987.753  
  23079333.969   123588787.75804      3368.254    23079337.806    96124635.38503
      2619.757  
  20246608.634   108039782.65208     -2091.594    20246613.539    84030956.89407
     -1626.800  
  21158962.851   112947972.65408     -2865.008    21158969.135    87848449.15307
     -2228.344  
  20839150.603   111319004.32208      1222.863    20839155.761    86581470.11907
       951.112  
  22447301.132   119951571.84007     -2410.645    22447305.201    93295680.79104
     -1874.944  
  21157603.123   113178910.30604       918.363    21157606.430    88028054.36705
       714.280  
 20 09 28 07 56  0.0000000  0 15G20G24G15G18G21G32G 8G10R 3R 4R 2R18
                                R12R11R19
  19943460.024   104803590.04149       111.269    19943459.474    81665132.02448
        86.702  
  20694874.160   108752302.26049       939.858    20694877.038    84742065.27548
       732.354  
  21825447.963   114693499.06849     -2840.867    21825448.255    89371563.00847
     -2213.668  
  22057875.345   115914912.01748     -3103.383    22057877.186    90323312.43847
     -2418.223  
  24198180.278   127162301.26146      2361.594    24198181.282    99087507.39144
      1840.199  
  24277154.961   127577309.27347      3274.781    24277158.882    99410905.30345
      2551.777  
  24667321.545   129627650.32145      -423.866    24667329.084   101008571.55843
      -330.257  
  21550833.963   113250398.04149      2266.996    21550836.104    88247071.43748
      1766.492  
  19729090.818   105611367.93709      1267.538    19729093.661    82142188.07408
       985.862  
  23076188.821   123571944.82404      3368.164    23076192.620    96111535.35804
      2619.688  
  20248569.419   108050245.84108     -2093.664    20248574.321    84039094.93107
     -1628.409  
  21161648.498   112962308.66708     -2868.996    21161654.713    87859599.37407
     -2231.444  
  20838008.227   111312902.26408      1218.082    20838013.568    86576724.06107
       947.395  
  22449558.408   119963634.32306     -2414.523    22449562.144    93305062.74404
     -1877.961  
  21156747.077   113174331.60004       913.663    21156750.538    88024493.16905
       710.629  
 20 09 28 07 56  5.0000000  0 15G20G24G15G18G21G32G 8G10R 3R 4R 2R18
                                R12R11R19
  19943355.519   104803040.86549       108.391    19943354.961    81664704.09548
        84.456  
  20693981.610   108747611.88049       936.289    20693984.518    84738410.42948
       729.569  
  21828151.739   114707707.22949     -2842.328    21828151.932    89382634.30147
     -2214.805  
  22060829.052   115930434.04348     -3105.305    22060830.920    90335407.51747
     -2419.722  
  24195933.776   127150495.34246      2360.047    24195934.437    99078307.96744
      1838.992  
  24274039.366   127560937.08247      3273.902    24274043.273    99398147.75045
      2551.090  
  24667726.777   129629776.73645      -426.979    24667736.673   101010228.37841
      -332.707  
  21548677.713   113239067.12349      2265.281    21548679.926    88238242.15648
      1765.152  
  19727907.781   105605035.38809      1265.371    19727910.710    82137262.76008
       984.175  
  23073044.139   123555105.06605      3367.617    23073048.058    96098437.77304
      2619.258  
  20250531.793   108060717.78808     -2095.230    20250536.780    84047239.77007
     -1629.629  
  21164337.538   112976662.53908     -2872.429    21164343.646    87870763.49207
     -2234.116  
  20836870.089   111306822.87908      1213.550    20836875.622    86571995.64907
       943.866  
  22451819.210   119975715.64307     -2418.308    22451822.736    93314459.29804
     -1880.910  
  21155895.550   113169776.72504       909.238    21155899.083    88020950.49105
       707.184  
 20 09 28 07 56 10.0000000  0 15G20G24G15G18G21G32G 8G10R 3R 4R 2R18
                                R12R11R19
  19943253.626   104802505.47749       105.566    19943253.065    81664286.91048
        82.254  
  20693092.464   108742939.32049       932.546    20693095.397    84734769.47148
       726.656  
  21830856.837   114721922.39249     -2843.937    21830856.956    89393711.04947
     -2216.059  
  22063784.672   115945966.08448     -3107.546    22063786.566    90347510.39247
     -2421.469  
  24193688.907   127138698.22645      2358.769    24193689.228    99069115.43145
      1838.003  
  24270924.415   127544568.12347      3273.203    24270928.316    99385392.74345
      2550.550  
  24668134.954   129631918.68745      -430.046    24668140.484   101011897.48041
      -335.113  
  21546522.999   113227744.17649      2263.629    21546525.233    88229419.08048
      1763.867  
  19726726.794   105598713.63109      1263.090    19726729.798    82132345.83808
       982.401  
  23069900.111   123538268.06805      3366.655    23069904.075    96085342.35204
      2618.516  
  20252495.883   108071198.76708     -2097.503    20252500.924    84055391.63607
     -1631.395  
  21167029.879   112991034.05908     -2876.226    21167035.876    87881941.33107
     -2237.070  
  20835736.160   111300765.82608      1209.112    20835741.828    86567284.61207
       940.422  
  22454083.538   119987815.34007     -2422.030    22454086.988    93323870.15704
     -1883.805  
  21155048.528   113165245.50604       904.320    21155052.040    88017426.20205
       703.354  
 20 09 28 07 56 15.0000000  0 15G20G24G15G18G21G32G 8G10R 3R 4R 2R18
                                R12R11R19
  19943154.430   104801984.23149       103.297    19943153.875    81663880.74148
        80.488  
  20692206.734   108738284.81249       929.519    20692209.690    84731142.58948
       724.301  
  21833563.301   114736144.80049     -2844.820    21833563.375    89404793.44147
     -2216.746  
  22066742.249   115961508.44348     -3109.124    22066744.184    90359621.31247
     -2422.698  
  24191445.856   127126910.41546      2357.284    24191446.255    99059930.08344
      1836.836  
  24267810.112   127528202.79147      3273.031    24267814.081    99372640.56245
      2550.418  
  24668545.750   129634076.40445      -432.632    24668551.361   101013578.73343
      -337.129  
  21544369.873   113216429.55249      2262.444    21544372.117    88220602.49348
      1762.944  
  19725547.864   105592402.75809      1261.574    19725550.905    82127437.38608
       981.222  
  23066756.624   123521434.11905      3366.991    23066760.672    96072249.31504
      2618.707  
  20254461.721   108081689.00908     -2098.484    20254466.784    84063550.71407
     -1632.159  
  21169725.499   113005423.36808     -2879.270    21169731.454    87893133.00907
     -2239.437  
  20834606.508   111294731.42708      1204.960    20834612.261    86562591.20007
       937.190  
  22456351.333   119999933.81007     -2425.098    22456354.852    93333295.62204
     -1886.191  
  21154205.858   113160738.29504       899.374    21154209.443    88013920.59706
       699.516  
 20 09 28 07 56 20.0000000  0 15G20G24G15G18G21G32G 8G10R 3R 4R 2R18
                                R12R11R19
  19943057.755   104801476.26249       100.324    19943057.188    81663484.92048
        78.175  
  20691324.304   108733647.54849       925.812    20691327.242    84727529.14148
       721.413  
  21836270.961   114750373.65349     -2846.242    21836271.042    89415880.85447
     -2217.855  
  22069701.633   115977060.26848     -3111.261    22069703.587    90371739.60747
     -2424.362  
  24189204.354   127115130.90246      2355.319    24189204.606    99050751.30944
      1835.324  
  24264696.342   127511840.22547      3272.101    24264700.363    99359890.50345
      2549.691  
  24668959.527   129636249.03646      -436.054    24668966.254   101015271.71442
      -339.784  
  21542218.172   113205122.37749      2260.858    21542220.420    88211791.71448
      1761.706  
  19724370.845   105586101.99009      1259.207    19724373.854    82122536.79208
       979.379  
  23063613.488   123504602.54805      3366.074    23063617.692    96059158.13404
      2618.062  
  20256429.049   108092187.29808     -2100.503    20256434.120    84071716.04807
     -1633.729  
  21172424.350   113019829.73708     -2882.800    21172430.241    87904337.94707
     -2242.184  
  20833480.953   111288718.85108      1200.456    20833486.717    86557914.75707
       933.687  
  22458622.543   120012070.09007     -2429.027    22458626.085    93342734.93604
     -1889.249  
  21153367.645   113156254.13904       894.581    21153371.154    88010432.91806
       695.780  
 20 09 28 07 56 25.0000000  0 15G20G24G15G18G21G32G 8G10R 3R 4R 2R18
                                R12R11R19
  19942963.591   104800981.58049        98.073    19942963.016    81663099.45848
        76.421  
  20690445.134   108729027.38349       922.926    20690448.040    84723929.02048
       719.164  
  21838979.822   114764608.93748     -2847.074    21838979.917    89426973.27647
     -2218.503  
  22072662.798   115992621.51448     -3112.397    22072664.776    90383865.24147
     -2425.249  
  24186964.451   127103359.75646      2353.938    24186964.467    99041578.97044
      1834.234  
  24261583.109   127495480.38847      3272.266    24261587.192    99347142.58544
      2549.816  
  24669376.038   129638436.50646      -438.137    24669380.456   101016989.08551
      -341.406  
  21540067.898   113193822.67349      2259.726    21540070.150    88202986.75048
      1760.824  
  19723195.690   105579811.32309      1257.808    19723198.698    82117644.05408
       978.297  
  23060470.860   123487773.13405      3365.862    23060475.073    96046068.61005
      2617.897  
  20258397.964   108102693.93408     -2101.444    20258403.022    84079887.87907
     -1634.461  
  21175126.380   113034253.01708     -2885.625    21175132.197    87915556.04307
     -2244.379  
  20832359.498   111282728.05408      1196.663    20832365.229    86553255.25607
       930.737  
  22460897.079   120024224.11607     -2431.871    22460900.712    93352188.07404
     -1891.457  
  21152533.861   113151792.95604       890.895    21152537.212    88006963.10506
       692.913  
 20 09 28 07 56 30.0000000  0 15G20G24G15G18G21G32G 8G10R 3R 4R 2R18
                                R12R11R19
  19942871.764   104800499.02649        95.441    19942871.166    81662723.43948
        74.366  
  20689569.018   108724423.29849       919.461    20689571.889    84720341.42248
       716.465  
  21841689.683   114778849.44948     -2848.473    21841689.810    89438069.77347
     -2219.594  
  22075625.536   116008191.02548     -3114.409    22075627.576    90395997.31947
     -2426.816  
  24184725.890   127091595.84746      2351.844    24184725.962    99032412.32345
      1832.605  
  24258470.181   127479122.15047      3271.504    24258474.368    99334395.90545
      2549.222  
  24669795.200   129640637.68545      -441.441    24669799.901   101018704.42441
      -343.968  
  21537918.833   113182529.26349      2258.198    21537921.086    88194186.69048
      1759.636  
  19722022.168   105573529.62109      1255.707    19722025.187    82112758.28908
       976.660  
  23057328.374   123470944.76705      3365.836    23057332.610    96032979.89405
      2617.875  
  20260368.178   108113207.55808     -2103.327    20260373.257    84088065.14407
     -1635.921  
  21177831.324   113048691.96908     -2889.137    21177837.069    87926786.33607
     -2247.109  
  20831241.929   111276757.91608      1192.172    20831247.617    86548611.82507
       927.245  
  22463174.762   120036394.77007     -2435.734    22463178.367    93361654.13904
     -1894.464  
  21151704.111   113147353.85004       885.703    21151707.433    88003510.45706
       688.875  
 20 09 28 07 56 35.0000000  0 15G20G24G15G18G21G32G 8G10R 3R 4R 2R18
                                R12R11R19
  19942782.607   104800030.50549        92.230    19942781.986    81662358.35848
        71.866  
  20688696.298   108719837.12849       915.456    20688699.126    84716767.78948
       713.343  
  21844400.921   114793097.09848     -2850.191    21844401.076    89449171.83147
     -2220.934  
  22078590.240   116023770.71348     -3116.914    22078592.276    90408137.33347
     -2428.769  
  24182489.070   127079841.06246      2350.272    24182489.113    99023252.74044
      1831.383  
  24255357.998   127462767.39747      3270.672    24255362.243    99321651.96245
      2548.574  
  24670217.117   129642854.49845      -444.503    24670219.743   101020431.76343
      -346.362  
  21535771.310   113171244.07749      2256.113    21535773.573    88185393.04548
      1758.011  
  19720850.714   105567258.82709      1253.222    19720853.728    82107881.00608
       974.730  
  23054186.440   123454119.47705      3364.647    23054190.583    96019893.58804
      2616.952  
  20262340.132   108123730.28408     -2105.563    20262345.195    84096249.48407
     -1637.664  
  21180539.556   113063148.69808     -2893.199    21180545.229    87938030.44107
     -2250.270  
  20830128.562   111270810.35508      1187.145    20830134.220    86543985.93907
       923.335  
  22465455.853   120048583.94707     -2439.577    22465459.286    93371134.61104
     -1897.449  
  21150878.807   113142938.65604       880.578    21150882.141    88000076.41206
       684.890  
 20 09 28 07 56 40.0000000  0 15G20G24G15G18G21G32G 8G10R 3R 4R 2R18
                                R12R11R19
  19942696.001   104799575.47849        89.503    19942695.397    81662003.79148
        69.737  
  20687826.898   108715268.30649       911.921    20687829.689    84713207.68448
       710.589  
  21847113.413   114807351.36948     -2851.628    21847113.574    89460279.05347
     -2222.051  
  22081556.798   116039359.98548     -3119.019    22081558.829    90420284.80747
     -2430.410  
  24180253.865   127068094.85346      2347.597    24180253.893    99014099.82444
      1829.292  
  24252246.309   127446415.61147      3269.608    24252250.652    99308910.32945
      2547.745  
  24670641.913   129645086.50545      -447.991    24670644.117   101022171.00344
      -349.085  
  21533625.259   113159966.59549      2254.667    21533627.540    88176605.40148
      1756.883  
  19719681.161   105560998.27308      1250.984    19719684.151    82103011.68808
       972.984  
  23051044.841   123437296.51405      3364.405    23051048.838    96006809.08205
      2616.766  
  20264313.703   108134261.57208     -2107.125    20264318.768    84104440.48307
     -1638.878  
  21183251.000   113077622.41208     -2896.651    21183256.588    87949287.76107
     -2252.956  
  20829019.279   111264884.82608      1182.641    20829024.943    86539377.20307
       919.832  
  22467740.286   120060791.04806     -2443.089    22467743.399    93380629.02004
     -1900.180  
  21150057.782   113138546.53904       875.793    21150061.112    87996660.32505
       681.167  
 20 09 28 07 56 45.0000000  0 15G20G24G15G18G21G32G 8G10R 3R 4R 2R18
                                R12R11R19
  19942612.295   104799135.63449        86.164    19942611.681    81661661.05048
        67.136  
  20686961.151   108710718.71049       907.831    20686963.923    84709662.54748
       707.402  
  21849827.472   114821613.91148     -2853.550    21849827.635    89471392.71447
     -2223.550  
  22084525.485   116054960.54148     -3121.387    22084527.577    90432441.08347
     -2432.254  
  24178020.588   127056358.93946      2346.714    24178020.608    99004955.02144
      1828.613  
  24249135.541   127430068.47447      3268.788    24249139.965    99296172.30645
      2547.109  
  24671069.956   129647335.35105      -451.413           0.000           0.0000 
         0.000  
  21531480.999   113148698.49749      2252.550    21531483.301    88167825.07048
      1755.233  
  19718513.857   105554749.82108      1248.187    19718516.873    82098151.78208
       970.809  
  23047904.033   123420477.88004      3362.976    23047907.970    95993727.94604
      2615.651  
  20266289.136   108144802.73908     -2109.492    20266294.185    84112639.16307
     -1640.718  
  21185965.883   113092114.86308     -2900.390    21185971.441    87960559.65207
     -2255.863  
  20827914.471   111258983.01708      1177.753    20827920.120    86534786.90907
       916.030  
  22470028.408   120073017.88807     -2447.526    22470031.136    93390138.79904
     -1903.633  
  21149241.479   113134179.55505       871.206    21149244.758    87993263.78205
       677.602  
 20 09 28 07 56 50.0000000  0 15G20G24G15G18G21G32G 8G10R 3R 4R 2R18
                                R12R11R19
  19942531.119   104798708.95549        84.515    19942530.487    81661328.57348
        65.852  
  20686098.659   108706186.28249       905.187    20686101.431    84706130.78648
       705.339  
  21852542.691   114835882.76148     -2853.894    21852542.944    89482511.29147
     -2223.815  
  22087495.942   116070570.39848     -3122.629    22087498.039    90444604.59847
     -2433.218  
  24175788.982   127044631.39446      2345.121    24175788.873    98995816.69044
      1827.366  
  24246025.328   127413724.03847      3268.897    24246029.777    99283436.38845
      2547.194  
  24671500.838   129649598.96746      -453.565    24671502.235   101025678.16453
      -353.468  
  21529338.146   113137437.82349      2251.862    21529340.451    88159050.51748
      1754.699  
  19717348.414   105548511.36809      1247.160    19717351.471    82093299.65508
       970.007  
  23044763.492   123403661.33104      3363.793    23044767.442    95980648.41604
      2616.285  
  20268266.122   108155352.22008     -2110.348    20268271.130    84120844.31207
     -1641.386  
  21188683.961   113106624.17808     -2903.026    21188689.445    87971844.65607
     -2257.918  
  20826813.762   111253103.00908      1174.195    20826819.318    86530213.57307
       913.261  
  22472319.802   120085262.37006     -2450.222    22472322.341    93399662.27604
     -1905.734  
  21148429.513   113129835.55205       866.624    21148432.685    87989885.11605
       674.038  
 20 09 28 07 56 55.0000000  0 15G20G24G15G18G21G32G 8G10R 3R 4R 2R18
                                R12R11R19
  19942452.347   104798294.88249        81.171    19942451.707    81661005.92148
        63.249  
  20685239.305   108701670.28749       901.237    20685242.089    84702611.83348
       702.261  
  21855258.995   114850157.28548     -2855.742    21855259.333    89493634.29547
     -2225.257  
  22090468.071   116086188.92048     -3124.913    22090470.151    90456774.86847
     -2434.917  
  24173558.810   127032911.57546      2342.421    24173558.865    98986684.33544
      1825.265  
  24242915.514   127397381.66947      3267.905    24242919.925    99270702.09145
      2546.422  
  24671934.391   129651876.70945      -457.238    24671935.334   101027452.94444
      -356.305  
  21527196.591   113126183.97149      2249.663    21527198.913    88150281.27848
      1752.979  
  19716184.747   105542282.32209      1244.440    19716187.840    82088454.84208
       967.897  
  23041623.216   123386846.39104      3363.296    23041627.197    95967570.12404
      2615.898  
  20270244.531   108165909.07908     -2112.457    20270249.426    84129055.19707
     -1643.026  
  21191405.039   113121149.66408     -2906.976    21191410.480    87983142.24507
     -2260.984  
  20825717.015   111247244.15908      1169.227    20825722.486    86525656.69707
       909.398  
  22474614.299   120097523.81406     -2454.359    22474616.932    93409198.95205
     -1908.949  
  21147621.651   113125513.91005       861.340    21147624.731    87986523.83205
       669.926  
 20 09 28 07 57  0.0000000  0 14G20G24G15G18G21G32G 8G10R 3R 2R18R12
                                R11R19
  19942376.233   104797894.74549        78.496    19942375.594    81660694.12448
        61.163  
  20684383.359   108697172.16849       897.702    20684386.151    84699106.81448
       699.507  
  21857976.633   114864438.79148     -2857.198    21857977.039    89504762.72247
     -2226.395  
  22093442.114   116101817.46348     -3127.066    22093444.178    90468952.95147
     -2436.648  
  24171330.393   127021200.81846      2340.711    24171330.545    98977559.08144
      1823.930  
  24239806.357   127381042.75347      3267.262    24239810.787    99257970.47445
      2545.918  
  24672370.869   129654170.10345      -460.308    24672370.975   101029240.07041
      -358.680  
  21525056.580   113114938.29049      2248.202    21525058.910    88141518.42048
      1751.848  
  19715023.123   105536064.08909      1242.332    19715026.261    82083618.44208
       966.258  
  20272224.596   108176474.89708     -2114.316    20272229.381    84137273.05707
     -1644.472  
  21194129.396   113135692.53008     -2910.331    21194134.772    87994453.35507
     -2263.594  
  20824624.494   111241407.89008      1164.781    20824629.888    86521117.38007
       905.940  
  22476912.293   120109803.72207     -2457.996    22476915.136    93418749.98305
     -1911.776  
  21146818.225   113121216.12305       857.296    21146821.291    87983181.11406
       666.780  
 20 09 28 07 57  5.0000000  0 14G20G24G15G18G21G32G 8G10R 3R 2R18R12
                                R11R19
  19942301.334   104797500.99449        78.160    19942300.702    81660387.30048
        60.898  
  20683529.354   108692684.40349       896.628    20683532.159    84695609.86148
       698.671  
  21860694.185   114878719.74848     -2855.984    21860694.652    89515890.73847
     -2225.445  
  22096416.629   116117448.42448     -3126.352    22096418.699    90481132.89847
     -2436.121  
  24169102.241   127009491.52046      2342.020    24169102.609    98968434.96045
      1824.945  
  24236696.433   127364699.67647      3269.136    24236700.805    99245235.61945
      2547.379  
  24672808.829   129656471.47345      -461.022    24672809.260   101031033.30942
      -359.238  
  21522916.707   113103693.21249      2249.140    21522919.020    88132756.02048
      1752.577  
  19713862.075   105529849.00309      1242.930    19713865.251    82078784.47808
       966.718  
  20274204.862   108187041.88108     -2113.430    20274209.524    84145491.82107
     -1643.780  
  21196855.608   113150245.26608     -2911.551    21196860.887    88005772.13307
     -2264.543  
  20823534.756   111235586.42808      1162.922    20823540.107    86516589.58307
       904.495  
  22479212.350   120122094.21607     -2459.238    22479215.397    93428309.25505
     -1912.746  
  21146017.921   113116934.50405       854.819    21146020.938    87979850.95805
       664.855  
 20 09 28 07 57 10.0000000  0 14G20G24G15G18G21G32G 8G10R 3R 2R18R12
                                R11R19
  19942229.156   104797121.57149        73.491    19942228.555    81660091.64848
        57.261  
  20682678.859   108688214.98949       891.034    20682681.689    84692127.20348
       694.312  
  21863413.136   114893008.08948     -2859.288    21863413.653    89527024.49947
     -2228.019  
  22099393.127   116133089.77648     -3130.254    22099395.133    90493320.96046
     -2439.163  
  24166875.886   126997791.76046      2338.078    24166876.339    98959318.25644
      1821.874  
  24233587.219   127348360.46147      3266.828    24233591.566    99232503.77145
      2545.581  
  24673249.789   129658788.82845      -465.961    24673249.598   101032839.04244
      -363.094  
  21520778.458   113092456.73449      2245.410    21520780.759    88124000.32448
      1749.672  
  19712703.159   105523645.01309      1238.672    19712706.301    82073959.15308
       963.406  
  20276186.849   108197618.01808     -2117.113    20276191.425    84153717.69807
     -1646.647  
  21199585.132   113164815.74308     -2917.039    21199590.380    88017104.71107
     -2268.812  
  20822449.314   111229787.90908      1156.397    20822454.658    86512079.62907
       899.422  
  22481515.827   120134403.54706     -2464.695    22481519.213    93437883.14505
     -1916.992  
  21145221.982   113112676.92505       848.558    21145225.081    87976539.50705
       659.983  
 20 09 28 07 57 15.0000000  0 14G20G24G15G18G21G32G 8G10R 3R 2R18R12
                                R11R19
  19942161.094   104796763.74649        69.703    19942160.485    81659812.82048
        54.309  
  20681833.215   108683771.10149       886.604    20681836.070    84688664.44148
       690.862  
  21866134.901   114907311.09248     -2861.746    21866135.424    89538169.69447
     -2229.937  
  22102372.973   116148748.75548     -3133.261    22102374.957    90505522.74747
     -2441.508  
  24164652.726   126986108.72246      2335.422    24164653.105    98950214.61344
      1819.804  
  24230480.121   127332032.36548      3264.660    24230484.448    99219780.57945
      2543.891  
  24673695.132   129661129.37345      -470.207    24673695.882   101034662.84344
      -366.391  
  21518643.227   113081236.11049      2242.815    21518645.485    88115256.98248
      1747.648  
  19711547.687   105517459.65309      1235.417    19711550.809    82069148.31908
       960.879  
  20278171.991   108208211.02108     -2119.859    20278176.525    84161956.69507
     -1648.784  
  21202319.448   113179411.46008     -2921.315    21202324.611    88028456.93007
     -2272.141  
  20821369.561   111224019.78108      1150.976    20821374.928    86507593.30707
       895.202  
  22483824.276   120146738.91706     -2469.555    22483827.902    93447477.32005
     -1920.770  
  21144432.050   113108450.97905       842.206    21144435.175    87973252.66005
       655.050  
 20 09 28 07 57 20.0000000  0 15G20G24G15G18G21G32G 8G10R 3R 4R 2R18
                                R12R11R19
  19942095.532   104796419.11849        67.792    19942094.942    81659544.27848
        52.824  
  20680990.820   108679344.34949       883.770    20680993.688    84685215.02948
       688.651  
  21868857.844   114921620.31248     -2862.367    21868858.361    89549319.73047
     -2230.418  
  22105354.587   116164416.96148     -3134.546    22105356.522    90517731.72847
     -2442.569  
  24162431.168   126974434.07947      2334.199    24162431.388    98941117.51944
      1818.858  
  24227373.566   127315706.96248      3264.937    24227377.845    99207059.50145
      2544.105  
  24674143.252   129663484.69345      -472.397    24674144.472   101036498.21341
      -368.101  
  21516509.421   113070022.95049      2241.987    21516511.638    88106519.45448
      1747.000  
  19710394.093   105511284.37509      1234.206    19710397.180    82064345.33208
       959.938  
  23025928.003   123302798.11414      3359.957    23025932.049    95902193.60514
      2613.301  
  20280158.608   108218811.92708     -2120.688    20280163.108    84170201.84307
     -1649.425  
  21205056.864   113194023.87508     -2923.909    21205062.006    88039822.13107
     -2274.156  
  20820293.817   111218273.41408      1147.218    20820299.227    86503123.91407
       892.280  
  22486135.934   120159091.87306     -2472.250    22486139.854    93457085.14805
     -1922.867  
  21143646.515   113104248.17805       838.582    21143649.628    87969983.82205
       652.230  
 20 09 28 07 57 25.0000000  0 14G20G24G15G18G21G32G 8G10R 3R 2R18R12
                                R11R19
  19942032.368   104796087.16149        64.909    19942031.798    81659285.61748
        50.578  
  20680151.608   108674934.22849       880.086    20680154.464    84681778.57748
       685.781  
  21871581.853   114935935.20448     -2863.573    21871582.355    89560474.18647
     -2231.359  
  22108337.843   116180093.79548     -3136.362    22108339.722    90529947.43147
     -2443.922  
  24160211.061   126962767.24346      2332.882    24160211.119    98932026.45145
      1817.827  
  24224267.425   127299383.70548      3264.227    24224271.686    99194340.07845
      2543.550  
  24674594.083   129665854.14145      -474.980    24674595.391   101038344.36942
      -370.121  
  21514376.933   113058816.68249      2240.511    21514379.094    88097787.29648
      1745.852  
  19709242.256   105505118.59109      1232.155    19709245.345    82059549.72508
       958.343  
  20282146.609   108229420.25308     -2122.578    20282151.126    84178452.76507
     -1650.898  
  21207797.306   113208652.32607     -2927.324    21207802.398    88051199.80507
     -2276.813  
  20819222.066   111212548.28108      1142.628    20819227.478    86498671.03607
       888.710  
  22488450.783   120171461.72506     -2475.926    22488454.875    93466706.14205
     -1925.722  
  21142865.129   113100067.88405       834.176    21142868.226    87966732.48205
       648.804  
 20 09 28 07 57 30.0000000  0 14G20G24G15G18G21G32G 8G10R 3R 2R18R12
                                R11R19
  19941972.022   104795769.91349        61.741    19941971.450    81659038.40948
        48.104  
  20679315.926   108670542.71849       876.188    20679318.780    84678356.62348
       682.742  
  21874307.329   114950257.77148     -2865.621    21874307.756    89571634.62147
     -2232.956  
  22111323.126   116195781.25548     -3138.734    22111324.976    90542171.42147
     -2445.770  
  24157992.789   126951110.27146      2330.292    24157992.935    98922943.10844
      1815.813  
  24221162.066   127283064.62047      3263.289    24221166.293    99181623.92145
      2542.823  
  24675047.817   129668239.87344      -479.358    24675048.765   101040203.39541
      -373.554  
  21512246.122   113047619.34949      2238.313    21512248.262    88089062.11148
      1744.140  
  19708092.568   105498964.28709      1229.464    19708095.662    82054763.04708
       956.249  
  20284136.464   108240038.37508     -2124.772    20284141.004    84186711.30907
     -1652.601  
  21210541.063   113223298.84207     -2931.327    21210546.205    88062591.53307
     -2279.925  
  20818154.664   111206846.50408      1137.789    20818160.093    86494236.31807
       884.941  
  22490769.191   120183850.71706     -2480.015    22490773.386    93476342.01205
     -1928.905  
  21142088.272   113095912.00505       828.777    21142091.319    87963500.12305
       644.602  
 20 09 28 07 57 35.0000000  0 14G20G24G15G18G21G32G 8G10R 3R 2R18R12
                                R11R19
  19941914.256   104795466.25849        59.453    19941913.673    81658801.79348
        46.323  
  20678483.589   108666168.72549       873.136    20678486.423    84674948.32348
       680.367  
  21877034.052   114964586.85848     -2866.394    21877034.418    89582800.15847
     -2233.554  
  22114310.226   116211478.25548     -3140.233    22114312.037    90554402.84647
     -2446.940  
  24155776.211   126939462.00746      2328.315    24155776.383    98913866.57545
      1814.277  
  24218057.262   127266748.58047      3263.347    24218061.392    99168910.12146
      2542.862  
  24675504.369   129670640.63144      -481.324    24675505.542   101042074.06943
      -375.059  
  21510116.819   113036429.84749      2237.152    21510118.962    88080343.01848
      1743.230  
  19706944.831   105492820.42309      1227.694    19706947.960    82049984.48708
       954.875  
  20286127.896   108250664.78808     -2126.003    20286132.473    84194976.29807
     -1653.562  
  21213287.984   113237962.34007     -2934.441    21213293.230    88073996.46807
     -2282.348  
  20817091.425   111201166.87308      1133.745    20817096.885    86489818.83007
       881.796  
  22493090.923   120196257.44306     -2482.870    22493095.183    93485991.66505
     -1931.124  
  21141315.822   113091779.63305       823.890    21141318.717    87960286.05105
       640.800  
 20 09 28 07 57 40.0000000  0 15G20G24G15G18G21G27G32G 8G10R 3R 2R18
                                R12R11R19
  19941859.086   104795176.37049        56.914    19941858.502    81658575.90748
        44.344  
  20677654.590   108661812.34149       869.660    20677657.388    84671553.74948
       677.655  
  21879762.102   114978922.76548     -2867.582    21879762.412    89593970.99747
     -2234.479  
  22117299.186   116227184.97348     -3142.039    22117300.940    90566641.84047
     -2448.347  
  24153561.334   126927822.65647      2327.800    24153561.583    98904796.96344
      1813.874  
  24650933.573   129541530.07354     -2142.776    24650936.875   100941465.54654
     -1669.702  
  24214953.046   127250435.84347      3262.551    24214957.134    99156198.91945
      2542.246  
  24675964.031   129673056.79944      -484.359    24675964.769   101043956.77545
      -377.426  
  21507989.032   113025248.40649      2235.777    21507991.213    88071630.20748
      1742.163  
  19705799.080   105486687.12809      1225.835    19705802.245    82045214.14308
       953.425  
  20288120.926   108261299.91308     -2127.668    20288125.563    84203248.05207
     -1654.854  
  21216038.069   113252642.92107     -2937.605    21216043.456    88085414.68707
     -2284.808  
  20816032.348   111195509.63008      1129.523    20816037.875    86485418.75207
       878.516  
  22495415.993   120208682.32006     -2486.355    22495420.402    93495655.45005
     -1933.835  
  21140547.725   113087670.95605       819.820    21140550.477    87957090.41205
       637.633  
 20 09 28 07 57 45.0000000  0 15G20G24G15G18G21G27G32G 8G10R 3R 2R18
                                R12R11R19
  19941805.872   104794896.76049        54.895    19941805.278    81658358.02448
        42.770  
  20676828.308   108657470.16749       866.991    20676831.085    84668170.24048
       675.577  
  21882490.750   114993261.84748     -2868.050    21882491.001    89605144.30147
     -2234.848  
  22120289.300   116242897.87748     -3143.116    22120291.048    90578885.64447
     -2449.190  
  24151347.595   126916188.81947      2326.151    24151347.800    98895731.64244
      1812.581  
  24652973.856   129552251.17844     -2145.293    24652977.658   100949819.61944
     -1671.659  
  24211848.763   127234122.82047      3263.004    24211852.785    99143487.47545
      2542.601  
  24676425.729   129675484.78744      -485.983    24676427.466   101045848.75446
      -378.690  
  21505862.114   113014071.47049      2234.934    21505864.352    88062920.91048
      1741.508  
  19704654.636   105480560.92209      1224.523    19704657.856    82040449.31608
       952.402  
  20290114.834   108271940.10508     -2128.633    20290119.604    84211523.74907
     -1655.605  
  21218790.718   113267337.05907     -2940.069    21218796.237    88096843.45607
     -2286.727  
  20814976.801   111189871.24408      1125.941    20814982.394    86481033.34107
       875.729  
  22497743.755   120221121.58206     -2489.401    22497748.336    93505330.42405
     -1936.206  
  21139783.312   113083582.17704       815.828    21139785.987    87953910.24705
       634.527  
 20 09 28 07 57 50.0000000  0 15G20G24G15G18G21G27G32G 8G10R 3R 2R18
                                R12R11R19
  19941755.640   104794632.66449        51.023    19941755.013    81658152.23248
        39.754  
  20676005.698   108653147.35449       862.352    20676008.451    84664801.81548
       671.961  
  21885221.022   115007609.46048     -2870.714    21885221.295    89616324.27247
     -2236.922  
  22123281.591   116258622.19148     -3146.207    22123283.292    90591138.35247
     -2451.593  
  24149135.898   126904565.64847      2323.542    24149136.024    98886674.63444
      1810.554  
  24655016.418   129562985.19144     -2147.874    24655020.091   100958183.78944
     -1673.671  
  24208745.473   127217814.83147      3260.679    24208749.427    99130779.96145
      2540.788  
  24676890.691   129677929.77344      -490.746    24676892.337   101047753.98045
      -382.410  
  21503737.060   113002904.33449      2232.229    21503739.354    88054219.24648
      1739.398  
  19703512.511   105474447.10009      1221.339    19703515.767    82035694.12608
       949.925  
  20292110.739   108282590.57308     -2131.276    20292115.569    84219807.43307
     -1657.664  
  21221546.894   113282050.12107     -2944.769    21221552.585    88108286.94007
     -2290.379  
  20813925.791   111184256.99908      1120.211    20813931.411    86476666.70607
       871.270  
  22500075.194   120233580.55506     -2493.914    22500080.008    93515020.74405
     -1939.714  
  21139023.709   113079518.87405       809.395    21139026.291    87950749.90305
       629.523  
 20 09 28 07 57 55.0000000  0 14G20G24G15G18G21G32G 8G10R 3R 2R18R12
                                R11R19
  19941709.066   104794387.88549        47.374    19941708.418    81657961.49548
        36.909  
  20675187.563   108648848.02449       857.863    20675190.270    84661451.68948
       668.461  
  21887953.615   115021969.39348     -2872.719    21887953.924    89627513.83847
     -2238.479  
  22126276.755   116274361.73048     -3148.729    22126278.455    90603402.92147
     -2453.559  
  24146926.920   126892957.01447      2320.973    24146927.083    98877628.95444
      1808.550  
  24205643.829   127201515.64047      3259.465    24205647.720    99118079.30145
      2539.844  
  24677359.737   129680395.62844      -494.718    24677362.850   101049675.46441
      -385.491  
  21501614.598   112991750.81349      2229.772    21501616.903    88045528.19248
      1737.484  
  19702373.423   105468349.50509      1218.281    19702376.669    82030951.54708
       947.547  
  20294109.315   108293255.32608     -2133.859    20294114.184    84228102.23807
     -1659.672  
  21224307.358   113296785.79007     -2949.031    21224313.148    88119748.01807
     -2293.695  
  20812880.089   111178670.85908      1114.792    20812885.675    86472321.93307
       867.058  
  22502411.075   120246063.29306     -2498.344    22502416.143    93524729.52105
     -1943.160  
  21138269.624   113075484.81105       804.367    21138272.120    87947612.29805
       625.616  
 20 09 28 07 58  0.0000000  0 14G20G24G15G18G21G32G 8G10R 3R 2R18R12
                                R11R19
  19941664.590   104794154.13049        45.440    19941663.922    81657779.35348
        35.410  
  20674372.222   108644563.53749       855.164    20674374.923    84658113.13748
       666.362  
  21890686.916   115036333.20648     -2873.070    21890687.328    89638706.41747
     -2238.758  
  22129273.241   116290108.18448     -3149.969    22129274.944    90615672.88447
     -2454.522  
  24144719.130   126881354.62647      2319.680    24144719.187    98868588.11244
      1807.542  
  24202542.298   127185217.01947      3259.284    24202546.087    99105379.10345
      2539.702  
  24677831.282   129682874.01844      -496.589    24677834.055   101051606.75445
      -386.937  
  21499493.144   112980602.59349      2229.097    21499495.428    88036841.26548
      1736.957  
  19701235.791   105462259.70209      1217.085    19701239.036    82026215.04008
       946.621  
  20296109.004   108303925.98408     -2134.715    20296113.914    84236401.64307
     -1660.336  
  21227070.576   113311535.78607     -2951.336    21227076.377    88131220.22707
     -2295.487  
  20811838.023   111173104.26408      1111.348    20811843.560    86467992.36407
       864.382  
  22504749.864   120258561.16506     -2501.137    22504755.104    93534450.07405
     -1945.332  
  21137519.392   113071471.60704       800.397    21137521.916    87944490.91605
       622.526  
 20 09 28 07 58  5.0000000  0 15G20G24G15G18G21G32G 8G10R 3R 4R 2R18
                                R12R11R19
  19941622.387   104793932.28649        42.219    19941621.690    81657606.48448
        32.894  
  20673559.947   108640295.00149       851.160    20673562.618    84654787.00748
       663.242  
  21893421.110   115050701.83648     -2875.105    21893421.624    89649902.74647
     -2240.348  
  22132271.188   116305862.40848     -3152.487    22132272.908    90627948.89047
     -2456.488  
  24142512.692   126869759.30947      2317.515    24142512.647    98859552.82645
      1805.855  
  24199441.008   127168919.78647      3258.262    24199444.768    99092679.96946
      2538.906  
  24678305.479   129685365.91144      -500.977    24678308.210   101053546.30754
      -390.371  
  21497372.866   112969460.58049      2226.909    21497375.128    88028159.17648
      1735.250  
  19700099.780   105456178.70009      1214.441    19700103.010    82021485.37608
       944.566  
  22997714.533   123151714.38514      3353.862    22997718.797    95784686.59614
      2608.558  
  20298109.946   108314603.33308     -2136.917    20298114.898    84244706.24907
     -1662.046  
  21229836.576   113326300.82108     -2955.374    21229842.454    88142704.13407
     -2298.629  
  20810799.822   111167558.26008      1106.151    20810805.276    86463678.80307
       860.339  
  22507091.676   120271075.09806     -2505.395    22507097.001    93544183.11105
     -1948.648  
  21136773.211   113067480.10305       795.343    21136775.783    87941386.40905
       618.597  
 20 09 28 07 58 10.0000000  0 15G20G24G15G18G21G32G 8G10R 3R 4R 2R18
                                R12R11R19
  19941583.853   104793729.79149        39.371    19941583.157    81657448.69448
        30.676  
  20672752.087   108636049.73249       847.617    20672754.763    84651479.00648
       660.476  
  21896157.616   115065082.70848     -2876.640    21896158.234    89661108.61347
     -2241.543  
  22135272.046   116321631.83148     -3154.508    22135273.790    90640236.74847
     -2458.063  
  24140309.009   126858178.56447      2315.664    24140308.805    98850528.86544
      1804.410  
  24196341.378   127152631.39947      3257.483    24196345.099    99079987.71845
      2538.300  
  24678783.624   129687878.61044      -503.898    24678786.430   101055504.31945
      -392.680  
  21495255.178   112958332.20849      2225.105    21495257.424    88019487.72148
      1733.848  
  19698966.803   105450113.91509      1212.172    19698969.997    82016768.32208
       942.801  
  22994583.026   123134945.96505      3353.706    22994586.929    95771644.50404
      2608.438  
  20300113.574   108325294.98408     -2138.957    20300118.539    84253021.97807
     -1663.636  
  21232606.825   113341088.62908     -2958.815    21232612.789    88154205.75107
     -2301.304  
  20809766.830   111162040.35808      1101.574    20809772.230    86459387.10207
       856.780  
  22509437.951   120283612.56807     -2508.988    22509443.219    93553934.48305
     -1951.437  
  21136032.468   113063518.00205       790.238    21136035.154    87938304.76705
       614.624  
 20 09 28 07 58 15.0000000  0 16G20G24G15G18G21G27G32G 8G10R 3R 4R 2
                                R18R12R11R19
  19941546.601   104793534.03149        39.284    19941545.903    81657296.14848
        30.608  
  20671946.251   108631815.06649       846.672    20671948.933    84648179.26948
       659.745  
  21898894.066   115079463.16548     -2875.258    21898894.795    89672314.15447
     -2240.465  
  22138273.385   116337403.82148     -3153.855    22138275.167    90652526.60847
     -2457.555  
  24138105.734   126846599.80747      2316.374    24138105.367    98841506.46744
      1804.969  
  24665265.692   129616843.43054     -2156.780    24665268.704   101000147.39953
     -1680.608  
  24193241.043   127136339.24947      3259.413    24193244.837    99067292.53845
      2539.804  
  24679263.323   129690399.50445      -504.020    24679266.068   101057468.63844
      -392.745  
  21493137.682   112947204.84849      2226.233    21493139.898    88010817.05548
      1734.726  
  19697834.505   105444052.57209      1212.800    19697837.590    82012053.94408
       943.288  
  22991451.101   123118173.21305      3356.534    22991454.372    95758599.04804
      2610.636  
  20302117.417   108335988.05908     -2137.937    20302122.399    84261338.80607
     -1662.844  
  21235378.958   113355886.21308     -2959.812    21235384.971    88165714.97607
     -2302.082  
  20808736.694   111156537.70808      1099.843    20808742.019    86455107.27107
       855.430  
  22511786.263   120296160.89307     -2509.796    22511791.378    93563694.29605
     -1952.065  
  21135294.729   113059572.37905       788.233    21135297.599    87935235.95205
       613.070  
 20 09 28 07 58 20.0000000  0 16G20G24G15G18G21G27G32G 8G10R 3R 4R 2
                                R18R12R11R19
  19941511.498   104793349.49949        33.878    19941510.811    81657152.35748
        26.395  
  20671143.326   108627595.57349       840.516    20671146.014    84644891.35748
       654.945  
  21901631.335   115093847.76548     -2879.344    21901632.083    89683522.92247
     -2243.648  
  22141276.080   116353182.87048     -3158.495    22141277.863    90664821.95947
     -2461.168  
  24135903.657   126835027.44147      2311.949    24135903.140    98832489.03144
      1801.516  
  24667320.536   129627640.98805     -2162.336           0.000           0.0000 
         0.000  
  24190140.852   127120047.88547      3256.316    24190144.632    99054597.96445
      2537.387  
  24679745.427   129692933.16644      -510.503    24679748.035   101059442.96241
      -397.804  
  21491021.262   112936083.05249      2221.909    21491023.432    88002150.73248
      1731.359  
  19696703.705   105437999.34109      1207.918    19696706.743    82007345.87708
       939.488  
  22988319.389   123101400.56404      3353.234    22988321.857    95745553.64004
      2608.065  
  20304122.378   108346687.10508     -2142.429    20304127.373    84269660.28507
     -1666.340  
  21238153.749   113370698.23308     -2965.875    21238159.863    88177235.42107
     -2306.796  
  20807710.237   111151055.02808      1092.699    20807715.573    86450842.95707
       849.875  
  22514137.367   120308724.51107     -2516.444    22514142.322    93573466.00005
     -1957.233  
  21134561.056   113055647.78705       780.793    21134563.976    87932183.49005
       607.280  
 20 09 28 07 58 25.0000000  0 16G20G24G15G18G21G27G32G 8G10R 3R 4R 2
                                R18R12R11R19
  19941480.482   104793186.44949        31.941    19941479.783    81657025.30348
        24.887  
  20670345.217   108623401.51149       837.562    20670347.956    84641623.25448
       652.640  
  21904371.355   115108246.70048     -2879.671    21904372.107    89694742.86247
     -2243.902  
  22144282.035   116368979.20948     -3159.628    22144283.806    90677130.79147
     -2462.050  
  24133704.805   126823471.89447      2310.813    24133704.132    98823484.73945
      1800.632  
  24669378.974   129638457.27905     -2164.034           0.000           0.0000 
         0.000  
  24187042.748   127103767.45847      3256.745    24187046.639    99041911.95345
      2537.723  
  24680231.984   129695489.69944      -512.188    24680234.116   101061434.97443
      -399.112  
  21488907.841   112924977.04349      2221.113    21488909.997    87993496.69448
      1730.734  
  19695576.356   105431964.52409      1206.617    19695579.351    82002652.13008
       938.479  
  22985188.879   123084638.57604      3352.421    22985191.639    95732516.57905
      2607.437  
  20306130.481   108357402.72508     -2143.370    20306135.446    84277994.65707
     -1667.069  
  21240933.234   113385534.93707     -2968.188    21240939.358    88188775.07107
     -2308.593  
  20806689.446   111145602.55608      1088.772    20806694.785    86446602.15107
       846.823  
  22516493.361   120321313.85207     -2518.754    22516497.989    93583257.73605
     -1959.030  
  21133833.333   113051754.74105       777.418    21133836.205    87929155.57105
       604.660  
 20 09 28 07 58 30.0000000  0 16G20G24G15G18G21G27G32G 8G10R 3R 4R 2
                                R18R12R11R19
  19941451.257   104793032.89949        29.159    19941450.564    81656905.65748
        22.719  
  20669549.683   108619220.98549       834.210    20669552.460    84638365.70748
       650.034  
  21907111.828   115122647.98348     -2881.133    21907112.613    89705964.65447
     -2245.043  
  22147288.996   116384780.80248     -3161.563    22147290.741    90689443.71947
     -2463.558  
  24131506.758   126811921.01647      2309.167    24131506.110    98814484.05044
      1799.352  
  24671438.750   129649280.31845     -2166.405    24671451.228   101025447.73651
     -1688.108  
  24183944.436   127087486.00147      3255.750    24183948.380    99029225.10145
      2536.948  
  24680720.454   129698057.21844      -515.207    24680723.005   101063435.70843
      -401.453  
  21486795.188   112913874.81849      2219.488    21486797.339    87984845.61948
      1729.473  
  19694450.170   105425935.89809      1204.546    19694453.132    81997963.20208
       936.866  
  22982058.678   123067874.90005      3352.594    22982061.188    95719478.14304
      2607.570  
  20308139.360   108368122.46108     -2145.066    20308144.292    84286332.24107
     -1668.386  
  21243714.997   113400384.14808     -2971.781    21243721.153    88200324.45407
     -2311.390  
  20805672.018   111140168.10708      1084.214    20805677.356    86442375.36407
       843.277  
  22518851.823   120333916.69607     -2522.628    22518856.255    93593059.96005
     -1962.039  
  21133109.225   113047880.90705       772.226    21133111.992    87926142.57605
       600.617  
 20 09 28 07 58 35.0000000  0 15G20G24G15G18G21G27G32G10R 3R 4R 2R18
                                R12R11R19
  19941424.743   104792893.53849        26.379    19941424.044    81656797.06348
        20.550  
  20668757.592   108615058.55149       830.504    20668760.399    84635122.25548
       647.145  
  21909853.674   115137056.32548     -2882.504    21909854.472    89717191.92147
     -2246.108  
  22150297.852   116400592.34948     -3163.284    22150299.613    90701764.38947
     -2464.902  
  24129310.491   126800379.55547      2307.340    24129309.892    98805490.71844
      1797.922  
  24673500.607   129660114.76044     -2167.816    24673512.526   101033887.03353
     -1689.206  
  24180846.861   127071208.28847      3255.188    24180850.777    99016541.18345
      2536.507  
  21484684.179   112902781.11249      2217.788    21484686.321    87976201.16548
      1728.145  
  19693326.046   105419918.37409      1202.289    19693329.023    81993282.90808
       935.108  
  22978929.270   123051114.46605      3351.366    22978931.271    95706442.27404
      2606.621  
  20310149.912   108378851.11608     -2146.757    20310154.844    84294676.74507
     -1669.699  
  21246500.036   113415250.78308     -2975.102    21246506.200    88211887.37407
     -2313.973  
  20804658.984   111134756.59708      1079.949    20804664.220    86438166.41407
       839.961  
  22521213.746   120346537.81707     -2526.125    22521218.073    93602876.38805
     -1964.765  
  21132389.586   113044031.22805       767.320    21132392.304    87923148.37605
       596.801  
 20 09 28 07 58 40.0000000  0 15G20G24G15G18G21G27G32G10R 3R 4R 2R18
                                R12R11R19
  19941400.886   104792768.16749        23.574    19941400.156    81656699.37048
        18.366  
  20667968.905   108610913.94149       826.977    20667971.723    84631892.69748
       644.398  
  21912596.842   115151471.49149     -2883.698    21912597.641    89728424.51947
     -2247.043  
  22153308.556   116416413.64848     -3165.152    22153310.366    90714092.67046
     -2466.437  
  24127116.034   126788847.38947      2305.179    24127115.471    98796504.61744
      1796.241  
  24675564.598   129670960.41844     -2170.479    24675578.512   101042367.33753
     -1691.285  
  24177749.921   127054934.07147      3254.409    24177753.995    99003860.00245
      2535.905  
  21482574.756   112891695.70749      2216.128    21482576.886    87967563.19248
      1726.854  
  19692203.948   105413911.69609      1200.258    19692206.963    81988611.05008
       933.534  
  22975799.882   123034357.04804      3350.898    22975802.166    95693408.75805
      2606.258  
  20312162.085   108389588.58308     -2148.645    20312167.026    84303028.11007
     -1671.168  
  21249288.310   113430134.49408     -2978.320    21249294.460    88223463.59907
     -2316.477  
  20803650.153   111129367.75808      1075.413    20803655.320    86433975.09107
       836.430  
  22523578.987   120359176.97606     -2529.616    22523583.430    93612706.80705
     -1967.487  
  21131674.403   113040205.32805       763.016    21131677.063    87920172.67905
       593.453  
 20 09 28 07 58 45.0000000  0 15G20G24G15G18G21G27G32G10R 3R 4R 2R18
                                R12R11R19
  19941379.474   104792655.64449        21.309    19941378.721    81656611.69048
        16.602  
  20667183.433   108606786.22449       824.016    20667186.246    84628676.30048
       642.090  
  21915341.090   115165892.36149     -2884.675    21915341.872    89739661.56047
     -2247.805  
  22156320.893   116432243.55248     -3166.815    22156322.695    90726427.65346
     -2467.652  
  24124923.097   126777323.33447      2304.077    24124922.638    98787524.83544
      1795.382  
  24677630.376   129681816.12604     -2172.922           0.000           0.0000 
         0.000  
  24174653.424   127038662.18447      3254.300    24174657.585    98991180.59745
      2535.819  
  21480466.712   112880617.48549      2215.058    21480468.823    87958930.81148
      1726.016  
  19691083.687   105407914.63209      1198.593    19691086.699    81983946.66808
       932.233  
  22972671.609   123017601.38104      3351.063    22972673.217    95680376.57504
      2606.382  
  20314175.686   108400333.66908     -2149.448    20314180.606    84311385.40007
     -1671.792  
  21252079.545   113445034.04808     -2981.464    21252085.638    88235052.12807
     -2318.921  
  20802645.395   111124000.42808      1071.508    20802650.433    86429800.50807
       833.395  
  22525947.476   120371833.09006     -2533.120    22525951.956    93622550.45805
     -1970.211  
  21130963.438   113036402.23505       758.538    21130966.054    87917214.71405
       589.976  
 20 09 28 07 58 50.0000000  0 15G20G24G15G18G21G27G32G10R 3R 4R 2R18
                                R12R11R19
  19941360.333   104792555.09349        18.559    19941359.571    81656533.33848
        14.457  
  20666400.978   108602674.39649       820.410    20666403.799    84625472.28048
       639.280  
  21918086.279   115180318.04949     -2885.977    21918087.027    89750902.35447
     -2248.813  
  22159334.694   116448081.15448     -3168.625    22159336.496    90738768.63547
     -2469.062  
  24122731.576   126765806.56047      2302.601    24122731.031    98778550.75644
      1794.233  
  24679697.721   129692681.03305     -2174.430           0.000           0.0000 
         0.000  
  24171557.228   127022391.78547      3253.965    24171561.483    98978502.39245
      2535.563  
  21478359.862   112869545.57249      2213.488    21478361.963    87950303.35148
      1724.796  
  19689965.058   105401926.33809      1196.448    19689968.043    81979289.10808
       930.578  
  22969542.804   123000846.74205      3350.890    22969544.514    95667345.20004
      2606.250  
  20316190.526   108411085.42708     -2151.398    20316195.457    84319747.87707
     -1673.309  
  21254873.586   113459948.67408     -2984.792    21254879.607    88246652.37007
     -2321.508  
  20801644.530   111118653.73408      1066.875    20801649.440    86425641.97607
       829.793  
  22528318.928   120384505.15807     -2536.511    22528323.417    93632406.49205
     -1972.847  
  21130256.608   113032621.01405       753.901    21130259.136    87914273.76905
       586.367  
 20 09 28 07 58 55.0000000  0 15G20G24G15G18G21G32G 8G10R 3R 4R 2R18
                                R12R11R19
  19941344.099   104792469.81449        15.522    19941343.328    81656466.88748
        12.094  
  20665622.148   108598581.74249       816.726    20665624.987    84622283.20648
       636.410  
  21920833.033   115194751.87249     -2887.452    21920833.714    89762149.48847
     -2249.968  
  22162350.619   116463929.72748     -3170.660    22162352.392    90751118.15947
     -2470.648  
  24120542.073   126754300.33247      2300.538    24120541.431    98769584.86945
      1792.629  
  24168461.940   127006126.21347      3252.758    24168466.256    98965827.92245
      2534.617  
  24683205.930   129711122.23554      -529.922    24683207.473   101073608.34654
      -412.925  
  21476254.824   112858483.27049      2211.483    21476256.900    87941683.37748
      1723.229  
  19688848.725   105395950.29909      1194.112    19688851.676    81974641.07608
       928.749  
  22966414.860   122984096.37204      3349.843    22966416.646    95654317.14904
      2605.433  
  20318207.261   108421847.08008     -2153.301    20318212.143    84328118.05807
     -1674.788  
  21257671.079   113474881.56908     -2988.440    21257677.009    88258266.83507
     -2324.348  
  20800648.155   111113331.06408      1062.230    20800652.990    86421502.13307
       826.180  
  22530693.911   120397196.38207     -2540.078    22530698.364    93642277.45605
     -1975.616  
  21129554.420   113028864.93905       748.788    21129556.938    87911352.37105
       582.386  
 20 09 28 07 59  0.0000000  0 15G20G24G15G18G21G32G 8G10R 3R 4R 2R18
                                R12R11R19
  19941330.281   104792397.26349        13.285    19941329.491    81656410.35148
        10.347  
  20664846.497   108594505.73249       813.530    20664849.340    84619107.09148
       633.921  
  21923580.833   115209191.15849     -2888.316    21923581.428    89773400.88447
     -2250.637  
  22165368.111   116479786.72048     -3172.223    22165369.900    90763474.25947
     -2471.866  
  24118354.029   126742802.11647      2298.719    24118353.325    98760625.22045
      1791.207  
  24165367.039   126989862.86947      3252.297    24165371.423    98953155.19045
      2534.258  
  24683711.625   129713779.30404      -532.719           0.000           0.0000 
         0.000  
  21474151.128   112847428.02049      2210.336    21474153.172    87933068.89848
      1722.339  
  19687734.128   105389983.65009      1192.374    19687737.072    81970000.35208
       927.401  
  22963287.288   122967347.70805      3349.245    22963289.006    95641290.41705
      2604.969  
  20320225.417   108432616.38108     -2154.651    20320230.276    84336494.18607
     -1675.839  
  21260471.462   113489830.17308     -2991.293    21260477.369    88269893.51807
     -2326.565  
  20799655.770   111108029.79508      1058.261    20799660.597    86417378.92807
       823.094  
  22533072.063   120409904.38007     -2543.070    22533076.500    93652161.45505
     -1977.945  
  21128856.419   113025131.41905       745.074    21128858.972    87908448.51505
       579.500  
 20 09 28 07 59  5.0000000  0 15G20G24G15G18G21G32G 8G10R 3R 4R 2R18
                                R12R11R19
  19941319.332   104792339.75549        10.023    19941318.540    81656365.54148
         7.805  
  20664074.471   108590448.70749       809.438    20664077.276    84615945.77648
       630.730  
  21926330.114   115223638.25849     -2890.258    21926330.628    89784658.36647
     -2252.148  
  22168387.649   116495654.43848     -3174.487    22168389.393    90775838.70446
     -2473.633  
  24116167.970   126731314.14147      2296.745    24116167.233    98751673.57145
      1789.672  
  24162273.095   126973604.05447      3251.284    24162277.501    98940486.00545
      2533.469  
  24684220.538   129716452.81544      -535.987    24684226.889   101077782.12252
      -417.651  
  21472049.220   112836382.17149      2208.238    21472051.226    87924461.75148
      1720.707  
  19686621.789   105384028.99109      1189.718    19686624.702    81965368.96108
       925.336  
  22960160.713   122950603.16704      3348.402    22960162.012    95628266.91305
      2604.316  
  20322245.447   108443395.52208     -2156.706    20322250.237    84344877.96107
     -1677.437  
  21263275.209   113504796.82407     -2995.332    21263281.116    88281534.23207
     -2329.707  
  20798667.814   111102752.28108      1053.059    20798672.713    86413274.20407
       819.046  
  22535453.757   120422631.39607     -2547.539    22535458.065    93662060.23405
     -1981.421  
  21128163.211   113021422.90805       739.145    21128165.692    87905564.12605
       574.890  
 20 09 28 07 59 10.0000000  0 15G20G24G15G18G21G32G 8G10R 3R 4R 2R18
                                R12R11R19
  19941310.867   104792295.33249         6.945    19941310.093    81656330.91948
         5.406  
  20663305.670   108586408.63149       805.698    20663308.454    84612797.67248
       627.816  
  21929080.497   115238091.18049     -2891.628    21929080.941    89795920.37847
     -2253.223  
  22171408.846   116511530.90348     -3176.664    22171410.552    90788209.96746
     -2475.328  
  24113983.438   126719834.50446      2295.242    24113982.796    98742728.41645
      1788.499  
  24159179.628   126957347.80447      3250.816    24159184.003    98927818.80346
      2533.105  
  24684732.132   129719140.97844      -539.683    24684733.520   101079880.66055
      -420.531  
  21469948.728   112825343.72949      2206.210    21469950.695    87915860.36648
      1719.121  
  19685511.274   105378084.28709      1187.445    19685514.212    81960745.30708
       923.570  
  22957034.104   122933860.57004      3347.800    22957035.394    95615244.90804
      2603.843  
  20324266.861   108454182.30008     -2158.766    20324271.674    84353267.67407
     -1679.039  
  21266081.941   113519779.44207     -2998.648    21266087.894    88293187.37607
     -2332.285  
  20797683.909   111097496.52708      1048.382    20797688.899    86409186.39107
       815.406  
  22537838.659   120435375.46807     -2551.175    22537842.766    93671972.33005
     -1984.198  
  21127474.240   113017737.31805       734.266    21127476.673    87902697.55905
       571.090  
 20 09 28 07 59 15.0000000  0 15G20G24G15G18G21G32G 8G10R 3R 4R 2R18
                                R12R11R19
  19941305.090   104792265.00649         5.246    19941304.330    81656307.28948
         4.082  
  20662540.316   108582386.76249       802.987    20662543.083    84609663.76048
       625.706  
  21931832.141   115252550.94848     -2892.027    21931832.519    89807187.72247
     -2253.530  
  22174431.904   116527417.14948     -3177.602    22174433.656    90800588.85347
     -2476.058  
  24111800.759   126708364.29247      2293.499    24111800.151    98733790.60045
      1787.144  
  24156086.885   126941095.23847      3250.800    24156091.328    98915154.47145
      2533.089  
  24685246.666   129721844.56104      -541.484           0.000           0.0000 
         0.000  
  21467849.858   112814313.78049      2205.691    21467851.765    87907265.59848
      1718.715  
  19684402.800   105372150.41309      1186.323    19684405.737    81956130.07208
       922.690  
  22953908.469   122917121.28004      3348.234    22953909.254    95602225.45704
      2604.183  
  20326289.992   108464978.02108     -2159.336    20326294.825    84361664.34407
     -1679.487  
  21268891.888   113534779.13507     -3001.152    21268897.907    88304853.79207
     -2334.234  
  20796704.310   111092263.65408      1044.979    20796709.370    86405116.38107
       812.762  
  22540226.904   120448137.61706     -2553.551    22540230.902    93681898.45604
     -1986.094  
  21126789.808   113014075.72305       730.457    21126792.152    87899849.64405
       568.128  
 20 09 28 07 59 20.0000000  0 13G20G24G15G18G21G32G10R 3R 2R18R12R11
                                R19
  19941301.817   104792247.99349         2.073    19941301.117    81656294.04048
         1.616  
  20661778.254   108578382.06649       799.147    20661780.993    84606543.22248
       622.714  
  21934584.925   115267016.76749     -2893.980    21934585.264    89818459.78647
     -2255.055  
  22177456.654   116543312.32248     -3180.031    22177458.405    90812974.69647
     -2477.965  
  24109619.665   126696902.66247      2291.594    24109619.166    98724859.45445
      1785.656  
  24152994.650   126924845.49547      3249.663    24152999.115    98902492.34546
      2532.203  
  21465752.445   112803291.49149      2203.620    21465754.323    87898676.79848
      1717.102  
  19683296.242   105366226.67409      1183.773    19683299.156    81951522.72108
       920.706  
  20328314.647   108475781.90708     -2161.651    20328319.550    84370067.36107
     -1681.289  
  21271704.925   113549795.06707     -3005.038    21271710.946    88316532.83407
     -2337.258  
  20795728.835   111087052.81308      1039.988    20795733.921    86401063.51107
       808.878  
  22542618.433   120460916.88207     -2557.882    22542622.313    93691837.87605
     -1989.465  
  21126109.654   113010437.29404       725.508    21126111.993    87897019.75305
       564.281  
 20 09 28 07 59 25.0000000  0 13G20G24G15G18G21G32G10R 3R 2R18R12R11
                                R19
  19941301.382   104792245.92849        -0.968    19941300.769    81656292.42848
        -0.758  
  20661019.761   108574396.19049       795.210    20661022.460    84603437.34648
       619.644  
  21937339.164   115281490.26848     -2895.570    21937339.485    89829737.82747
     -2256.292  
  22180483.463   116559218.08848     -3182.473    22180485.167    90825368.78047
     -2479.809  
  24107440.572   126685451.32747      2289.011    24107440.205    98715936.34944
      1783.640  
  24149903.283   126908600.25147      3248.543    24149907.810    98889833.71945
      2531.331  
  21463656.786   112792278.54049      2201.563    21463658.644    87890095.28048
      1715.500  
  19682191.902   105360314.80409      1181.003    19682194.794    81946924.61108
       918.558  
  20330341.121   108486595.37408     -2163.772    20330346.101    84378477.83407
     -1682.938  
  21274521.317   113564828.87607     -3008.659    21274527.341    88328225.77907
     -2340.074  
  20794757.792   111081865.73608      1035.050    20794762.934    86397029.11607
       805.035  
  22545013.493   120473715.01107     -2561.297    22545017.369    93701791.97805
     -1992.125  
  21125434.195   113006823.76304       720.159    21125436.488    87894209.22305
       560.120  
 20 09 28 07 59 30.0000000  0 13G20G24G15G18G21G32G10R 3R 2R18R12R11
                                R19
  19941303.340   104792256.34349        -3.237    19941302.796    81656300.54148
        -2.527  
  20660264.373   108570426.69649       792.309    20660267.054    84600344.24048
       617.383  
  21940094.388   115295968.94448     -2896.270    21940094.697    89841019.89847
     -2256.836  
  22183511.760   116575131.89948     -3183.484    22183513.465    90837769.15447
     -2480.641  
  24105262.950   126674007.68547      2288.285    24105262.581    98707019.22145
      1783.074  
  24146812.297   126892356.94947      3248.406    24146816.806    98877176.60445
      2531.226  
  21461562.413   112781272.41049      2200.651    21461564.255    87881519.07848
      1714.789  
  19681089.253   105354412.17309      1179.738    19681092.148    81942333.67508
       917.574  
  20332368.944   108497415.84608     -2164.789    20332373.988    84386893.75407
     -1683.729  
  21277340.583   113579877.99908     -3011.284    21277346.594    88339930.65107
     -2342.112  
  20793790.684   111076699.74208      1031.104    20793795.887    86393011.12207
       801.968  
  22547411.619   120486529.49407     -2564.097    22547415.590    93711758.80005
     -1994.418  
  21124762.813   113003232.63804       715.922    21124765.199    87891416.14405
       556.828  
 20 09 28 07 59 35.0000000  0 13G20G24G15G18G21G32G10R 3R 2R18R12R11
                                R19
  19941307.931   104792280.50149        -6.136    19941307.446    81656319.36448
        -4.784  
  20659512.383   108566474.99449       788.660    20659515.034    84597264.99748
       614.539  
  21942850.866   115310454.11548     -2897.706    21942851.071    89852307.03847
     -2257.957  
  22186541.877   116591055.08548     -3185.711    22186543.511    90850176.81247
     -2482.374  
  24103087.064   126662573.17447      2286.237    24103086.720    98698109.21245
      1781.479  
  24143721.918   126876116.96047      3247.698    24143726.503    98864522.08245
      2530.675  
  21459469.554   112770274.42549      2198.941    21459471.416    87872949.21848
      1713.461  
  19679988.598   105348520.16009      1177.426    19679991.483    81937750.99108
       915.772  
  20334398.397   108508244.99408     -2166.609    20334403.498    84395316.41307
     -1685.145  
  21280162.946   113594943.77408     -3014.858    21280168.969    88351648.45807
     -2344.895  
  20792827.773   111071556.23208      1026.558    20792833.021    86389010.62407
       798.433  
  22549813.077   120499361.56407     -2568.008    22549817.111    93721739.30205
     -1997.339  
  21124095.925   112999665.23604       711.316    21124098.318    87888641.49505
       553.246  
 20 09 28 07 59 40.0000000  0 14G20G24G15G18G21G32G 8G10R 3R 2R18R12
                                R11R19
  19941315.004   104792317.63849        -9.484    19941314.552    81656348.30248
        -7.390  
  20658763.602   108562540.24649       784.495    20658766.268    84594198.95848
       611.292  
  21945608.427   115324944.97648     -2899.487    21945608.528    89863598.61647
     -2259.344  
  22189573.571   116606986.77548     -3187.848    22189575.173    90862591.11947
     -2484.019  
  24100912.721   126651146.92547      2283.714    24100912.427    98689205.66044
      1779.519  
  24140632.010   126859879.44747      3246.847    24140636.637    98851869.47145
      2530.011  
  24687862.319   129735591.59714      -557.723           0.000           0.0000 
         0.000  
  21457378.072   112759283.77149      2196.723    21457379.966    87864385.08348
      1711.730  
  19678889.735   105342637.88909      1174.691    19678892.633    81933175.89008
       913.574  
  20336429.193   108519081.58708     -2168.917    20336434.340    84403744.88107
     -1686.940  
  21282988.260   113610025.30308     -3018.554    21282994.236    88363378.51907
     -2347.769  
  20791868.943   111066434.46108      1021.504    20791874.215    86385027.02407
       794.503  
  22552217.667   120512210.52707     -2572.425    22552221.782    93731732.96005
     -2000.777  
  21123433.354   112996120.61605       705.729    21123435.690    87885884.57505
       548.902  
 20 09 28 07 59 45.0000000  0 15G20G24G15G18G21G32G 8G10R 3R 4R 2R18
                                R12R11R19
  19941325.181   104792371.17949       -12.284    19941324.780    81656390.02848
        -9.573  
  20658018.683   108558625.73549       781.254    20658021.375    84591148.68548
       608.765  
  21948367.680   115339444.88548     -2900.465    21948367.716    89874897.24647
     -2260.105  
  22192607.566   116622930.43248     -3189.546    22192609.164    90875014.74146
     -2485.363  
  24098740.554   126639732.35847      2282.351    24098740.377    98680311.19645
      1778.457  
  24137543.227   126843647.84747      3246.362    24137547.882    98839221.47246
      2529.629  
  24688394.409   129738387.31404      -560.355           0.000           0.0000 
         0.000  
  21455288.636   112748303.92749      2194.999    21455290.556    87855829.35848
      1710.387  
  19677793.391   105336769.01109      1172.637    19677796.307    81928611.20808
       912.051  
  22935162.208   122816751.46415      3343.472    22935163.875    95524147.05215
      2600.480  
  20338462.061   108529929.23108     -2170.437    20338467.204    84412181.92707
     -1688.120  
  21285817.183   113625126.10308     -3021.882    21285823.066    88375123.55807
     -2350.358  
  20790914.819   111061337.79508      1016.964    20790920.065    86381062.95907
       790.972  
  22554625.945   120525079.69507     -2575.715    22554630.192    93741742.28506
     -2003.340  
  21122775.693   112992602.32204       701.097    21122777.905    87883148.11605
       545.292  
 20 09 28 07 59 50.0000000  0 15G20G24G15G18G21G32G 8G10R 3R 4R 2R18
                                R12R11R19
  19941337.768   104792437.32649       -14.593    19941337.389    81656441.56848
       -11.374  
  20657276.942   108554727.88949       777.883    20657279.656    84588111.40748
       606.137  
  21951127.900   115353950.06748     -2901.684    21951127.898    89886199.98247
     -2261.055  
  22195643.112   116638882.23748     -3191.234    22195644.660    90887444.71347
     -2486.680  
  24096569.906   126628325.74546      2280.355    24096569.903    98671422.90844
      1776.891  
  24134454.830   126827418.36547      3245.945    24134459.536    98826575.15145
      2529.308  
  24688929.107   129741197.04644      -563.409    24688929.404   101097038.19753
      -439.019  
  21453200.538   112737331.02449      2193.800    21453202.466    87847279.04148
      1709.452  
  19676698.754   105330909.42809      1170.901    19676701.756    81924053.75608
       910.703  
  22932039.843   122800031.49605      3344.207    22932041.603    95511142.61905
      2601.047  
  20340496.331   108540784.48508     -2171.690    20340501.466    84420624.89707
     -1689.097  
  21288648.944   113640242.20208     -3024.707    21288654.785    88386880.50207
     -2352.559  
  20789964.680   111056262.48008      1013.066    20789969.897    86377115.49807
       787.940  
  22557037.287   120537965.17707     -2578.848    22557041.616    93751764.31906
     -2005.874  
  21122122.150   112989106.52704       697.093    21122124.355    87880429.18605
       542.184  
