     2.11           OBSERVATION DATA    M                   RINEX VERSION / TYPE
LEICA GEO OFFICE 8.4                    29-9-20 09:30       PGM / RUN BY / DATE
                                                            OBSERVER / AGENCY
vas2                                                        MARKER NAME
vas2                                                        MARKER NUMBER
468317              LEICA GX1220GG      5.62                REC # / TYPE / VERS
                    LEIAX1202GG                             ANT # / TYPE
 -1187771.2864  3858860.7629  4921922.3970                  APPROX POSITION XYZ
        1.3670        0.0000        0.0000                  ANTENNA: DELTA H/E/N
L1PhaOff:   0.0644  L2PhaOff:   0.0640                      COMMENT
     1     1                                                WAVELENGTH FACT L1/2
     6    C1    L1    D1    P2    L2    D2                  # / TYPES OF OBSERV
  2020     9    28     9    19   30.0000000     GPS         TIME OF FIRST OBS
  2020     9    28    10    44   40.0000000     GPS         TIME OF LAST OBS
    18                                                      LEAP SECONDS
    21                                                      # OF SATELLITES
          C1    L1    D1    P2    L2    D2                  COMMENT
   G 1   617   617   617   600   600   600                  PRN / # OF OBS
   G 2     0     0     0     0     0     0                  PRN / # OF OBS
   G 3     0     0     0     0     0     0                  PRN / # OF OBS
   G 4     0     0     0     0     0     0                  PRN / # OF OBS
   G 5     0     0     0     0     0     0                  PRN / # OF OBS
   G 6     0     0     0     0     0     0                  PRN / # OF OBS
   G 7     0     0     0     0     0     0                  PRN / # OF OBS
   G 8     0     0     0     0     0     0                  PRN / # OF OBS
   G 9     0     0     0     0     0     0                  PRN / # OF OBS
   G10  1023  1023  1023  1023  1023  1023                  PRN / # OF OBS
   G11   434   434   434   395   395   395                  PRN / # OF OBS
   G12  1023  1023  1023  1023  1023  1023                  PRN / # OF OBS
   G13     0     0     0     0     0     0                  PRN / # OF OBS
   G14     0     0     0     0     0     0                  PRN / # OF OBS
   G15     0     0     0     0     0     0                  PRN / # OF OBS
   G16     0     0     0     0     0     0                  PRN / # OF OBS
   G17     0     0     0     0     0     0                  PRN / # OF OBS
   G18     0     0     0     0     0     0                  PRN / # OF OBS
   G19     0     0     0     0     0     0                  PRN / # OF OBS
   G20   997   997   997   997   997   997                  PRN / # OF OBS
   G21  1006  1006  1006  1001  1001  1001                  PRN / # OF OBS
   G22   227   227   227   173   173   173                  PRN / # OF OBS
   G23     0     0     0     0     0     0                  PRN / # OF OBS
   G24   876   876   876   872   872   872                  PRN / # OF OBS
   G25   997   997   997   997   997   997                  PRN / # OF OBS
   G26     0     0     0     0     0     0                  PRN / # OF OBS
   G27     0     0     0     0     0     0                  PRN / # OF OBS
   G28     0     0     0     0     0     0                  PRN / # OF OBS
   G29     0     0     0     0     0     0                  PRN / # OF OBS
   G30     0     0     0     0     0     0                  PRN / # OF OBS
   G31   783   783   783   781   781   781                  PRN / # OF OBS
   G32  1023  1023  1023  1023  1023  1023                  PRN / # OF OBS
   R 1     0     0     0     0     0     0                  PRN / # OF OBS
   R 2   173   173   173   173   173   173                  PRN / # OF OBS
   R 3  1023  1023  1023  1023  1023  1023                  PRN / # OF OBS
   R 4  1023  1023  1023  1023  1023  1023                  PRN / # OF OBS
   R 5   708   708   708   708   708   708                  PRN / # OF OBS
   R 6     0     0     0     0     0     0                  PRN / # OF OBS
   R 7     0     0     0     0     0     0                  PRN / # OF OBS
   R 8     0     0     0     0     0     0                  PRN / # OF OBS
   R 9     0     0     0     0     0     0                  PRN / # OF OBS
   R10     0     0     0     0     0     0                  PRN / # OF OBS
   R11     0     0     0     0     0     0                  PRN / # OF OBS
   R12   489   489   489   486   486   486                  PRN / # OF OBS
   R13  1017  1017  1017  1007  1007  1007                  PRN / # OF OBS
   R14  1023  1023  1023  1023  1023  1023                  PRN / # OF OBS
   R15   352   352   352   350   350   350                  PRN / # OF OBS
   R16     0     0     0     0     0     0                  PRN / # OF OBS
   R17     0     0     0     0     0     0                  PRN / # OF OBS
   R18     0     0     0     0     0     0                  PRN / # OF OBS
   R19   162   162   162   162   162   162                  PRN / # OF OBS
   R20     0     0     0     0     0     0                  PRN / # OF OBS
   R21   302   302   302   298   298   298                  PRN / # OF OBS
   R22     0     0     0     0     0     0                  PRN / # OF OBS
   R23     0     0     0     0     0     0                  PRN / # OF OBS
   R24     0     0     0     0     0     0                  PRN / # OF OBS
                                                            END OF HEADER
 20 09 28 09 19 30.0000000  0 13G20G24G21G32G12G10R 3R 4R 2R13R12R14
                                R19
  21160457.193   111198940.98749     -2592.426    21160457.030    86648519.63847
     -2020.073  
  21439912.451   112667508.90448     -2319.605    21439914.977    87792876.80746
     -1807.488  
  23016145.789   120950671.03548       -59.714    23016145.316    94247278.64546
       -46.535  
  21579437.575   113400748.22449      2256.348    21579439.646    88364243.53547
      1758.184  
  23462176.765   123294587.63047      2911.706    23462180.414    96073698.93744
      2268.863  
  20382533.242   107110943.78449       -51.519    20382535.686    83463082.55948
       -40.144  
  19607941.114   104962846.74309     -1081.354    19607943.688    81637783.45308
      -841.058  
  20316505.297   108793958.88909      2334.444    20316507.980    84617552.79408
      1815.675  
  22900338.807   122200589.28006     -3424.429    22900346.090    95044935.72406
     -2663.453  
  19909162.371   106313814.12306      1005.913    19909166.833    82688543.57906
       782.379  
  21797869.980   116440309.80804     -3031.535    21797876.190    90564709.54105
     -2357.863  
  22176784.270   118214734.95307      4279.120    22176790.859    91944829.57506
      3328.206  
  22425420.381   119960873.80904     -3280.550    22425424.074    93302916.16505
     -2551.543  
 20 09 28 09 19 35.0000000  0 13G20G24G21G32G12G10R 3R 4R 2R13R12R14
                                R19
  21162926.065   111211915.02749     -2596.055    21162925.919    86658629.26547
     -2022.902  
  21442121.366   112679116.95648     -2323.102    21442123.872    87801922.05047
     -1810.210  
  23016204.850   120950981.52648       -63.742    23016204.391    94247520.61246
       -49.667  
  21577292.365   113389475.22449      2253.741    21577294.449    88355459.37647
      1756.160  
  23459407.644   123280035.55447      2909.495    23459411.276    96062359.62045
      2267.132  
  20382584.491   107111213.12949       -55.425    20382586.921    83463292.41949
       -43.191  
  19608953.480   104968265.95609     -1085.249    19608956.069    81641998.38108
      -844.085  
  20314327.357   108782295.99608      2331.573    20314330.056    84608481.66408
      1813.444  
  22903548.375   122217716.27706     -3426.214    22903555.758    95058256.72505
     -2664.836  
  19908223.601   106308801.42205      1000.371    19908228.149    82684644.79606
       778.062  
  21800710.874   116455484.97708     -3036.840    21800717.045    90576512.48507
     -2361.988  
  22172772.267   118193348.84407      4276.382    22172778.715    91928195.90906
      3326.070  
  22428488.294   119977285.79504     -3285.039    22428492.102    93315681.05505
     -2555.030  
 20 09 28 09 19 40.0000000  0 13G20G24G21G32G12G10R 3R 4R 2R13R12R14
                                R19
  21165397.167   111224900.63049     -2598.074    21165396.995    86668747.90547
     -2024.477  
  21444332.634   112690737.43548     -2325.066    21444335.073    87810976.95547
     -1811.742  
  23016266.559   120951305.87148       -65.980    23016266.056    94247773.33946
       -51.418  
  21575148.501   113378209.26849      2252.738    21575150.618    88346680.71347
      1755.375  
  23456640.332   123265492.75947      2907.577    23456643.837    96051027.57945
      2265.641  
  20382638.546   107111497.12549       -58.046    20382640.942    83463513.71948
       -45.234  
  19609968.184   104973697.80509     -1087.387    19609970.770    81646223.15608
      -845.745  
  20312151.016   108770641.78908      2330.335    20312153.719    84599417.29708
      1812.484  
  22906758.791   122234847.92306     -3426.925    22906766.250    95071581.33406
     -2665.390  
  19907289.092   106303811.72805       996.140    19907293.757    82680763.93306
       774.777  
  21803554.807   116470676.10308     -3039.512    21803560.881    90588327.78807
     -2364.070  
  22168761.628   118171970.44507      4275.253    22168768.037    91911568.29206
      3325.198  
  22431558.755   119993711.37404     -3286.055    22431562.656    93328456.48605
     -2555.823  
 20 09 28 09 19 45.0000000  0 13G20G24G21G32G12G10R 3R 4R 2R13R12R14
                                R19
  21167869.919   111237895.00149     -2599.565    21167869.719    86678873.39147
     -2025.640  
  21446545.733   112702367.56748     -2326.969    21446548.060    87820039.39447
     -1813.226  
  23016330.385   120951641.37448       -68.195    23016329.832    94248034.77346
       -53.145  
  21573005.483   113366947.63149      2251.879    21573007.637    88337905.40847
      1754.711  
  23453874.278   123250956.42447      2906.632    23453877.500    96039700.57945
      2264.910  
  20382694.860   107111793.05849       -60.273    20382697.233    83463744.31649
       -46.968  
  19610984.725   104979139.49509     -1089.285    19610987.300    81650455.57908
      -847.227  
  20309975.741   108758993.22808      2329.237    20309978.404    84590357.31008
      1811.628  
  22909969.588   122251981.50806     -3426.733    22909977.101    95084907.46206
     -2665.241  
  19906358.464   106298842.16405       991.836    19906363.126    82676898.72106
       771.430  
  21806401.027   116485880.09608     -3041.969    21806407.123    90600153.11507
     -2365.979  
  22164752.016   118150597.11407      4274.437    22164758.287    91894944.61406
      3324.562  
  22434631.322   120010147.91604     -3289.155    22434635.309    93341240.46405
     -2558.237  
 20 09 28 09 19 50.0000000  0 13G20G24G21G32G12G10R 3R 4R 2R13R12R14
                                R19
  21170344.477   111250898.91949     -2601.511    21170344.235    86689006.30847
     -2027.155  
  21448760.796   112714008.02148     -2328.934    21448763.060    87829109.88447
     -1814.753  
  23016396.439   120951988.70848       -70.469    23016395.807    94248305.42946
       -54.910  
  21570863.392   113355690.99249      2251.070    21570865.625    88329134.01047
      1754.081  
  23451109.718   123236427.40648      2905.203    23451112.585    96028379.27545
      2263.793  
  20382753.598   107112101.63449       -62.780    20382755.914    83463984.76149
       -48.925  
  19612003.237   104984591.79409     -1091.383    19612005.790    81654696.25708
      -848.855  
  20307801.723   108747351.33608      2327.956    20307804.350    84581302.51208
      1810.633  
  22913180.976   122269117.77706     -3427.362    22913188.417    95098235.65006
     -2665.729  
  19905431.699   106293893.38705       988.183    19905436.380    82673049.67506
       768.586  
  21809249.785   116501097.71108     -3044.882    21809255.899    90611989.03407
     -2368.246  
  22160743.435   118129229.46307      4273.229    22160749.623    91878325.34806
      3323.629  
  22437706.220   120026596.10404     -3289.992    22437710.152    93354033.48805
     -2558.887  
 20 09 28 09 19 55.0000000  0 13G20G24G21G32G12G10R 3R 4R 2R13R12R14
                                R19
  21172821.229   111263914.34249     -2604.648    21172820.940    86699148.18847
     -2029.602  
  21450978.216   112725660.73548     -2332.382    21450980.437    87838189.92347
     -1817.445  
  23016465.127   120952349.85448       -74.129    23016464.483    94248586.83246
       -57.765  
  21568722.644   113344441.38149      2248.652    21568724.920    88320368.08847
      1752.198  
  23448346.897   123221907.59148      2902.492    23448349.419    96017065.13645
      2261.683  
  20382815.128   107112424.85249       -66.555    20382817.398    83464236.62049
       -51.862  
  19613024.095   104990056.61709     -1094.827    19613026.666    81658946.67908
      -851.530  
  20305629.280   108735718.03208      2325.344    20305631.899    84572254.39508
      1808.602  
  22916393.299   122286258.84606     -3429.198    22916400.615    95111567.58606
     -2667.160  
  19904509.125   106288967.51805       982.597    19904513.902    82669218.45006
       764.241  
  21812101.518   116516330.87708     -3048.815    21812107.570    90623837.04107
     -2371.304  
  22156736.213   118107869.59007      4270.878    22156742.446    91861712.11806
      3321.792  
  22440783.615   120043057.96904     -3293.684    22440787.545    93366837.15505
     -2561.758  
 20 09 28 09 20  0.0000000  0 13G20G24G21G32G12G10R 3R 4R 2R13R12R14
                                R19
  21175300.215   111276941.59249     -2605.999    21175299.911    86709299.28647
     -2030.651  
  21453198.077   112737326.18348     -2333.897    21453200.305    87847279.88347
     -1818.621  
  23016536.485   120952725.15248       -75.632    23016535.803    94248879.28045
       -58.933  
  21566583.297   113333199.13049      2248.159    21566585.615    88311607.89647
      1751.813  
  23445585.898   123207397.44548      2901.734    23445588.178    96005758.53545
      2261.089  
  20382879.497   107112763.05049       -68.609    20382881.724    83464500.15349
       -53.464  
  19614047.363   104995534.41009     -1096.335    19614049.955    81663207.18008
      -852.710  
  20303458.520   108724093.70908      2324.469    20303461.125    84563213.26208
      1807.921  
  22919606.484   122303404.73406     -3429.020    22919613.702    95124903.28106
     -2667.020  
  19903591.069   106284064.99405       978.847    19903595.817    82665405.37706
       761.324  
  21814956.163   116531579.97008     -3050.918    21814962.231    90635697.44207
     -2372.940  
  22152730.602   118086517.83407      4270.323    22152736.817    91845105.21306
      3321.362  
  22443863.567   120059533.76404     -3296.343    22443867.541    93379651.65005
     -2563.828  
 20 09 28 09 20  5.0000000  0 13G20G24G21G32G12G10R 3R 4R 2R13R12R14
                                R19
  21177781.183   111289979.19949     -2608.796    21177780.838    86719458.45647
     -2032.832  
  21455420.082   112749002.92948     -2336.608    21455422.355    87856378.64647
     -1820.737  
  23016610.251   120953113.17048       -79.198    23016609.609    94249181.63045
       -61.714  
  21564445.087   113321962.76249      2246.483    21564447.392    88302852.29147
      1750.507  
  23442826.430   123192895.52848      2899.538    23442828.469    95994458.35945
      2259.382  
  20382946.446   107113114.77549       -72.034    20382948.624    83464774.22248
       -56.136  
  19615072.783   105001023.68709     -1099.284    19615075.421    81667476.61808
      -855.004  
  20301289.116   108712476.80608      2322.445    20301291.752    84554177.89708
      1806.347  
  22922820.392   122320554.17107     -3430.358    22922827.396    95138241.70906
     -2668.063  
  19902677.032   106279184.33606       973.695    19902681.805    82661609.31206
       757.320  
  21817813.575   116546843.50708     -3054.391    21817819.597    90647569.08407
     -2375.641  
  22148726.209   118065172.76307      4268.315    22148732.486    91828503.50106
      3319.801  
  22446945.788   120076021.97004     -3299.835    22446949.871    93392475.79505
     -2566.542  
 20 09 28 09 20 10.0000000  0 13G20G24G21G32G12G10R 3R 4R 2R13R12R14
                                R19
  21180264.609   111303029.75549     -2611.402    21180264.235    86729627.70847
     -2034.862  
  21457644.686   112760693.33448     -2339.503    21457646.993    87865488.04547
     -1822.991  
  23016686.908   120953516.41348       -82.292    23016686.341    94249495.83545
       -64.128  
  21562308.489   113310734.89249      2244.766    21562310.763    88294103.30947
      1749.167  
  23440068.990   123178404.42747      2896.979    23440070.760    95983166.59845
      2257.387  
  20383016.445   107113482.59549       -75.199    20383018.580    83465060.83548
       -58.598  
  19616100.795   105006526.96309     -1101.983    19616103.495    81671756.94708
      -857.098  
  20299121.630   108700870.04808      2320.270    20299124.294    84545150.41808
      1804.651  
  22926035.451   122337709.81206     -3431.726    22926042.270    95151584.97306
     -2669.124  
  19901767.567   106274328.15505       969.285    19901772.354    82657832.28706
       753.886  
  21820674.173   116562124.08808     -3057.953    21820680.167    90659453.97107
     -2378.409  
  22144723.519   118043837.01406      4266.262    22144729.933    91811909.03706
      3318.202  
  22450030.994   120092525.21104     -3301.609    22450034.966    93405311.63005
     -2567.921  
 20 09 28 09 20 15.0000000  0 13G20G24G21G32G12G10R 3R 4R 2R13R12R14
                                R19
  21182750.309   111316092.25749     -2613.184    21182749.899    86739806.27347
     -2036.249  
  21459871.709   112772396.57648     -2341.344    21459874.077    87874607.45447
     -1824.425  
  23016766.308   120953933.97748       -84.565    23016765.823    94249821.20446
       -65.897  
  21560173.299   113299514.52249      2243.753    21560175.584    88285360.17047
      1748.378  
  23437313.364   123163923.14047      2895.585    23437315.052    95971882.49645
      2256.301  
  20383089.319   107113865.54849       -77.621    20383091.445    83465359.23749
       -60.488  
  19617131.313   105012043.31409     -1104.039    19617134.019    81676047.44708
      -858.695  
  20296955.793   108689272.37408      2319.102    20296958.533    84536130.00808
      1803.741  
  22929251.532   122354870.46406     -3432.269    22929258.080    95164932.12106
     -2669.550  
  19900862.572   106269495.40706       964.617    19900867.307    82654073.49006
       750.258  
  21823537.748   116577420.66708     -3060.288    21823543.725    90671351.30507
     -2380.229  
  22140722.462   118022509.53907      4265.272    22140728.932    91795321.01006
      3317.433  
  22453118.952   120109042.58004     -3304.359    22453122.665    93418158.45705
     -2570.062  
 20 09 28 09 20 20.0000000  0 13G20G24G21G32G12G10R 3R 4R 2R13R12R14
                                R19
  21185238.116   111329165.86749     -2615.773    21185237.685    86749993.49847
     -2038.269  
  21462101.037   112784111.74148     -2344.098    21462103.432    87883736.16547
     -1826.570  
  23016848.269   120954364.96448       -87.390    23016847.903    94250157.02946
       -68.102  
  21558039.380   113288300.79649      2242.152    21558041.659    88276622.19847
      1747.128  
  23434559.407   123149450.77947      2893.749    23434560.988    95960605.34545
      2254.870  
  20383164.890   107114262.77149       -80.879    20383167.019    83465668.76149
       -63.026  
  19618164.102   105017571.88509     -1106.906    19618166.825    81680347.44708
      -860.930  
  20294791.489   108677682.96708      2317.172    20294794.310    84527116.03208
      1802.246  
  22932468.352   122372035.44006     -3433.483    22932474.690    95178282.65306
     -2670.491  
  19899961.796   106264685.15705       960.249    19899966.472    82650332.18806
       746.859  
  21826404.253   116592732.33108     -3063.891    21826410.072    90683260.38307
     -2383.027  
  22136722.785   118001189.59907      4263.237    22136729.353    91778738.84406
      3315.851  
  22456209.262   120125573.12604     -3306.983    22456212.803    93431015.52605
     -2572.104  
 20 09 28 09 20 25.0000000  0 13G20G24G21G32G12G10R 3R 4R 2R13R12R14
                                R19
  21187728.048   111342250.61149     -2618.109    21187727.628    86760189.39847
     -2040.090  
  21464332.621   112795838.89048     -2346.781    21464335.063    87892874.19547
     -1828.663  
  23016932.808   120954809.43948       -90.503    23016932.521    94250503.36746
       -70.526  
  21555906.744   113277093.77649      2240.589    21555909.057    88267889.45747
      1745.914  
  23431807.176   123134987.49247      2891.581    23431808.680    95949335.26346
      2253.180  
  20383243.197   107114674.30749       -83.816    20383245.324    83465989.43949
       -65.315  
  19619199.236   105023112.75509     -1109.386    19619201.928    81684657.00908
      -862.858  
  20292628.700   108666101.83008      2315.331    20292631.591    84518108.48007
      1800.812  
  22935685.905   122389204.72907     -3434.270    22935692.087    95191636.51706
     -2671.104  
  19899065.255   106259897.46105       955.628    19899069.877    82646608.43006
       743.266  
  21829273.605   116608059.17708     -3066.965    21829279.232    90695181.27506
     -2385.417  
  22132724.457   117979877.14007      4261.242    22132731.176    91762162.49206
      3314.300  
  22459301.977   120142116.72204     -3309.980    22459305.398    93443882.75305
     -2574.433  
 20 09 28 09 20 30.0000000  0 13G20G24G21G32G12G10R 3R 4R 2R13R12R14
                                R19
  21190220.429   111355348.22349     -2620.694    21190219.997    86770395.32647
     -2042.104  
  21466566.821   112807579.75248     -2349.487    21466569.290    87902022.92247
     -1830.772  
  23017020.256   120955269.16748       -93.301    23017020.084    94250861.61446
       -72.707  
  21553775.701   113265895.19849      2238.937    21553778.025    88259163.29847
      1744.624  
  23429056.922   123120534.99547      2889.648    23429058.402    95938073.58245
      2251.675  
  20383324.551   107115101.92049       -87.062    20383326.689    83466322.64649
       -67.839  
  19620236.925   105028667.55809     -1112.246    19620239.627    81688977.41208
      -865.081  
  20290467.851   108654530.83008      2313.262    20290470.737    84509108.81807
      1799.202  
  22938904.668   122406380.26107     -3436.090    22938910.734    95204995.25106
     -2672.520  
  19898173.285   106255134.13905       950.179    19898177.860    82642903.62506
       739.022  
  21832146.094   116623402.90508     -3070.479    21832151.580    90707115.28506
     -2388.152  
  22128727.964   117958574.04807      4259.910    22128734.796    91745593.43306
      3313.262  
  22462397.536   120158675.27804     -3313.586    22462400.797    93456761.62005
     -2577.238  
 20 09 28 09 20 35.0000000  0 13G20G24G21G32G12G10R 3R 4R 2R13R12R14
                                R19
  21192714.996   111368457.25949     -2622.762    21192714.561    86780610.14847
     -2043.715  
  21468803.313   112819332.87948     -2351.699    21468805.849    87911181.19147
     -1832.495  
  23017110.350   120955742.71248       -95.938    23017110.337    94251230.61946
       -74.757  
  21551646.009   113254703.68349      2237.707    21551648.366    88250442.64147
      1743.668  
  23426308.489   123106091.94547      2887.992    23426309.880    95926819.28346
      2250.387  
  20383408.688   107115544.21849       -89.800    20383410.847    83466667.29249
       -69.976  
  19621276.983   105034234.94209     -1114.530    19621279.653    81693307.59708
      -866.862  
  20288308.659   108642968.52108      2311.698    20288311.491    84500115.91308
      1797.987  
  22942124.206   122423560.08407     -3436.242    22942130.196    95218357.30906
     -2672.641  
  19897285.670   106250393.82905       946.054    19897290.159    82639216.71506
       735.815  
  21835021.427   116638762.13408     -3073.262    21835026.822    90719061.35106
     -2390.316  
  22124732.926   117937278.81107      4258.319    22124739.890    91729030.48806
      3312.027  
  22465495.386   120175247.34204     -3315.652    22465498.708    93469650.99405
     -2578.844  
 20 09 28 09 20 40.0000000  0 13G20G24G21G32G12G10R 3R 4R 2R13R12R14
                                R19
  21195211.605   111381577.03149     -2625.335    21195211.231    86790833.34447
     -2045.719  
  21471042.035   112831097.47548     -2354.413    21471044.600    87920348.41047
     -1834.608  
  23017202.904   120956229.36748       -98.827    23017203.036    94251609.83446
       -77.008  
  21549517.536   113243518.51349      2236.203    21549519.925    88241726.93748
      1742.495  
  23423561.683   123091657.60047      2885.944    23423563.002    95915571.74645
      2248.788  
  20383495.488   107116000.48249       -92.831    20383497.664    83467022.82449
       -72.339  
  19622319.292   105039814.25709     -1117.461    19622321.908    81697647.06308
      -869.141  
  20286150.957   108631414.15508      2309.707    20286153.743    84491129.19007
      1796.438  
  22945344.582   122440743.97307     -3437.512    22945350.499    95231722.54306
     -2673.624  
  19896402.136   106245675.83705       940.909    19896406.595    82635547.17406
       731.820  
  21837899.529   116654136.13107     -3076.359    21837904.821    90731018.90306
     -2392.726  
  22120739.331   117915990.86007      4256.565    22120746.326    91712473.19906
      3310.664  
  22468595.597   120191832.10104     -3317.824    22468599.008    93482550.25205
     -2580.534  
 20 09 28 09 20 45.0000000  0 13G20G24G21G32G12G10R 3R 4R 2R13R12R14
                                R19
  21197710.557   111394709.14149     -2627.633    21197710.226    86801066.15547
     -2047.512  
  21473283.269   112842875.23648     -2356.749    21473285.862    87929525.88047
     -1836.433  
  23017298.240   120956730.73548      -101.562    23017298.521    94252000.51546
       -79.140  
  21547390.593   113232341.28849      2234.722    21547393.039    88233017.41347
      1741.344  
  23420816.858   123077233.60547      2883.797    23420818.264    95904332.28445
      2247.112  
  20383585.257   107116472.31249       -95.929    20383587.458    83467390.48249
       -74.753  
  19623364.068   105045407.05309     -1119.746    19623366.681    81701997.01208
      -870.917  
  20283995.049   108619869.33408      2308.077    20283997.808    84482149.89008
      1795.171  
  22948565.954   122457933.29807     -3438.566    22948571.828    95245092.00306
     -2674.445  
  19895523.134   106240981.76306       936.245    19895527.516    82631896.22706
       728.176  
  21840780.686   116669526.44008     -3079.891    21840785.836    90742989.14306
     -2395.469  
  22116747.457   117894711.73807      4255.046    22116754.419    91695922.77906
      3309.479  
  22471698.592   120208431.22204     -3320.851    22471702.038    93495460.67305
     -2582.887  
 20 09 28 09 20 50.0000000  0 13G20G24G21G32G12G10R 3R 4R 2R13R12R14
                                R19
  21200211.256   111407850.49649     -2629.734    21200211.011    86811306.16947
     -2049.147  
  21475526.421   112854663.04748     -2359.039    21475529.048    87938711.19347
     -1838.214  
  23017395.845   120957243.77748      -104.223    23017396.177    94252400.30546
       -81.211  
  21545264.593   113221168.95949      2233.421    21545267.086    88224311.70747
      1740.327  
  23418073.472   123062816.88747      2882.000    23418074.792    95893098.50545
      2245.718  
  20383677.398   107116956.64549       -98.620    20383679.623    83467767.88248
       -76.848  
  19624410.815   105051010.24609     -1122.190    19624413.389    81706355.04708
      -872.819  
  20281840.349   108608331.04108      2306.563    20281843.108    84473175.67007
      1793.992  
  22951787.693   122475125.14506     -3439.285    22951793.676    95258463.43006
     -2675.004  
  19894648.034   106236308.49505       932.229    19894652.296    82628261.46606
       725.066  
  21843664.318   116684929.94007     -3082.535    21843669.338    90754969.65106
     -2397.527  
  22112756.616   117873438.43207      4253.742    22112763.612    91679376.89006
      3308.465  
  22474803.572   120225041.42804     -3324.457    22474807.145    93508379.71105
     -2585.690  
 20 09 28 09 20 55.0000000  0 13G20G24G21G32G12G10R 3R 4R 2R13R12R14
                                R19
  21202714.128   111421003.17749     -2631.843    21202713.943    86821555.00947
     -2050.792  
  21477771.877   112866462.87648     -2361.210    21477774.472    87947905.86347
     -1839.910  
  23017496.024   120957770.44347      -106.546    23017496.435    94252810.69045
       -83.022  
  21543139.907   113210003.50249      2232.379    21543142.447    88215611.35548
      1739.516  
  23415331.835   123048409.45947      2880.620    23415333.115    95881871.95146
      2244.641  
  20383772.293   107117455.47849      -101.354    20383774.563    83468156.58549
       -78.976  
  19625459.877   105056625.86309     -1124.383    19625462.402    81710722.74208
      -874.522  
  20279687.239   108596801.20608      2304.964    20279690.018    84464208.03308
      1792.749  
  22955010.244   122492321.26307     -3439.734    22955016.385    95271838.18006
     -2675.351  
  19893777.117   106231658.06505       927.819    19893781.338    82624644.46806
       721.632  
  21846550.798   116700348.62607     -3085.219    21846555.691    90766961.97406
     -2399.612  
  22108767.275   117852172.97307      4252.258    22108774.263    91662837.10406
      3307.312  
  22477911.280   120241665.00604     -3326.374    22477914.746    93521309.15505
     -2587.183  
 20 09 28 09 21  0.0000000  0 13G20G24G21G32G12G10R 3R 4R 2R13R12R14
                                R19
  21205219.371   111434168.38449     -2634.796    21205219.249    86831813.59847
     -2053.094  
  21480019.832   112878276.05148     -2364.457    21480022.420    87957110.92547
     -1842.437  
  23017599.044   120958312.06348      -110.043    23017599.535    94253232.74046
       -85.745  
  21541016.790   113198846.26349      2230.132    21541019.373    88206917.40748
      1737.761  
  23412592.241   123034012.63848      2877.586    23412593.533    95870653.66545
      2242.272  
  20383870.207   107117970.11449      -104.929    20383872.503    83468557.60249
       -81.765  
  19626511.485   105062255.23809     -1127.711    19626513.977    81715101.14108
      -877.112  
  20277535.937   108585281.30108      2302.461    20277538.750    84455248.11108
      1790.804  
  22958233.932   122509523.17007     -3441.507    22958240.157    95285217.43906
     -2676.730  
  19892910.806   106227031.73605       922.296    19892914.894    82621046.21806
       717.344  
  21849440.313   116715783.86507     -3089.144    21849445.155    90778967.15906
     -2402.667  
  22104779.677   117830916.67507      4249.910    22104786.607    91646304.43606
      3305.484  
  22481021.468   120258302.97604     -3329.699    22481024.977    93534249.79105
     -2589.770  
 20 09 28 09 21  5.0000000  0 13G20G24G21G32G12G10R 3R 4R 2R13R12R14
                                R19
  21207727.046   111447346.20949     -2636.062    21207726.967    86842082.03647
     -2054.078  
  21482270.375   112890102.64048     -2366.015    21482272.888    87966326.43647
     -1843.652  
  23017704.937   120958868.78548      -112.206    23017705.484    94253666.55345
       -87.434  
  21538895.260   113187697.32449      2229.827    21538897.877    88198229.92347
      1737.527  
  23409854.727   123019626.56148      2877.183    23409856.020    95859443.75945
      2241.965  
  20383971.157   107118500.70049      -107.034    20383973.477    83468971.04348
       -83.405  
  19627565.660   105067898.41009     -1129.249    19627568.125    81719490.27608
      -878.308  
  20275386.519   108573771.32908      2301.805    20275389.316    84446295.91707
      1790.292  
  22961458.737   122526731.03307     -3441.094    22961465.043    95298601.32006
     -2676.409  
  19892048.892   106222429.59706       918.776    19892053.009    82617466.78106
       714.605  
  21852332.905   116731235.72807     -3091.504    21852337.760    90790985.27206
     -2404.508  
  22100793.784   117809669.65007      4249.180    22100800.679    91629778.99306
      3304.917  
  22484134.711   120274955.63504     -3330.879    22484137.946    93547201.85005
     -2590.687  
 20 09 28 09 21 10.0000000  0 13G20G24G21G32G12G10R 3R 4R 2R13R12R14
                                R19
  21210236.113   111460531.38349     -2638.910    21210236.068    86852356.19447
     -2056.297  
  21484522.483   112901937.45648     -2368.897    21484524.910    87975548.37247
     -1845.898  
  23017812.707   120959435.27748      -115.519    23017813.253    94254107.97646
       -90.019  
  21536774.314   113176551.43149      2227.770    21536776.930    88189544.81648
      1735.926  
  23407118.280   123005245.99548      2874.598    23407119.561    95848238.13346
      2239.944  
  20384074.134   107119041.94249      -110.434    20384076.481    83469392.79549
       -86.051  
  19628621.424   105073550.15509     -1132.339    19628623.896    81723886.07808
      -880.707  
  20273237.957   108562265.96808      2299.461    20273240.756    84437347.30407
      1788.464  
  22964683.624   122543939.17707     -3442.809    22964689.946    95311985.42606
     -2677.741  
  19891190.610   106217846.42005       913.605    19891194.692    82613902.09606
       710.582  
  21855227.606   116746698.88907     -3095.112    21855232.486    90803012.16206
     -2407.313  
  22096808.718   117788426.59807      4247.101    22096815.479    91613256.62906
      3303.301  
  22487249.464   120291617.49304     -3334.363    22487252.594    93560161.05005
     -2593.398  
 20 09 28 09 21 15.0000000  0 13G20G24G21G32G12G10R 3R 4R 2R13R12R14
                                R19
  21212747.769   111473730.03849     -2641.229    21212747.715    86862640.84747
     -2058.105  
  21486777.354   112913786.57149     -2371.347    21486779.656    87984781.45847
     -1847.804  
  23017923.512   120960017.68848      -118.382    23017924.079    94254561.78946
       -92.250  
  21534655.105   113165414.72449      2226.257    21534657.702    88180866.86748
      1734.745  
  23404384.053   122990877.07148      2872.371    23404385.326    95837041.58746
      2238.211  
  20384180.301   107119599.97849      -113.395    20384182.679    83469827.62849
       -88.363  
  19629679.933   105079216.52809     -1135.020    19629682.391    81728293.25408
      -882.796  
  20271091.440   108550771.49708      2297.601    20271094.229    84428407.15507
      1787.019  
  22967909.733   122561154.25507     -3443.897    22967916.170    95325374.92206
     -2678.590  
  19890336.963   106213288.40205       909.358    19890341.093    82610356.97806
       707.218  
  21858125.549   116762179.46007     -3098.063    21858130.472    90815052.59806
     -2409.608  
  22092825.519   117767193.75107      4245.488    22092832.188    91596742.21206
      3302.047  
  22490366.990   120308294.77804     -3336.461    22490370.112    93573132.25105
     -2595.031  
 20 09 28 09 21 20.0000000  0 13G20G24G21G32G12G10R 3R 4R 2R13R12R14
                                R19
  21215261.565   111486939.99949     -2643.261    21215261.554    86872934.31647
     -2059.688  
  21489034.533   112925647.78449     -2373.602    21489036.702    87994023.96547
     -1849.558  
  23018036.910   120960613.81648      -120.742    23018037.481    94255026.30946
       -94.090  
  21532537.250   113154285.00949      2225.160    21532539.780    88172194.36148
      1733.891  
  23401651.612   122976517.62248      2871.022    23401652.924    95825852.41745
      2237.159  
  20384289.251   107120172.64349      -116.059    20384291.677    83470273.85949
       -90.433  
  19630740.820   105084895.44609     -1137.151    19630743.261    81732710.19008
      -884.456  
  20268946.527   108539285.65108      2296.211    20268949.321    84419473.72107
      1785.937  
  22971136.738   122578373.63607     -3444.429    22971143.156    95338767.76806
     -2679.003  
  19889487.756   106208753.27405       904.288    19889491.779    82606829.65406
       703.335  
  21861026.390   116777675.23107     -3101.038    21861031.343    90827104.86506
     -2411.922  
  22088843.914   117745968.93407      4244.070    22088850.394    91580234.03706
      3300.944  
  22493487.083   120324985.39504     -3338.347    22493490.159    93586113.82005
     -2596.495  
 20 09 28 09 21 25.0000000  0 13G20G24G21G32G12G10R 3R 4R 2R13R12R14
                                R19
  21217777.603   111500161.74349     -2645.301    21217777.583    86883236.97147
     -2061.276  
  21491294.061   112937521.36748     -2375.820    21491296.108    88003276.10747
     -1851.292  
  23018153.018   120961224.15748      -123.358    23018153.534    94255501.90346
       -96.124  
  21530420.798   113143162.76149      2223.819    21530423.288    88163527.68047
      1732.848  
  23398921.081   122962168.11548      2869.141    23398922.360    95814670.99645
      2235.694  
  20384401.060   107120760.35849      -118.832    20384403.539    83470731.82349
       -92.597  
  19631804.147   105090587.48709     -1139.550    19631806.597    81737137.33408
      -886.319  
  20266803.336   108527809.01908      2294.620    20266806.134    84410547.45607
      1784.703  
  22974364.614   122595598.01607     -3445.199    22974371.018    95352164.50206
     -2679.602  
  19888642.830   106204241.54405       900.191    19888646.885    82603320.53406
       700.148  
  21863930.137   116793186.71307     -3103.694    21863935.191    90839169.34706
     -2413.987  
  22084863.869   117724752.55107      4242.800    22084870.197    91563732.41706
      3299.957  
  22496609.670   120341689.56604     -3340.987    22496612.749    93599105.94205
     -2598.550  
 20 09 28 09 21 30.0000000  0 12G20G24G21G32G12G10R 3R 4R 2R13R12R14
  21220296.236   111513397.03049     -2648.179    21220296.211    86893550.17547
     -2063.520  
  21493556.294   112949409.36048     -2378.891    21493558.258    88012539.48347
     -1853.684  
  23018272.222   120961850.48148      -126.694    23018272.689    94255989.94446
       -98.723  
  21528306.098   113132049.78249      2221.831    21528308.566    88154868.21848
      1731.297  
  23396192.751   122947830.36148      2866.648    23396194.020    95803498.74345
      2233.753  
  20384516.098   107121364.97949      -122.433    20384518.618    83471202.95849
       -95.402  
  19632870.216   105096294.23809     -1142.659    19632872.705    81741575.92508
      -888.734  
  20264662.168   108516343.25608      2292.319    20264665.007    84401629.64107
      1782.910  
  22977593.774   122612829.30907     -3446.645    22977600.175    95365566.60706
     -2680.727  
  19887802.593   106199755.06605       894.789    19887806.750    82599831.05206
       695.945  
  21866837.134   116808715.65307     -3107.440    21866842.269    90851247.40106
     -2416.902  
  22080885.766   117703546.52407      4240.336    22080891.966    91547238.85306
      3298.039  
 20 09 28 09 21 35.0000000  0 12G20G24G21G32G12G10R 3R 4R 2R13R12R14
  21222816.616   111526641.55849     -2649.444    21222816.567    86903870.57947
     -2064.507  
  21495820.437   112961307.44948     -2380.159    21495822.328    88021810.72047
     -1854.671  
  23018393.690   120962488.52048      -128.121    23018394.062    94256487.13447
       -99.835  
  21526192.336   113120941.79349      2221.496    21526194.788    88146212.64948
      1731.034  
  23393465.842   122933500.10648      2865.375    23393467.163    95792332.31645
      2232.758  
  20384633.532   107121982.19449      -124.316    20384636.093    83471683.90649
       -96.870  
  19633938.218   105102011.40009     -1144.047    19633940.773    81746022.61208
      -889.812  
  20262522.265   108504884.17608      2291.503    20262525.135    84392717.02507
      1782.276  
  22980823.364   122630062.98707     -3446.441    22980829.741    95378970.56706
     -2680.570  
  19886966.278   106195289.37905       891.723    19886970.502    82596357.74706
       693.562  
  21869746.646   116824257.67707     -3109.265    21869751.739    90863335.64406
     -2418.319  
  22076908.775   117682346.55307      4239.926    22076914.863    91530749.99906
      3297.719  
 20 09 28 09 21 40.0000000  0 13G20G24G25G21G32G12G10R 3R 4R 2R13R12
                                R14
  21225338.962   111539896.45549     -2652.054    21225338.889    86914199.06747
     -2066.539  
  21498086.690   112973216.62348     -2383.085    21498088.548    88031090.60647
     -1856.948  
  24573270.280   129133410.89957      3700.414    24573275.350   100623454.48954
      2883.440  
  23018517.597   120963139.37348      -131.292    23018517.899    94256994.29146
      -102.305  
  21524079.713   113109839.88449      2219.722    21524082.181    88137561.81548
      1729.652  
  23390740.520   122919178.41248      2863.496    23390741.905    95781172.58845
      2231.300  
  20384753.590   107122613.10149      -127.675    20384756.174    83472175.52349
       -99.488  
  19635008.426   105107740.18009     -1146.983    19635011.039    81750478.32708
      -892.101  
  20260383.812   108493432.79408      2289.387    20260386.672    84383810.40307
      1780.633  
  22984053.681   122647300.20207     -3447.968    22984059.923    95392377.27306
     -2681.758  
  19886134.083   106190845.75505       886.366    19886138.384    82592901.59706
       689.395  
  21872658.812   116839813.91507     -3112.698    21872663.823    90875434.93706
     -2420.992  
  22072933.077   117661153.75007      4237.797    22072939.150    91514266.71906
      3296.063  
 20 09 28 09 21 45.0000000  0 13G20G24G25G21G32G12G10R 3R 4R 2R13R12
                                R14
  21227863.478   111553162.75049     -2654.422    21227863.350    86924536.43647
     -2068.383  
  21500355.240   112985137.87548     -2385.425    21500357.085    88040379.88647
     -1858.776  
  24569750.129   129114910.66346      3699.734    24569754.036   100609038.76644
      2882.918  
  23018644.145   120963804.10948      -134.292    23018644.352    94257512.28046
      -104.645  
  21521968.455   113098745.14949      2218.269    21521970.932    88128916.57048
      1728.522  
  23388017.052   122904866.46047      2861.379    23388018.306    95770020.43945
      2229.648  
  20384876.469   107123258.80449      -130.620    20384879.071    83472678.67149
      -101.785  
  19636081.013   105113481.69809     -1149.645    19636083.685    81754943.95208
      -894.168  
  20258247.016   108481990.31508      2287.632    20258249.842    84374910.70607
      1779.270  
  22987284.846   122664542.10106     -3448.702    22987290.956    95405787.63306
     -2682.328  
  19885306.321   106186425.36305       881.687    19885310.608    82589463.51006
       685.753  
  21875573.788   116855385.44407     -3115.972    21875578.765    90887546.13006
     -2423.535  
  22068958.928   117639969.14307      4235.941    22068965.012    91497789.81506
      3294.621  
 20 09 28 09 21 50.0000000  0 14G20G24G25G21G32G12G10R 3R 4R 2R13R12
                                R14R19
  21230390.087   111566440.13649     -2656.819    21230389.927    86934882.44147
     -2070.254  
  21502626.079   112997071.08648     -2387.983    21502627.929    88049678.48947
     -1860.769  
  24566229.754   129096411.47046      3699.438    24566233.625   100594623.83544
      2882.679  
  23018773.281   120964482.43948      -137.055    23018773.472    94258040.84846
      -106.796  
  21519858.512   113087657.32149      2216.801    21519860.981    88120276.70648
      1727.378  
  23385295.338   122890563.91247      2859.594    23385296.530    95758875.62645
      2228.258  
  20385002.116   107123919.02249      -133.608    20385004.720    83473193.12149
      -104.113  
  19637155.896   105119235.44209     -1152.151    19637158.623    81759419.08508
      -896.120  
  20256111.811   108470556.42308      2285.727    20256114.593    84366017.68807
      1777.788  
  22990516.722   122681788.26007     -3449.831    22990522.779    95419201.30706
     -2683.206  
  19884482.839   106182027.92105       876.930    19884487.132    82586043.28006
       682.051  
  21878491.528   116870971.89607     -3118.727    21878496.522    90899668.93106
     -2425.675  
  22064986.247   117618792.51707      4234.715    22064992.403    91481319.12206
      3293.667  
  22512259.737   120425408.65214     -3355.078    22512263.334    93664220.99415
     -2609.507  
 20 09 28 09 21 55.0000000  0 14G20G24G25G21G32G12G10R 3R 4R 2R13R12
                                R14R19
  21232918.839   111579728.75849     -2658.715    21232918.675    86945237.21047
     -2071.730  
  21504899.225   113009016.36048     -2390.117    21504901.046    88058986.49147
     -1862.434  
  24562709.391   129077913.27446      3699.772    24562714.019   100580209.69945
      2882.949  
  23018905.031   120965174.48248      -139.636    23018905.209    94258580.10146
      -108.809  
  21517749.924   113076576.52349      2215.598    21517752.347    88111642.32547
      1726.440  
  23382575.428   122876270.96947      2858.159    23382576.504    95747738.29245
      2227.141  
  20385130.539   107124593.85749      -136.327    20385133.153    83473718.97049
      -106.230  
  19638233.130   105125001.77609     -1154.351    19638235.912    81763904.01008
      -897.831  
  20253978.228   108459131.21308      2284.387    20253980.963    84357131.41507
      1776.746  
  22993749.513   122699038.95606     -3450.370    22993755.443    95432618.49706
     -2683.624  
  19883663.516   106177653.44205       872.723    19883667.971    82582640.91006
       678.784  
  21881412.164   116886573.56607     -3121.813    21881417.136    90911803.57106
     -2428.078  
  22061015.108   117597624.04907      4232.949    22061021.338    91464854.77106
      3292.292  
  22515396.827   120442190.71504     -3357.519    22515400.733    93677273.69606
     -2611.406  
 20 09 28 09 22  0.0000000  0 14G20G24G25G21G32G12G10R 3R 4R 2R13R12
                                R14R19
  21235449.845   111593029.28349     -2661.238    21235449.663    86955601.24847
     -2073.694  
  21507174.748   113020974.25448     -2392.769    21507176.557    88068304.32847
     -1864.500  
  24559189.687   129059416.98045      3699.371    24559195.329   100565797.00245
      2882.625  
  23019039.507   120965880.90848      -142.640    23019039.637    94259130.56346
      -111.151  
  21515642.799   113065503.41249      2213.941    21515645.150    88103013.92747
      1725.147  
  23379857.486   122861988.27447      2855.558    23379858.509    95736608.93245
      2225.108  
  20385261.880   107125283.99949      -139.492    20385264.484    83474256.74749
      -108.695  
  19639312.844   105130781.38009     -1157.030    19639315.682    81768399.26408
      -899.914  
  20251846.385   108447715.41708      2282.258    20251849.107    84348252.46707
      1775.089  
  22996983.269   122716294.86806     -3451.547    22996989.115    95446039.75106
     -2684.539  
  19882848.612   106173302.48905       867.937    19882853.208    82579256.83906
       675.062  
  21884335.735   116902190.94507     -3124.879    21884340.750    90923950.42106
     -2430.465  
  22057045.607   117576464.37507      4231.125    22057051.945    91448397.25806
      3290.875  
  22518536.614   120458986.55604     -3360.683    22518540.717    93690337.11906
     -2613.867  
 20 09 28 09 22  5.0000000  0 14G20G24G25G21G32G12G10R 3R 4R 2R13R12
                                R14R19
  21237982.973   111606340.86849     -2663.539    21237982.774    86965973.91047
     -2075.488  
  21509452.485   113032943.78348     -2395.152    21509454.277    88077631.24347
     -1866.351  
  24555669.967   129040921.66046      3698.602    24555675.684   100551385.11344
      2882.031  
  23019176.565   120966600.90048      -145.426    23019176.731    94259691.59646
      -113.324  
  21513537.006   113054437.17549      2212.484    21513539.293    88094390.88748
      1724.012  
  23377141.291   122847715.04647      2854.417    23377142.367    95725486.97446
      2224.226  
  20385395.981   107125988.64049      -142.531    20385398.565    83474805.81848
      -111.065  
  19640394.862   105136573.25909     -1159.757    19640397.699    81772904.05708
      -902.038  
  20249716.160   108436308.15908      2280.507    20249718.883    84339380.15907
      1773.727  
  23000217.761   122733555.04906     -3452.894    23000223.635    95459464.33306
     -2685.590  
  19882038.128   106168974.39905       862.777    19882042.714    82575890.55806
       671.050  
  21887262.125   116917823.22608     -3127.969    21887267.192    90936108.86706
     -2432.866  
  22053077.645   117555312.75007      4229.421    22053084.048    91431946.00706
      3289.551  
  22521678.904   120475795.19004     -3363.547    22521683.132    93703410.50506
     -2616.097  
 20 09 28 09 22 10.0000000  0 14G20G24G25G21G32G12G10R 3R 4R 2R13R12
                                R14R19
  21240518.299   111619664.09649     -2665.503    21240518.105    86976355.63947
     -2077.019  
  21511732.592   113044925.76248     -2397.257    21511734.331    88086967.83947
     -1867.995  
  24552150.522   129022427.82545      3699.145    24552156.402   100536974.33545
      2882.453  
  23019316.315   120967335.01148      -147.934    23019316.521    94260263.63746
      -115.273  
  21511432.632   113043378.37049      2211.409    21511434.833    88085773.63347
      1723.171  
  23374427.066   122833451.88247      2851.956    23374428.080    95714372.82845
      2222.304  
  20385532.952   107126708.30449      -145.086    20385535.505    83475366.59749
      -113.055  
  19641479.268   105142378.01509     -1161.878    19641482.090    81777418.86508
      -903.688  
  20247587.668   108424910.08809      2278.976    20247590.414    84330515.00207
      1772.539  
  23003453.189   122750820.22806     -3453.320    23003459.141    95472892.79006
     -2685.917  
  19881232.005   106164669.62005       858.973    19881236.524    82572542.40606
       668.090  
  21890191.456   116933470.90607     -3130.733    21890196.522    90948279.28106
     -2435.020  
  22049111.250   117534169.69507      4228.245    22049117.749    91415501.41506
      3288.637  
  22524823.582   120492617.18504     -3365.105    22524828.042    93716494.26806
     -2617.309  
 20 09 28 09 22 15.0000000  0 14G20G24G25G21G32G12G10R 3R 4R 2R13R12
                                R14R19
  21243055.803   111632998.67349     -2668.445    21243055.575    86986746.21747
     -2079.312  
  21514014.987   113056919.82948     -2400.465    21514016.710    88096313.86147
     -1870.496  
  24548631.369   129003935.42245      3697.602    24548637.310   100522564.64645
      2881.242  
  23019458.658   120968082.90448      -151.218    23019458.917    94260846.41346
      -117.831  
  21509329.609   113032326.72049      2209.276    21509331.753    88077161.96548
      1721.516  
  23371714.659   122819198.46347      2849.112    23371715.667    95703266.29345
      2220.093  
  20385672.727   107127442.73449      -148.758    20385675.246    83475938.87749
      -115.917  
  19642566.055   105148195.45009     -1164.957    19642568.821    81781943.53608
      -906.081  
  20245460.860   108413520.90909      2276.656    20245463.612    84321656.76107
      1770.733  
  23006689.334   122768089.69806     -3454.608    23006695.401    95486324.59806
     -2686.921  
  19880430.249   106160387.88005       853.469    19880434.677    82569212.16606
       663.809  
  21893123.603   116949133.78107     -3134.324    21893128.712    90960461.51106
     -2437.813  
  22045146.416   117513034.98907      4225.706    22045152.993    91399063.31307
      3286.660  
  22527970.853   120509452.31205     -3369.316    22527975.355    93729588.25006
     -2620.581  
 20 09 28 09 22 20.0000000  0 14G20G24G25G21G32G12G10R 3R 4R 2R13R12
                                R14R19
  21245595.881   111646346.84648     -2670.745    21245595.671    86997147.38847
     -2081.102  
  21516300.141   113068928.29748     -2402.836    21516301.793    88105671.11447
     -1872.339  
  24545112.980   128985446.47646      3697.983    24545118.500   100508157.74045
      2881.554  
  23019604.043   120968846.93948      -154.230    23019604.415    94261441.76446
      -120.180  
  21507228.364   113021284.50649      2207.815    21507230.483    88068557.64848
      1720.375  
  23369004.556   122804957.05747      2847.219    23369005.606    95692169.11146
      2218.616  
  20385815.745   107128194.20149      -151.714    20385818.231    83476524.43749
      -118.218  
  19643655.607   105154027.78009     -1167.500    19643658.319    81786479.79108
      -908.058  
  20243336.121   108402142.90209      2274.815    20243338.866    84312807.20707
      1769.301  
  23009926.915   122785366.33006     -3455.680    23009933.054    95499761.96606
     -2687.754  
  19879633.228   106156131.51805       848.964    19879637.553    82565901.66506
       660.304  
  21896059.038   116964814.06607     -3137.702    21896064.152    90972657.27907
     -2440.441  
  22041183.631   117491910.99007      4223.987    22041190.218    91382633.55007
      3285.323  
  22531121.153   120526302.88405     -3370.852    22531125.482    93742694.25206
     -2621.773  
 20 09 28 09 22 25.0000000  0 14G20G24G25G21G32G12G10R 3R 4R 2R13R12
                                R14R19
  21248137.763   111659704.61648     -2672.952    21248137.593    87007556.04347
     -2082.820  
  21518587.272   113080947.12948     -2405.276    21518588.894    88115036.44047
     -1874.241  
  24541594.620   128966957.12044      3698.141    24541599.721   100493750.42846
      2881.671  
  23019751.758   120969623.12048      -157.069    23019752.230    94262046.57646
      -122.394  
  21505128.150   113010247.74949      2206.386    21505130.252    88059957.58248
      1719.261  
  23366295.991   122790723.73348      2845.687    23366297.138    95681078.23045
      2217.417  
  20385961.247   107128958.72649      -154.805    20385963.700    83477120.17149
      -120.632  
  19644747.192   105159871.02609     -1170.171    19644749.856    81791024.53608
      -910.136  
  20241212.741   108390771.98709      2272.996    20241215.429    84303963.16507
      1767.886  
  23013164.930   122802645.68906     -3456.628    23013171.188    95513201.45506
     -2688.491  
  19878840.178   106151896.58406       844.597    19878844.443    82562607.83706
       656.909  
  21898996.897   116980507.71007     -3140.293    21899002.056    90984863.44206
     -2442.453  
  22037222.093   117470793.54707      4222.156    22037228.672    91366208.88007
      3283.897  
  22534273.376   120543164.68304     -3374.215    22534277.611    93755808.98706
     -2624.395  
 20 09 28 09 22 30.0000000  0 14G20G24G25G21G32G12G10R 3R 4R 2R13R12
                                R14R19
  21250681.648   111673072.75948     -2674.793    21250681.467    87017972.78047
     -2084.254  
  21520876.500   113092976.97848     -2407.382    21520878.083    88124410.34947
     -1875.882  
  24538076.283   128948468.32145      3697.218    24538081.650   100479343.60944
      2880.945  
  23019901.895   120970412.15848      -159.413    23019902.416    94262661.40446
      -124.222  
  21503029.102   112999217.20449      2205.358    21503031.196    88051362.36148
      1718.421  
  23363589.136   122776499.24148      2843.730    23363590.352    95669994.23846
      2215.897  
  20386109.388   107129737.08549      -157.328    20386111.801    83477726.68449
      -122.594  
  19645840.951   105165726.06609     -1172.414    19645843.582    81795578.46008
      -911.878  
  20239090.826   108379409.00509      2271.554    20239093.473    84295125.29407
      1766.765  
  23016403.691   122819928.71106     -3457.237    23016410.041    95526643.80206
     -2688.968  
  19878051.186   106147683.88005       840.530    19878055.518    82559331.29806
       653.745  
  21901937.441   116996215.53307     -3143.168    21901942.579    90997080.64006
     -2444.690  
  22033261.896   117449683.53207      4220.996    22033268.527    91349789.99207
      3282.995  
  22537427.940   120560038.53305     -3376.402    22537431.914    93768933.08205
     -2626.094  
 20 09 28 09 22 35.0000000  0 14G20G24G25G21G32G12G10R 3R 4R 2R13R12
                                R14R19
  21253227.665   111686452.07649     -2676.983    21253227.473    87028398.22047
     -2085.960  
  21523168.010   113105018.75848     -2409.620    21523169.535    88133793.55547
     -1877.624  
  24534558.182   128929980.63946      3697.890    24534563.529   100464937.64944
      2881.473  
  23020054.666   120971214.94648      -162.191    23020055.198    94263286.96046
      -126.383  
  21500931.392   112988193.72949      2203.870    21500933.485    88042772.64848
      1717.300  
  23360884.148   122762284.49548      2841.679    23360885.462    95658917.85246
      2214.301  
  20386260.319   107130530.11149      -160.108    20386262.702    83478344.62849
      -124.762  
  19646937.029   105171593.52409     -1174.863    19646939.637    81800142.04608
      -913.780  
  20236970.542   108368054.85709      2269.883    20236973.181    84286294.28907
      1765.460  
  23019643.231   122837216.08006     -3458.230    23019649.685    95540089.52806
     -2689.737  
  19877266.540   106143494.10005       835.276    19877270.884    82556072.57806
       649.659  
  21904880.763   117011938.26507     -3146.258    21904885.930    91009309.43206
     -2447.094  
  22029303.252   117428581.82507      4219.522    22029309.924    91333377.55607
      3281.851  
  22540584.717   120576925.10304     -3378.152    22540588.533    93782067.06505
     -2627.456  
 20 09 28 09 22 40.0000000  0 14G20G24G25G21G32G12G10R 3R 4R 2R13R12
                                R14R19
  21255776.327   111699845.29049     -2679.964    21255776.119    87038834.49747
     -2088.284  
  21525462.328   113117075.22848     -2412.633    21525463.768    88143188.21247
     -1879.972  
  24531040.944   128911496.96246      3696.289    24531046.527   100450534.80145
      2880.230  
  23020210.600   120972034.16548      -165.468    23020211.077    94263925.32146
      -128.937  
  21498835.552   112977180.04749      2201.991    21498837.659    88034190.56148
      1715.839  
  23358181.532   122748082.12247      2839.585    23358182.887    95647851.10146
      2212.668  
  20386414.548   107131340.52949      -163.727    20386416.911    83478976.12249
      -127.582  
  19648035.955   105177476.31409     -1177.953    19648038.592    81804717.54908
      -916.187  
  20234852.439   108356712.32409      2267.590    20234855.080    84277472.32007
      1763.679  
  23022884.206   122854510.97906     -3459.628    23022890.702    95553541.10906
     -2690.922  
  19876486.756   106139330.09805       830.652    19876491.078    82552833.91406
       646.063  
  21907827.436   117027678.77007     -3149.651    21907832.628    91021552.03406
     -2449.734  
  22025346.693   117407491.23407      4217.104    22025353.415    91316973.77207
      3279.972  
  22543744.477   120593827.59404     -3381.883    22543748.128    93795213.42705
     -2630.359  
 20 09 28 09 22 45.0000000  0 14G20G24G25G21G32G12G10R 3R 4R 2R13R12
                                R14R19
  21258326.964   111713248.91649     -2681.616    21258326.735    87049278.87746
     -2089.574  
  21527758.749   113129142.75149     -2414.558    21527760.096    88152591.48047
     -1881.477  
  24527523.802   128893013.78546      3696.229    24527529.428   100436132.33744
      2880.183  
  23020368.982   120972866.31248      -167.589    23020369.404    94264573.73646
      -130.594  
  21496740.902   112966172.64749      2200.906    21496743.030    88025613.37348
      1714.991  
  23355480.620   122733888.73147      2837.762    23355482.057    95636791.34346
      2211.245  
  20386571.431   107132164.82749      -166.063    20386573.770    83479618.43349
      -129.401  
  19649137.065   105183370.73909     -1180.034    19649139.735    81809302.10508
      -917.805  
  20232735.835   108345377.75809      2266.147    20232738.476    84268656.54907
      1762.554  
  23026125.838   122871809.29406     -3460.023    23026132.421    95566995.35406
     -2691.132  
  19875711.096   106135188.39905       825.956    19875715.434    82549612.59606
       642.409  
  21910776.726   117043433.31407     -3152.359    21910781.972    91033805.56906
     -2451.840  
  22021391.601   117386408.11707      4215.988    22021398.310    91300575.80707
      3279.102  
  22546906.471   120610742.06604     -3384.108    22546909.970    93808369.10805
     -2632.093  
 20 09 28 09 22 50.0000000  0 14G20G24G25G21G32G12G10R 3R 4R 2R13R12
                                R14R19
  21260879.534   111726662.66949     -2684.043    21260879.260    87059731.16347
     -2091.461  
  21530057.252   113141221.09249     -2416.960    21530058.505    88162003.17447
     -1883.348  
  24524006.770   128874530.81246      3696.223    24524012.445   100421730.06745
      2880.176  
  23020529.768   120973711.15748      -170.507    23020530.128    94265232.06346
      -132.867  
  21494647.410   112955171.27549      2199.437    21494649.548    88017040.88548
      1713.847  
  23352781.373   122719704.05947      2836.172    23352782.779    95625738.37846
      2210.008  
  20386730.895   107133002.75349      -169.194    20386733.229    83480271.36049
      -131.843  
  19650240.331   105189276.69909     -1182.613    19650243.048    81813895.62608
      -919.813  
  20230620.662   108334050.94509      2264.339    20230623.342    84259846.80907
      1761.148  
  23029368.238   122889111.05105     -3460.956    23029374.798    95580452.26606
     -2691.858  
  19874939.626   106131068.66605       822.003    19874943.924    82546408.35406
       639.332  
  21913728.634   117059201.75307     -3155.319    21913733.865    91046069.91306
     -2454.136  
  22017437.840   117365332.34807      4214.148    22017444.551    91284183.55107
      3277.671  
  22550070.640   120627668.17304     -3386.309    22550074.046    93821533.83305
     -2633.805  
 20 09 28 09 22 55.0000000  0 14G20G24G25G21G32G12G10R 3R 4R 2R13R12
                                R14R19
  21263434.241   111740087.68049     -2685.729    21263433.952    87070192.20247
     -2092.780  
  21532358.032   113153311.40049     -2418.796    21532359.192    88171424.19647
     -1884.777  
  24520489.965   128856049.25346      3696.425    24520495.445   100407328.85445
      2880.336  
  23020693.201   120974569.81648      -172.784    23020693.400    94265901.13346
      -134.640  
  21492555.284   112944177.07749      2198.487    21492557.453    88008473.98048
      1713.104  
  23350083.948   122705529.24947      2834.515    23350085.423    95614693.09146
      2208.718  
  20386893.166   107133855.46049      -171.659    20386895.495    83480935.81149
      -133.761  
  19651345.952   105195195.23809     -1184.707    19651348.718    81818498.93508
      -921.437  
  20228507.170   108322733.10409      2262.910    20228509.888    84251044.03707
      1760.039  
  23032611.372   122906417.25406     -3461.327    23032618.016    95593912.63406
     -2692.148  
  19874172.468   106126972.02206       817.663    19874176.725    82543222.07806
       635.957  
  21916683.357   117074985.16707     -3157.867    21916688.568    91058345.90206
     -2456.120  
  22013485.643   117344264.97307      4213.343    22013492.383    91267797.82707
      3277.046  
  22553237.274   120644607.25204     -3390.069    22553240.603    93834708.65806
     -2636.695  
 20 09 28 09 23  0.0000000  0 14G20G24G25G21G32G12G10R 3R 4R 2R13R12
                                R14R19
  21265990.952   111753523.13349     -2688.273    21265990.603    87080661.38246
     -2094.761  
  21534660.943   113165412.96749     -2421.512    21534662.058    88180853.98747
     -1886.895  
  24516973.217   128837568.30846      3695.905    24516978.796   100392928.13645
      2879.921  
  23020859.108   120975441.47548      -175.797    23020859.184    94266580.33546
      -136.988  
  21490464.367   112933189.26649      2196.847    21490466.566    87999912.05348
      1711.823  
  23347388.252   122691363.58247      2831.953    23347389.692    95603654.92846
      2206.719  
  20387058.101   107134722.14049      -174.930    20387060.427    83481611.14949
      -136.309  
  19652453.791   105201125.61709     -1187.448    19652456.578    81823111.45208
      -923.573  
  20226395.153   108311423.35209      2260.991    20226397.904    84242247.57107
      1758.551  
  23035855.164   122923727.12206     -3462.859    23035861.897    95607375.85306
     -2693.340  
  19873409.571   106122897.63506       812.551    19873413.717    82540053.11406
       631.984  
  21919640.778   117090782.77008     -3161.132    21919645.915    91070632.93806
     -2458.659  
  22009534.854   117323205.29507      4211.249    22009541.665    91251418.08407
      3275.417  
  22556406.123   120661558.48704     -3391.453    22556409.516    93847892.94706
     -2637.800  
 20 09 28 09 23  5.0000000  0 14G20G24G25G21G32G12G10R 3R 4R 2R13R12
                                R14R19
  21268549.910   111766970.45349     -2690.426    21268549.510    87091139.80546
     -2096.441  
  21536966.203   113177527.00049     -2423.863    21536967.290    88190293.49447
     -1888.730  
  24513456.849   128819089.41646      3696.058    24513462.313   100378529.03944
      2880.054  
  23021027.795   120976327.61948      -178.492    23021027.656    94267270.82646
      -139.093  
  21488374.943   112922209.27149      2195.448    21488377.120    87991356.21447
      1710.737  
  23344694.532   122677208.39247      2830.562    23344696.042    95592624.94446
      2205.637  
  20387225.958   107135604.23649      -177.680    20387228.301    83482298.49949
      -138.453  
  19653564.096   105207069.26009     -1189.874    19653566.886    81827734.28808
      -925.460  
  20224284.928   108300123.22109      2259.214    20224287.630    84233458.57707
      1757.163  
  23039100.100   122941042.34606     -3463.457    23039106.817    95620843.22406
     -2693.808  
  19872650.909   106118846.95205       808.058    19872655.149    82536902.59106
       628.488  
  21922601.152   117106595.93107     -3164.074    21922606.166    91082932.06806
     -2460.945  
  22005585.875   117302154.79707      4209.262    22005592.662    91235045.48007
      3273.870  
  22559577.621   120678523.23604     -3394.112    22559581.000    93861087.74106
     -2639.871  
 20 09 28 09 23 10.0000000  0 14G20G24G25G21G32G12G10R 3R 4R 2R13R12
                                R14R19
  21271110.886   111780428.41449     -2692.249    21271110.434    87101626.51547
     -2097.858  
  21539273.599   113189652.38948     -2425.863    21539274.691    88199741.85147
     -1890.285  
  24509940.580   128800611.39547      3695.855    24509945.957   100364130.61945
      2879.895  
  23021198.996   120977226.93848      -180.961    23021198.689    94267971.61246
      -141.011  
  21486286.761   112911235.86049      2194.487    21486288.935    87982805.50847
      1709.992  
  23342002.577   122663062.54147      2828.430    23342004.013    95581602.25445
      2203.980  
  20387396.508   107136500.51349      -180.358    20387398.872    83482996.89749
      -140.539  
  19654676.651   105213024.94909     -1192.089    19654679.434    81832366.48308
      -927.183  
  20222176.252   108288831.39109      2257.832    20222178.848    84224676.04107
      1756.089  
  23042345.734   122958361.23706     -3464.191    23042352.386    95634313.44906
     -2694.379  
  19871896.604   106114818.75705       803.168    19871900.791    82533769.55806
       624.687  
  21925564.103   117122423.39407     -3166.562    21925569.057    91095242.32306
     -2462.883  
  22001638.378   117281112.19607      4207.949    22001645.141    91218679.02307
      3272.848  
  22562751.258   120695500.15004     -3395.112    22562754.840    93874291.99706
     -2640.648  
 20 09 28 09 23 15.0000000  0 14G20G24G25G21G32G12G10R 3R 4R 2R13R12
                                R14R19
  21273673.922   111793897.13349     -2695.273    21273673.423    87112121.62146
     -2100.219  
  21541583.137   113201789.18248     -2428.813    21541584.246    88209199.09547
     -1892.582  
  24506424.503   128782134.28547      3695.324    24506429.946   100349732.86044
      2879.473  
  23021372.705   120978139.53848      -184.355    23021372.275    94268682.73246
      -143.652  
  21484199.843   112900269.12649      2192.309    21484202.043    87974260.00448
      1708.292  
  23339312.406   122648926.09947      2826.101    23339313.848    95570586.88645
      2202.163  
  20387569.781   107137411.06549      -183.961    20387572.160    83483706.42049
      -143.348  
  19655791.460   105218992.73609     -1194.972    19655794.238    81837008.10008
      -929.422  
  20220069.174   108277547.98909      2255.367    20220071.632    84215900.06107
      1754.171  
  23045592.085   122975684.29206     -3465.147    23045598.701    95647786.92106
     -2695.125  
  19871146.510   106110813.23305       798.168    19871150.688    82530654.16206
       620.797  
  21928529.741   117138265.29707     -3170.211    21928534.657    91107563.80306
     -2465.718  
  21997692.338   117260077.58507      4205.651    21997699.103    91202318.77707
      3271.062  
  22565927.271   120712489.49204     -3399.379    22565930.995    93887505.91806
     -2643.965  
 20 09 28 09 23 20.0000000  0 14G20G24G25G21G32G12G10R 3R 4R 2R13R12
                                R14R19
  21276239.250   111807377.89549     -2697.395    21276238.664    87122626.10547
     -2101.871  
  21543895.087   113213938.78548     -2431.160    21543896.193    88218666.31747
     -1894.409  
  24502908.908   128763659.52146      3694.659    24502914.394   100335336.98045
      2878.960  
  23021549.195   120979066.78148      -186.828    23021548.622    94269405.28345
      -145.582  
  21482114.449   112889310.43449      2190.882    21482116.690    87965720.76848
      1707.179  
  23336624.301   122634800.38947      2824.148    23336625.655    95559579.87545
      2200.644  
  20387746.040   107138337.25149      -186.734    20387748.422    83484428.12049
      -145.511  
  19656908.782   105224973.87509     -1197.683    19656911.527    81841660.09608
      -931.534  
  20217963.950   108266274.45009      2253.637    20217966.281    84207131.75307
      1752.824  
  23048839.544   122993012.66706     -3466.312    23048846.048    95661264.52506
     -2696.027  
  19870400.984   106106831.78805       793.898    19870405.091    82527557.48306
       617.477  
  21931498.284   117154123.00007     -3173.144    21931503.218    91119897.55906
     -2468.004  
  21993748.082   117239052.41607      4204.086    21993754.822    91185965.87606
      3269.843  
  22569105.690   120729492.32704     -3401.925    22569109.651    93900730.33306
     -2645.944  
 20 09 28 09 23 25.0000000  0 14G20G24G25G21G32G12G10R 3R 4R 2R13R12
                                R14R19
  21278806.827   111820870.57249     -2699.612    21278806.172    87133139.87047
     -2103.597  
  21546209.408   113226100.93248     -2433.629    21546210.467    88228143.32347
     -1896.336  
  24499393.712   128745186.97646      3694.535    24499399.301   100320942.76145
      2878.852  
  23021728.450   120980008.55548      -189.746    23021727.766    94270139.12946
      -147.858  
  21480030.558   112878359.63649      2189.597    21480032.847    87957187.68448
      1706.179  
  23333938.271   122620685.32847      2822.094    23333939.504    95548581.12945
      2199.035  
  20387925.244   107139278.94449      -189.855    20387927.635    83485161.90849
      -147.938  
  19658028.572   105230968.38609     -1200.116    19658031.329    81846322.49008
      -933.410  
  20215860.508   108255010.55409      2251.953    20215862.737    84198370.94207
      1751.515  
  23052087.886   123010346.22706     -3467.211    23052094.345    95674746.16506
     -2696.726  
  19869659.934   106102874.22005       789.331    19869663.968    82524479.38006
       613.926  
  21934469.739   117169996.26307     -3176.109    21934474.686    91132243.41706
     -2470.312  
  21989805.567   117218036.56307      4202.273    21989812.307    91169620.23507
      3268.434  
  22572286.692   120746508.63304     -3403.921    22572290.803    93913965.23106
     -2647.500  
 20 09 28 09 23 30.0000000  0 14G20G24G25G21G32G12G10R 3R 4R 2R13R12
                                R14R19
  21281376.412   111834373.96148     -2701.620    21281375.742    87143661.98747
     -2105.163  
  21548525.907   113238274.56048     -2435.629    21548526.893    88237629.26247
     -1897.897  
  24495878.680   128726715.42147      3694.164    24495884.184   100306549.41545
      2878.574  
  23021910.254   120980963.68948      -192.289    23021909.416    94270883.38945
      -149.839  
  21477947.961   112867415.57749      2188.148    21477950.277    87948659.84848
      1705.047  
  23331253.997   122606579.78047      2820.410    23331255.171    95537589.82645
      2197.727  
  20388107.178   107140234.92249      -192.543    20388109.545    83485906.82849
      -150.035  
  19659150.668   105236975.02609     -1202.508    19659153.411    81850994.31708
      -935.289  
  20213758.652   108243755.14809      2250.418    20213760.817    84189616.73907
      1750.319  
  23055336.977   123027683.71406     -3467.593    23055343.378    95688230.85506
     -2697.022  
  19868922.952   106098939.30605       784.581    19868927.077    82521418.89206
       610.229  
  21937443.798   117185883.87107     -3178.890    21937448.843    91144600.44906
     -2472.468  
  21985864.566   117197028.74907      4200.859    21985871.265    91153280.82606
      3267.336  
  22575470.049   120763537.26204     -3406.862    22575474.206    93927209.71106
     -2649.784  
 20 09 28 09 23 35.0000000  0 14G20G24G25G21G32G12G10R 3R 4R 2R13R12
                                R14R19
  21283948.027   111847887.94748     -2704.194    21283947.350    87154192.35447
     -2107.167  
  21550844.527   113250459.27148     -2438.394    21550845.446    88247123.84847
     -1900.047  
  24492363.819   128708244.73246      3693.602    24492369.291   100292156.67145
      2878.136  
  23022094.572   120981932.03748      -195.335    23022093.723    94271637.90946
      -152.219  
  21475866.635   112856478.10449      2186.402    21475868.967    87940137.13848
      1703.688  
  23328571.523   122592483.59947      2817.956    23328572.641    95526605.78145
      2195.813  
  20388291.823   107141205.11349      -195.761    20388294.159    83486662.82249
      -152.543  
  19660274.990   105242993.70409     -1205.171    19660277.751    81855675.50908
      -937.359  
  20211658.333   108232508.12909      2248.121    20211660.494    84180869.06007
      1748.539  
  23058586.746   123045025.04106     -3468.930    23058593.194    95701718.55006
     -2698.058  
  19868190.235   106095026.91805       780.124    19868194.412    82518375.92206
       606.761  
  21940420.690   117201785.76607     -3182.003    21940425.635    91156968.58706
     -2474.894  
  21981925.057   117176028.97707      4198.874    21981931.706    91136947.69006
      3265.793  
  22578655.622   120780577.95904     -3409.233    22578659.811    93940463.57306
     -2651.629  
 20 09 28 09 23 40.0000000  0 14G20G24G25G21G32G12G10R 3R 4R 2R13R12
                                R14R19
  21286522.053   111861414.64448     -2706.566    21286521.411    87164732.64347
     -2109.015  
  21553165.697   113262657.48148     -2440.940    21553166.598    88256628.95147
     -1902.030  
  24488849.524   128689777.14547      3693.237    24488855.076   100277766.36345
      2877.848  
  23022281.781   120982915.70248      -198.171    23022280.850    94272404.41446
      -154.418  
  21473786.969   112845549.38349      2184.905    21473789.324    87931621.25248
      1702.527  
  23325891.274   122578398.95247      2815.715    23325892.331    95515630.76945
      2194.065  
  20388479.583   107142191.64149      -198.992    20388481.880    83487431.54349
      -155.063  
  19661401.988   105249026.61309     -1208.066    19661404.728    81860367.77908
      -939.605  
  20209559.998   108221271.66909      2246.254    20209562.159    84172129.60107
      1747.085  
  23061837.667   123062372.61006     -3470.344    23061844.215    95715211.08706
     -2699.159  
  19867462.158   106091139.27805       775.054    19867466.369    82515352.21006
       602.819  
  21943400.538   117217703.95607     -3185.479    21943405.517    91169349.40406
     -2477.597  
  21977987.474   117155039.35307      4197.015    21977994.025    91120622.43606
      3264.344  
  22581844.025   120797632.98204     -3412.871    22581848.059    93953728.58505
     -2654.460  
 20 09 28 09 23 45.0000000  0 14G20G24G25G21G32G12G10R 3R 4R 2R13R12
                                R14R19
  21289098.249   111874952.76848     -2708.679    21289097.638    87175281.83047
     -2110.659  
  21555489.192   113274867.87348     -2443.093    21555490.145    88266143.55247
     -1903.710  
  24485335.523   128671311.38346      3692.757    24485341.021   100263377.45845
      2877.472  
  23022471.650   120983913.40648      -200.722    23022470.709    94273181.82445
      -156.409  
  21471708.730   112834628.10549      2183.594    21471711.075    87923111.17047
      1701.500  
  23323212.986   122564324.57748      2813.727    23323214.032    95504663.73845
      2192.515  
  20388670.211   107143193.20849      -201.644    20388672.450    83488211.98948
      -157.128  
  19662531.356   105255072.39209     -1210.297    19662534.107    81865070.04908
      -941.348  
  20207463.423   108210044.51109      2244.585    20207465.530    84163397.37207
      1745.788  
  23065089.438   123079724.83906     -3470.824    23065096.095    95728707.25406
     -2699.534  
  19866738.543   106087275.06105       770.832    19866742.726    82512346.71106
       599.535  
  21946383.291   117233637.25507     -3187.964    21946388.233    91181741.96807
     -2479.530  
  21974051.555   117134058.62807      4195.402    21974058.000    91104304.10906
      3263.089  
  22585034.687   120814700.84504     -3414.913    22585038.647    93967003.58106
     -2656.046  
 20 09 28 09 23 50.0000000  0 14G20G24G25G21G32G12G10R 3R 4R 2R13R12
                                R14R19
  21291676.386   111888501.06548     -2710.648    21291675.793    87185838.94547
     -2112.198  
  21557814.772   113287089.16048     -2445.504    21557815.771    88275666.63347
     -1905.586  
  24481821.634   128652846.11646      3693.085    24481827.140   100248988.95145
      2877.726  
  23022663.972   120984923.90948      -203.488    23022662.979    94273969.22945
      -158.566  
  21469631.664   112823713.04749      2182.327    21469634.016    87914605.93147
      1700.516  
  23320536.430   122550259.17848      2812.270    23320537.376    95493703.68345
      2191.374  
  20388863.466   107144208.58349      -204.472    20388865.647    83489003.18948
      -159.332  
  19663662.914   105261129.80809     -1212.750    19663665.624    81869781.37408
      -943.253  
  20205368.327   108198825.37009      2242.992    20205370.387    84154671.36207
      1744.546  
  23068341.857   123097080.52706     -3471.387    23068348.612    95742206.12506
     -2699.972  
  19866019.029   106083432.92405       765.977    19866023.248    82509358.38406
       595.757  
  21949368.618   117249584.33907     -3190.688    21949373.574    91194145.24907
     -2481.647  
  21970117.091   117113085.59207      4193.854    21970123.402    91087991.76206
      3261.887  
  22588227.497   120831780.50604     -3416.902    22588231.447    93980287.75605
     -2657.594  
 20 09 28 09 23 55.0000000  0 14G20G24G25G21G32G12G10R 3R 4R 2R13R12
                                R14R19
  21294256.549   111902060.06549     -2712.883    21294255.980    87196404.40747
     -2113.937  
  21560142.490   113299321.77348     -2447.621    21560143.614    88285198.53947
     -1907.237  
  24478307.965   128634381.97546      3692.770    24478313.564   100234601.32045
      2877.480  
  23022858.817   120985947.70248      -206.249    23022857.810    94274767.00146
      -160.715  
  21467555.883   112812804.71649      2181.042    21467558.240    87906105.94247
      1699.515  
  23317861.694   122536203.41248      2810.195    23317862.680    95482751.15645
      2189.762  
  20389059.438   107145238.26749      -207.238    20389061.557    83489805.53448
      -161.488  
  19664796.716   105267199.26109     -1214.996    19664799.395    81874502.05508
      -945.034  
  20203274.827   108187614.74009      2241.370    20203276.843    84145951.98107
      1743.285  
  23071594.970   123114440.20306     -3472.433    23071601.814    95755708.09006
     -2700.785  
  19865303.747   106079613.45505       761.805    19865308.021    82506387.68606
       592.516  
  21952356.619   117265545.73507     -3193.644    21952361.670    91206559.66507
     -2483.948  
  21966184.116   117092120.81207      4192.180    21966190.328    91071685.82706
      3260.586  
  22591422.650   120848872.32404     -3419.151    22591426.482    93993581.38205
     -2659.343  
 20 09 28 09 24  0.0000000  0 14G20G24G25G21G32G12G10R 3R 4R 2R13R12
                                R14R19
  21296838.435   111915628.09449     -2715.000    21296837.888    87206976.89247
     -2115.589  
  21562472.052   113311563.92148     -2449.823    21562473.254    88294737.87047
     -1908.956  
  24474794.189   128615917.26846      3692.680    24474799.887   100220213.27545
      2877.418  
  23023055.876   120986983.13048      -208.582    23023054.852    94275573.82145
      -162.535  
  21465481.066   112801901.47549      2179.629    21465483.424    87897609.91947
      1698.413  
  23315188.464   122522155.52448      2808.437    23315189.487    95471804.78645
      2188.398  
  20389257.812   107146280.63449      -210.140    20389259.875    83490617.76948
      -163.749  
  19665932.487   105273279.16309     -1217.383    19665935.126    81879230.86708
      -946.855  
  20201182.596   108176410.97209      2239.636    20201184.610    84137237.93907
      1741.938  
  23074848.614   123131802.04806     -3472.897    23074855.454    95769211.74606
     -2701.148  
  19864592.386   106075815.01106       757.108    19864596.727    82503433.34906
       588.862  
  21955347.023   117281519.65107     -3196.339    21955352.101    91218983.81007
     -2486.047  
  21962252.386   117071162.44607      4190.737    21962258.430    91055384.89306
      3259.464  
  22594619.878   120865974.49304     -3422.187    22594623.489    94006883.05305
     -2661.707  
 20 09 28 09 24  5.0000000  0 15G20G24G25G21G11G32G12G10R 3R 4R 2R13
                                R12R14R19
  21299423.215   111929211.39449     -2718.668    21299422.697    87217561.28246
     -2118.445  
  21564804.615   113323821.99948     -2453.574    21564805.994    88304289.61247
     -1911.879  
  24471281.523   128597458.30446      3690.858    24471287.217   100205829.66545
      2876.030  
  23023256.320   120988036.47148      -212.828    23023255.290    94276394.61446
      -165.843  
  23897697.158   125583247.43254        29.559    23897698.159    97857079.14055
        23.030  
  21463408.406   112791009.57849      2176.984    21463410.790    87889122.73447
      1696.352  
  23312517.925   122508121.84048      2805.191    23312519.002    95460869.47245
      2185.867  
  20389459.787   107147341.92749      -214.531    20389461.802    83491444.75048
      -167.168  
  19667071.405   105279375.91209     -1221.386    19667073.996    81883972.77708
      -949.972  
  20199092.833   108165220.47909      2236.526    20199094.903    84128534.22607
      1739.516  
  23078103.842   123149172.63106     -3475.413    23078110.770    95782722.20206
     -2703.101  
  19863886.261   106072043.97106       751.367    19863890.564    82500500.32606
       584.397  
  21958340.982   117297512.43807     -3200.788    21958346.041    91231422.63207
     -2489.508  
  21958323.063   117050217.09907      4187.816    21958328.996    91039094.07706
      3257.190  
  22597820.120   120883093.38104     -3425.581    22597823.636    94020197.73105
     -2664.344  
 20 09 28 09 24 10.0000000  0 15G20G24G25G21G11G32G12G10R 3R 4R 2R13
                                R12R14R19
  21302010.434   111942807.47849     -2719.848    21302009.939    87228155.63946
     -2119.362  
  21567139.721   113336093.56548     -2454.941    21567141.315    88313851.86447
     -1912.945  
  24467769.491   128579002.57346      3691.891    24467775.247   100191448.60944
      2876.800  
  23023459.695   120989105.27448      -214.527    23023458.714    94277227.44346
      -167.168  
  23897670.516   125583106.21044        26.999    23897670.588    97856969.11641
        21.043  
  21461337.431   112780126.55949      2176.499    21461339.813    87880642.46147
      1695.968  
  23309849.650   122494099.92848      2804.031    23309850.685    95449943.34646
      2184.965  
  20389664.891   107148419.69349      -216.483    20389666.863    83492284.56948
      -168.687  
  19668213.000   105285486.95909     -1222.957    19668215.546    81888725.81408
      -951.191  
  20197005.039   108154040.71809      2235.574    20197007.223    84119838.86107
      1738.780  
  23081360.331   123166549.38506     -3475.242    23081367.201    95796237.44806
     -2702.969  
  19863184.740   106068297.76005       747.800    19863189.050    82497586.60906
       581.621  
  21961338.069   117313521.68107     -3202.949    21961343.048    91243874.25707
     -2491.188  
  21954395.687   117029282.10007      4186.730    21954401.525    91022811.31006
      3256.348  
  22601023.104   120900226.65504     -3427.960    22601026.474    94033523.60505
     -2666.194  
 20 09 28 09 24 15.0000000  0 15G20G24G25G21G11G32G12G10R 3R 4R 2R13
                                R12R14R19
  21304599.011   111956410.79049     -2721.569    21304598.566    87238755.63146
     -2120.702  
  21569476.392   113348373.07148     -2456.835    21569478.157    88323420.30947
     -1914.421  
  24464256.983   128560544.56246      3691.491    24464262.787   100177065.73846
      2876.491  
  23023664.933   120990183.96648      -216.781    23023663.964    94278067.97145
      -168.926  
  23897646.396   125582978.05144        24.656    23897645.949    97856869.19143
        19.202  
  21459267.080   112769246.88549      2175.430    21459269.495    87872164.79447
      1695.140  
  23307182.537   122480084.21848      2802.242    23307183.562    95439022.04845
      2183.570  
  20389872.058   107149508.36549      -219.102    20389874.023    83493132.88648
      -170.726  
  19669356.197   105291606.61509     -1225.031    19669358.698    81893485.54908
      -952.805  
  20194918.267   108142865.99209      2234.211    20194920.505    84111147.41107
      1737.719  
  23084616.771   123183926.55706     -3475.304    23084623.773    95809753.02106
     -2703.019  
  19862486.804   106064570.88305       743.058    19862491.142    82494687.93206
       577.933  
  21964337.132   117329541.70307     -3205.374    21964342.058    91256334.26807
     -2493.074  
  21950469.169   117008351.95707      4185.402    21950474.961    91006532.33406
      3255.316  
  22604227.461   120917368.61504     -3429.988    22604231.004    94046856.23705
     -2667.773  
 20 09 28 09 24 20.0000000  0 15G20G24G25G21G11G32G12G10R 3R 4R 2R13
                                R12R14R19
  21307189.438   111970023.73149     -2723.968    21307189.059    87249363.11046
     -2122.578  
  21571815.007   113360662.95448     -2459.484    21571816.956    88332996.83147
     -1916.483  
  24460744.567   128542086.75546      3691.371    24460750.369   100162683.03745
      2876.397  
  23023872.528   120991274.94548      -219.977    23023871.585    94278918.08246
      -171.410  
  23897625.305   125582865.31145        20.543    23897625.216    97856781.35745
        16.007  
  21457197.834   112758372.92649      2173.707    21457200.244    87863691.58647
      1693.796  
  23304517.047   122466077.09748      2800.270    23304518.036    95428107.44546
      2182.031  
  20390081.745   107150610.34049      -222.116    20390083.706    83493991.56448
      -173.081  
  19670501.479   105297737.39709     -1227.601    19670503.918    81898253.93108
      -954.804  
  20192832.874   108131698.84009      2232.206    20192835.171    84102461.85007
      1736.160  
  23087873.895   123201306.85206     -3476.977    23087880.922    95823271.02606
     -2704.319  
  19861792.995   106060865.57906       738.273    19861797.259    82491806.03306
       574.211  
  21967338.640   117345574.87707     -3208.535    21967343.533    91268804.51606
     -2495.530  
  21946544.067   116987429.05107      4183.313    21946549.768    90990258.97806
      3253.688  
  22607434.064   120934521.47104     -3432.484    22607437.578    94060197.34005
     -2669.715  
 20 09 28 09 24 25.0000000  0 15G20G24G25G21G11G32G12G10R 3R 4R 2R13
                                R12R14R19
  21309782.040   111983648.04249     -2725.770    21309781.686    87259979.45347
     -2123.980  
  21574155.943   113372964.78048     -2461.401    21574158.014    88342582.66547
     -1917.979  
  24457232.485   128523630.82746      3691.421    24457238.281   100148301.80845
      2876.434  
  23024082.795   120992379.93948      -222.315    23024081.868    94279779.12445
      -173.233  
  23897607.403   125582769.86145        17.750    23897607.861    97856706.97944
        13.824  
  21455129.982   112747506.47349      2172.651    21455132.434    87855224.22147
      1692.977  
  23301853.578   122452080.41148      2798.563    23301854.524    95417200.96646
      2180.703  
  20390294.294   107151727.41949      -224.804    20390296.280    83494862.01748
      -175.172  
  19671649.144   105303881.00109     -1229.901    19671651.559    81903032.29708
      -956.535  
  20190749.235   108120541.04709      2230.730    20190751.511    84093783.57207
      1735.011  
  23091131.805   123218691.68206     -3477.104    23091138.967    95836792.55706
     -2704.418  
  19861103.478   106057183.65806       734.030    19861107.769    82488942.32006
       570.913  
  21970342.860   117361622.91007     -3211.120    21970347.750    91281286.31606
     -2497.542  
  21942620.567   116966515.18107      4182.207    21942626.306    90973992.64406
      3252.827  
  22610642.969   120951687.10304     -3433.715    22610646.565    94073548.38805
     -2670.671  
 20 09 28 09 24 30.0000000  0 15G20G24G25G21G11G32G12G10R 3R 4R 2R13
                                R12R14R19
  21312376.442   111997281.77748     -2727.934    21312376.123    87270603.14546
     -2125.664  
  21576498.802   113385276.61548     -2463.578    21576500.931    88352176.30147
     -1919.671  
  24453720.440   128505174.93946      3690.828    24453726.188   100133920.59645
      2875.964  
  23024295.358   120993497.02548      -224.776    23024294.417    94280649.57146
      -175.155  
  23897592.338   125582689.72244        14.215    23897592.814    97856644.52244
        11.073  
  21453063.217   112736645.58149      2171.367    21453065.661    87846761.19348
      1691.972  
  23299191.723   122438092.17648      2796.593    23299192.569    95406301.08045
      2179.167  
  20390509.341   107152857.62049      -227.644    20390511.350    83495742.69648
      -177.391  
  19672798.834   105310035.54009     -1232.308    19672801.271    81907819.15708
      -958.430  
  20188666.988   108109390.61508      2229.164    20188669.195    84085111.01907
      1733.793  
  23094390.162   123236079.21305     -3478.417    23094397.501    95850316.18306
     -2705.441  
  19860417.979   106053523.22505       729.772    19860422.310    82486095.31406
       567.598  
  21973349.549   117377683.91907     -3213.538    21973354.321    91293778.21006
     -2499.421  
  21938698.455   116945608.36207      4180.320    21938704.206    90957731.80107
      3251.358  
  22613853.965   120968863.57804     -3437.437    22613857.568    94086907.85906
     -2673.566  
 20 09 28 09 24 35.0000000  0 15G20G24G25G21G11G32G12G10R 3R 4R 2R13
                                R12R14R19
  21314972.942   112010926.69648     -2730.237    21314972.689    87281235.55646
     -2127.457  
  21578843.917   113397600.24848     -2466.047    21578846.102    88361779.13347
     -1921.597  
  24450208.744   128486720.75647      3690.367    24450214.468   100119540.74844
      2875.613  
  23024510.555   120994627.95948      -227.766    23024509.696    94281530.82145
      -177.484  
  23897580.589   125582626.67345        10.859    23897580.883    97856595.38342
         8.456  
  21450997.842   112725792.02949      2169.793    21451000.268    87838303.87947
      1690.742  
  23296531.815   122424114.20248      2794.534    23296532.606    95395409.19646
      2177.563  
  20390727.223   107154002.75749      -230.773    20390729.278    83496635.00948
      -179.827  
  19673950.905   105316202.75809     -1234.961    19673953.352    81912615.88608
      -960.569  
  20186586.415   108098249.36408      2227.063    20186588.610    84076445.61307
      1732.159  
  23097649.415   123253471.36706     -3479.132    23097656.812    95863843.41006
     -2705.996  
  19859736.944   106049886.09705       724.507    19859741.171    82483266.44006
       563.508  
  21976359.031   117393759.68607     -3216.788    21976363.626    91306281.58606
     -2501.949  
  21934777.972   116924710.57907      4178.465    21934783.822    90941477.97706
      3249.917  
  22617067.271   120986052.69104     -3439.206    22617070.920    94100277.16206
     -2674.940  
 20 09 28 09 24 40.0000000  0 15G20G24G25G21G11G32G12G10R 3R 4R 2R13
                                R12R14R19
  21317571.928   112024584.61648     -2732.948    21317571.733    87291878.08447
     -2129.569  
  21581191.626   113409937.51348     -2469.015    21581193.821    88371392.58747
     -1923.914  
  24446697.745   128468270.24046      3689.402    24446703.547   100105163.71045
      2874.855  
  23024728.750   120995774.61048      -230.969    23024727.937    94282424.32446
      -179.976  
  23897572.174   125582582.41945         6.761    23897572.237    97856560.94745
         5.262  
  21448934.215   112714947.62749      2167.921    21448936.603    87829853.70447
      1689.289  
  23293874.239   122410148.32848      2791.816    23293874.928    95384526.72846
      2175.445  
  20390948.281   107155164.61049      -234.175    20390950.379    83497540.35048
      -182.480  
  19675105.718   105322384.62709     -1237.938    19675108.176    81917424.00408
      -962.844  
  20184507.887   108087119.12708      2224.831    20184510.073    84067788.76607
      1730.425  
  23100909.859   123270869.75605     -3480.776    23100917.275    95877375.47906
     -2707.273  
  19859060.504   106046274.07105       720.179    19859064.787    82480457.09706
       560.141  
  21979371.536   117409852.01007     -3219.917    21979375.990    91318797.82706
     -2504.383  
  21930859.558   116903823.50607      4176.245    21930865.486    90925232.48906
      3248.190  
  22620283.221   121003256.07404     -3442.468    22620286.914    94113657.55306
     -2677.480  
 20 09 28 09 24 45.0000000  0 15G20G24G25G21G11G32G12G10R 3R 4R 2R13
                                R12R14R19
  21320173.013   112038253.59948     -2734.797    21320172.862    87302529.24146
     -2131.015  
  21583541.565   113422286.55648     -2470.844    21583543.810    88381015.21447
     -1925.336  
  24443187.072   128449821.37447      3690.030    24443192.823   100090788.00844
      2875.352  
  23024949.591   120996935.04548      -233.304    23024948.761    94283328.56545
      -181.796  
  23897566.987   125582555.22345         3.805    23897567.389    97856539.75343
         2.964  
  21446871.945   112704110.48249      2166.874    21446874.310    87821409.17847
      1688.472  
  23291218.621   122396192.64548      2790.214    23291219.229    95373652.21346
      2174.202  
  20391172.153   107156341.28349      -236.589    20391174.308    83498457.24148
      -184.354  
  19676262.896   105328579.06009     -1239.761    19676265.378    81922241.89508
      -964.261  
  20182431.071   108075998.03008      2223.499    20182433.219    84059139.02707
      1729.390  
  23104171.187   123288272.82505     -3480.964    23104178.583    95890911.18006
     -2707.425  
  19858388.302   106042685.36105       715.527    19858392.738    82477665.88207
       556.520  
  21982386.799   117425958.84707     -3222.530    21982391.030    91331325.37605
     -2506.414  
  21926942.781   116882945.32107      4175.011    21926948.817    90908993.91307
      3247.230  
  22623501.420   121020471.89304     -3444.555    22623505.264    94127047.61906
     -2678.941  
 20 09 28 09 24 50.0000000  0 15G20G24G25G21G11G32G12G10R 3R 4R 2R13
                                R12R14R19
  21322776.107   112051933.20148     -2737.027    21322776.048    87313188.66147
     -2132.753  
  21585893.652   113434646.85748     -2473.229    21585895.920    88390646.61647
     -1927.194  
  24439676.683   128431373.83946      3689.207    24439682.283   100076413.30745
      2874.702  
  23025172.964   120998108.81348      -236.043    23025172.157    94284243.17746
      -183.933  
  23897565.076   125582544.55545         0.457    23897565.620    97856531.41344
         0.352  
  21444810.965   112693280.14749      2165.366    21444813.313    87812969.95547
      1687.301  
  23288564.887   122382246.71248      2788.383    23288565.407    95362785.28546
      2172.769  
  20391398.771   107157532.35949      -239.706    20391400.971    83499385.35649
      -186.784  
  19677422.366   105334785.63409     -1242.562    19677424.848    81927069.22908
      -966.441  
  20180355.905   108064885.61109      2221.483    20180358.003    84050496.04407
      1727.820  
  23107433.288   123305679.61305     -3481.616    23107440.581    95904449.77506
     -2707.930  
  19857720.534   106039119.36405       711.233    19857724.941    82474892.32806
       553.184  
  21985404.690   117442079.84707     -3225.539    21985408.707    91343863.94305
     -2508.754  
  21923027.595   116862075.58407      4172.871    21923033.746    90892761.90007
      3245.566  
  22626722.015   121037699.69105     -3446.887    22626725.830    94140447.00206
     -2680.913  
 20 09 28 09 24 55.0000000  0 15G20G24G25G21G11G32G12G10R 3R 4R 2R13
                                R12R14R19
  21325381.349   112065624.05848     -2739.141    21325381.332    87323856.86447
     -2134.397  
  21588247.956   113447018.90348     -2475.598    21588250.271    88400287.16647
     -1929.042  
  24436166.603   128412928.15446      3689.026    24436172.254   100062040.04544
      2874.565  
  23025398.980   120999296.47448      -238.800    23025398.193    94285168.63046
      -186.077  
  23897566.300   125582550.92545        -3.113    23897566.446    97856536.45344
        -2.410  
  21442751.364   112682457.18149      2163.913    21442753.712    87804536.48547
      1686.168  
  23285913.116   122368311.12148      2785.938    23285913.663    95351926.43146
      2170.867  
  20391628.244   107158738.37349      -242.695    20391630.475    83500325.10448
      -189.117  
  19678584.195   105341004.93609     -1245.058    19678586.695    81931906.46008
      -968.383  
  20178282.458   108053782.36609      2219.796    20178284.544    84041860.19107
      1726.507  
  23110696.274   123323091.15905     -3482.608    23110703.431    95917992.06606
     -2708.703  
  19857057.055   106035576.70306       706.046    19857061.476    82472136.92306
       549.144  
  21988425.383   117458215.50407     -3228.430    21988429.173    91356413.90706
     -2510.999  
  21919114.127   116841214.84307      4171.023    21919120.402    90876536.89007
      3244.128  
  22629944.935   121054940.01404     -3449.477    22629948.750    94153856.11406
     -2682.934  
 20 09 28 09 25  0.0000000  0 15G20G24G25G21G11G32G12G10R 3R 4R 2R13
                                R12R14R19
  21327988.521   112079324.99248     -2741.030    21327988.584    87334532.91047
     -2135.871  
  21590604.348   113459401.69948     -2477.445    21590606.654    88409936.09947
     -1930.480  
  24432656.647   128394483.27246      3688.973    24432662.266   100047667.45044
      2874.522  
  23025627.394   121000496.89348      -241.159    23025626.655    94286104.01945
      -187.921  
  23897570.614   125582573.22045        -5.797    23897571.401    97856553.77643
        -4.516  
  21440692.942   112671640.47449      2162.902    21440695.333    87796107.89448
      1685.378  
  23283263.078   122354384.73548      2784.507    23283263.554    95341074.73945
      2169.750  
  20391860.365   107159958.23849      -245.125    20391862.607    83501275.64948
      -191.007  
  19679748.207   105347235.95209     -1247.121    19679750.731    81936752.80608
      -969.988  
  20176210.549   108042687.29308      2218.332    20176212.613    84033230.70007
      1725.370  
  23113959.852   123340506.10805     -3483.121    23113966.926    95931537.00106
     -2709.102  
  19856397.680   106032056.21005       701.934    19856402.189    82469398.77306
       545.948  
  21991448.585   117474364.65407     -3230.805    21991452.253    91368974.36206
     -2512.847  
  21915202.120   116820361.96107      4169.944    21915208.541    90860317.99607
      3243.288  
  22633169.994   121072191.71505     -3451.694    22633173.776    94167274.08306
     -2684.660  
 20 09 28 09 25  5.0000000  0 15G20G24G25G21G11G32G12G10R 3R 4R 2R13
                                R12R14R19
  21330597.886   112093037.48748     -2744.016    21330598.053    87345217.96846
     -2138.199  
  21592963.079   113471796.72948     -2480.616    21592965.365    88419594.56347
     -1932.948  
  24429147.098   128376040.62447      3687.909    24429152.892   100033296.58745
      2873.703  
  23025858.531   121001711.61648      -244.804    23025857.899    94287050.55046
      -190.762  
  23897578.322   125582613.10345       -10.031    23897579.134    97856584.84541
        -7.819  
  21438636.020   112660831.58949      2160.574    21438638.444    87787685.40148
      1683.563  
  23280615.150   122340469.18848      2781.656    23280615.513    95330231.48446
      2167.527  
  20392095.426   107161193.49049      -249.015    20392097.661    83502238.18449
      -194.043  
  19680914.663   105353480.05309     -1250.573    19680917.227    81941609.32908
      -972.671  
  20174140.419   108031601.87208      2215.687    20174142.460    84024608.71507
      1723.312  
  23117224.261   123357925.81005     -3485.144    23117231.375    95945085.64706
     -2710.672  
  19855742.873   106028559.48505       696.722    19855747.334    82466679.09906
       541.894  
  21994474.654   117490528.93307     -3234.831    21994478.292    91381546.57606
     -2515.984  
  21911291.953   116799518.63307      4167.526    21911298.499    90844106.52007
      3241.409  
  22636397.475   121089456.34204     -3454.765    22636401.211    94180702.10806
     -2687.042  
 20 09 28 09 25 10.0000000  0 15G20G24G25G21G11G32G12G10R 3R 4R 2R13
                                R12R14R19
  21333209.355   112106760.97749     -2745.683    21333209.591    87355911.58947
     -2139.496  
  21595324.025   113484203.26748     -2482.452    21595326.222    88429262.00247
     -1934.382  
  24425637.886   128357599.74546      3688.047    24425643.617   100018927.03746
      2873.801  
  23026092.291   121002940.03748      -247.046    23026091.708    94288007.77246
      -192.504  
  23897589.216   125582669.82045       -12.688    23897589.494    97856629.05043
        -9.891  
  21436580.501   112650029.88849      2159.668    21436582.918    87779268.48848
      1682.858  
  23277969.119   122326563.82448      2780.277    23277969.471    95319396.16746
      2166.453  
  20392333.311   107162443.49249      -251.448    20392335.521    83503212.21249
      -195.937  
  19682083.502   105359736.72109     -1252.468    19682086.033    81946475.62708
      -974.140  
  20172071.971   108020525.52109      2214.476    20172074.000    84015993.77507
      1722.371  
  23120489.572   123375349.82205     -3485.011    23120496.539    95958637.63305
     -2710.573  
  19855092.445   106025085.89005       692.129    19855096.819    82463977.41606
       538.323  
  21997503.268   117506707.53107     -3237.062    21997507.043    91394129.93306
     -2517.715  
  21907383.368   116778684.20507      4166.187    21907390.113    90827901.97007
      3240.367  
  22639627.319   121106733.07904     -3457.370    22639630.948    94194139.55006
     -2689.073  
 20 09 28 09 25 15.0000000  0 15G20G24G25G21G11G32G12G10R 3R 4R 2R13
                                R12R14R19
  21335822.848   112120495.06549     -2747.940    21335823.129    87366613.46647
     -2141.258  
  21597687.121   113496621.11248     -2484.957    21597689.265    88438938.23847
     -1936.336  
  24422128.971   128339160.27546      3687.633    24422134.628   100004558.65445
      2873.479  
  23026328.552   121004181.78248      -249.922    23026328.063    94288975.35746
      -194.750  
  23897603.306   125582743.11345       -16.319    23897603.952    97856686.16143
       -12.718  
  21434526.316   112639235.07449      2158.020    21434528.718    87770856.94748
      1681.573  
  23275324.982   122312668.35748      2777.547    23275325.357    95308568.55745
      2164.324  
  20392573.953   107163707.94949      -254.613    20392576.147    83504197.50549
      -198.397  
  19683254.599   105366005.56809     -1255.223    19683257.115    81951351.40408
      -976.284  
  20170005.148   108009457.89909      2212.395    20170007.185    84007385.62607
      1720.750  
  23123755.631   123392777.98305     -3485.973    23123762.453    95972192.85605
     -2711.315  
  19854446.152   106021635.09505       687.129    19854450.552    82461293.46506
       534.434  
  22000534.521   117522900.22007     -3240.140    22000538.407    91406724.24206
     -2520.113  
  21903476.414   116757858.28307      4164.059    21903483.322    90811704.03707
      3238.711  
  22642859.228   121124021.80104     -3459.410    22642862.925    94207586.31406
     -2690.659  
 20 09 28 09 25 20.0000000  0 15G20G24G25G21G11G32G12G10R 3R 4R 2R13
                                R12R14R19
  21338438.747   112134241.70949     -2750.120    21338439.048    87377325.12347
     -2142.956  
  21600052.708   113509052.04248     -2486.874    21600054.786    88448624.68247
     -1937.828  
  24418620.652   128320724.14946      3687.030    24418626.380    99990192.84246
      2873.012  
  23026567.754   121005438.86148      -252.473    23026567.285    94289954.89947
      -196.734  
  23897620.932   125582834.92445       -19.922    23897621.737    97856757.70544
       -15.520  
  21432473.811   112628449.05349      2156.797    21432476.222    87762452.25748
      1680.620  
  23272683.035   122298784.64348      2776.105    23272683.410    95297750.10246
      2163.203  
  20392817.713   107164988.76249      -257.391    20392819.878    83505195.54249
      -200.566  
  19684428.357   105372288.59909     -1257.555    19684430.829    81956238.19808
      -978.102  
  20167940.350   107998401.06509      2210.707    20167942.400    83998785.86907
      1719.437  
  23127022.878   123410212.19905     -3486.847    23127029.569    95985752.78705
     -2711.995  
  19853804.694   106018209.15105       682.922    19853808.967    82458628.84306
       531.160  
  22003568.775   117539109.03307     -3242.930    22003572.760    91419331.09206
     -2522.280  
  21899571.450   116737042.97507      4162.313    21899578.515    90795514.35607
      3237.354  
  22646093.674   121141324.28204     -3460.866    22646097.505    94221043.78406
     -2691.789  
 20 09 28 09 25 25.0000000  0 15G20G24G25G21G11G32G12G10R 3R 4R 2R13
                                R12R14R19
  21341056.238   112147996.68449     -2751.894    21341056.530    87388043.27447
     -2144.336  
  21602420.012   113521491.93248     -2488.851    21602421.981    88458318.10447
     -1939.363  
  24415112.189   128302287.17846      3687.523    24415117.996    99975826.37945
      2873.391  
  23026809.059   121006707.08448      -254.851    23026808.665    94290943.12146
      -198.590  
  23897641.186   125582941.01645       -22.723    23897641.690    97856840.34744
       -17.711  
  21430422.173   112617667.65749      2155.738    21430424.630    87754051.17648
      1679.796  
  23270042.493   122284908.56048      2774.390    23270042.912    95286937.57646
      2161.863  
  20393063.790   107166281.77949      -259.948    20393065.952    83506203.08249
      -202.562  
  19685603.928   105378581.55109     -1259.620    19685606.403    81961132.70908
      -979.710  
  20165876.747   107987350.65909      2209.426    20165878.792    83990191.10707
      1718.438  
  23130290.209   123427648.02305     -3487.383    23130296.871    95999313.96005
     -2712.418  
  19853166.911   106014803.77305       678.706    19853171.259    82455980.22206
       527.883  
  22006605.217   117555329.50707     -3245.211    22006609.266    91431947.01006
     -2524.059  
  21895667.704   116716233.93407      4161.120    21895674.831    90779329.55207
      3236.422  
  22649329.877   121158636.38204     -3463.558    22649333.855    94234508.74306
     -2693.883  
 20 09 28 09 25 30.0000000  0 15G20G24G25G21G11G32G12G10R 3R 4R 2R13
                                R12R14R19
  21343675.711   112161762.01749     -2754.672    21343675.992    87398769.50347
     -2146.499  
  21604789.387   113533942.76848     -2491.984    21604791.260    88468020.06347
     -1941.804  
  24411603.979   128283851.38146      3686.430    24411609.739    99961460.84046
      2872.543  
  23027052.849   121007988.39748      -258.269    23027052.516    94291941.55746
      -201.249  
  23897664.562   125583063.39045       -26.746    23897665.012    97856935.72343
       -20.844  
  21428371.801   112606892.88149      2153.565    21428374.312    87745655.24548
      1678.104  
  23267403.798   122271042.19048      2771.573    23267404.261    95276132.64746
      2159.672  
  20393312.561   107167588.95749      -263.456    20393314.715    83507221.66249
      -205.293  
  19686781.738   105384886.46209     -1262.898    19686784.198    81966036.52608
      -982.257  
  20163814.745   107976308.79309      2206.858    20163816.779    83981602.99207
      1716.444  
  23133558.371   123445087.53105     -3489.133    23133564.966    96012878.01905
     -2713.772  
  19852533.315   106011420.84205       673.895    19852537.768    82453349.05906
       523.945  
  22009644.168   117571563.75607     -3248.879    22009648.332    91444573.63306
     -2526.910  
  21891765.550   116695433.29007      4158.632    21891772.715    90763151.28307
      3234.491  
  22652568.318   121175960.01304     -3465.805    22652572.362    94247982.67406
     -2695.629  
 20 09 28 09 25 35.0000000  0 15G20G24G25G21G11G32G12G10R 3R 4R 2R13
                                R12R14R19
  21346298.059   112175542.39449     -2757.093    21346298.294    87409507.45546
     -2148.386  
  21607161.729   113546409.16548     -2494.355    21607163.521    88477734.13847
     -1943.652  
  24408096.848   128265421.49946      3686.000    24408102.600    99947099.91045
      2872.207  
  23027300.033   121009287.51248      -261.136    23027299.776    94292953.85646
      -203.483  
  23897691.940   125583206.76445       -29.843    23897692.122    97857047.44943
       -23.257  
  21426323.592   112596129.43549      2152.055    21426326.173    87737268.14848
      1676.925  
  23264767.772   122257190.21647      2769.585    23264768.284    95265338.92246
      2158.116  
  20393564.932   107168915.04649      -266.703    20393567.070    83508254.98149
      -207.819  
  19687962.663   105391208.01409     -1265.507    19687965.125    81970953.28908
      -984.288  
  20161755.269   107965280.27009      2204.863    20161757.244    83973025.25707
      1714.895  
  23136828.148   123462535.53105     -3489.894    23136834.651    96026448.67605
     -2714.366  
  19851904.927   106008065.19005       669.094    19851909.393    82450739.11007
       520.406  
  22012686.581   117587816.47007     -3251.781    22012690.848    91457214.61606
     -2529.172  
  21887865.851   116674645.76207      4156.960    21887873.015    90746983.21607
      3233.191  
  22655809.779   121193300.07804     -3470.043    22655813.922    94261469.37305
     -2698.926  
 20 09 28 09 25 40.0000000  0 15G20G24G25G21G11G32G12G10R 3R 4R 2R13
                                R12R14R19
  21348922.421   112189333.19649     -2759.167    21348922.581    87420253.53347
     -2150.004  
  21609536.123   113558886.53748     -2496.573    21609537.926    88487456.77347
     -1945.383  
  24404589.942   128246992.92746      3685.648    24404595.762    99932739.99345
      2871.934  
  23027549.711   121010599.79648      -263.785    23027549.525    94293976.41246
      -205.551  
  23897722.389   125583366.58445       -33.573    23897722.659    97857171.99545
       -26.155  
  21424276.659   112585372.66749      2150.602    21424279.306    87728886.25548
      1675.789  
  23262133.521   122243348.00747      2767.328    23262134.185    95254552.78746
      2156.358  
  20393820.006   107170255.37749      -269.522    20393822.142    83509299.39649
      -210.022  
  19689145.855   105397541.61209     -1268.105    19689148.300    81975879.41508
      -986.309  
  20159697.386   107954260.30509      2203.094    20159699.307    83964454.17607
      1713.516  
  23140098.567   123479987.27105     -3490.714    23140105.004    96040022.22805
     -2715.007  
  19851280.821   106004732.27905       664.070    19851285.275    82448146.84306
       516.496  
  22015731.691   117604083.02307     -3254.737    22015735.941    91469866.37106
     -2531.468  
  21883967.780   116653866.72407      4154.773    21883974.909    90730821.75507
      3231.492  
  22659053.518   121210651.70904     -3471.421    22659057.664    94274965.08605
     -2700.000  
 20 09 28 09 25 45.0000000  0 15G20G24G25G21G11G32G12G10R 3R 4R 2R13
                                R12R14R19
  21351548.720   112203134.11449     -2761.203    21351548.824    87431007.49847
     -2151.589  
  21611912.548   113571374.57548     -2498.815    21611914.366    88497187.71147
     -1947.128  
  24401083.280   128228565.32946      3685.469    24401089.158    99918380.82046
      2871.788  
  23027801.865   121011925.06248      -266.391    23027801.678    94295009.09546
      -207.578  
  23897755.879   125583542.48545       -36.991    23897756.643    97857309.09043
       -28.824  
  21422230.961   112574622.35749      2149.374    21422233.660    87720509.39648
      1674.836  
  23259501.108   122229515.30547      2765.593    23259501.892    95243774.08247
      2155.012  
  20394077.741   107171609.72349      -272.347    20394079.880    83510354.72949
      -212.222  
  19690331.228   105403886.93909     -1270.309    19690333.668    81980814.67008
      -988.023  
  20157641.088   107943248.70409      2201.366    20157642.945    83955889.59707
      1712.176  
  23143369.685   123497442.48705     -3491.648    23143376.117    96053598.50106
     -2715.730  
  19850660.836   106001421.65805       660.477    19850665.339    82445571.91206
       513.698  
  22018779.341   117620363.02207     -3257.281    22018783.507    91482528.58606
     -2533.445  
  21880071.210   116633095.90907      4153.159    21880078.337    90714666.69107
      3230.233  
  22662299.282   121228014.67104     -3473.785    22662303.507    94288469.60405
     -2701.836  
 20 09 28 09 25 50.0000000  0 15G20G24G25G21G11G32G12G10R 3R 4R 2R13
                                R12R14R19
  21354176.933   112216945.18449     -2763.152    21354176.983    87441769.37046
     -2153.108  
  21614291.027   113583873.44448     -2500.999    21614292.890    88506927.08647
     -1948.835  
  24397576.821   128210138.88646      3685.773    24397582.587    99904022.55845
      2872.027  
  23028056.488   121013263.24248      -268.726    23028056.274    94296051.84245
      -209.398  
  23897792.417   125583734.46145       -39.925    23897793.273    97857458.61743
       -31.124  
  21420186.500   112563878.52149      2148.176    21420189.238    87712137.58148
      1673.902  
  23256870.535   122215692.20647      2763.566    23256871.446    95233002.87746
      2153.434  
  20394338.145   107172978.12049      -275.101    20394340.285    83511421.01149
      -214.367  
  19691518.805   105410244.04009     -1272.503    19691521.227    81985759.07708
      -989.729  
  20155586.325   107932245.47709      2199.664    20155588.170    83947331.53207
      1710.851  
  23146641.516   123514901.23406     -3492.405    23146647.995    96067177.50905
     -2716.319  
  19850045.164   105998133.53605       655.757    19850049.587    82443014.48206
       510.030  
  22021829.550   117636656.59807     -3259.965    22021833.573    91495201.38005
     -2535.531  
  21876176.240   116612333.30907      4151.702    21876183.314    90698518.01207
      3229.102  
  22665547.310   121245388.90104     -3475.707    22665551.449    94301982.88505
     -2703.332  
 20 09 28 09 25 55.0000000  0 15G20G24G25G21G11G32G12G10R 3R 4R 2R13
                                R12R14R19
  21356807.367   112230767.95749     -2765.823    21356807.406    87452540.35347
     -2155.191  
  21616671.883   113596384.58248     -2503.511    21616673.756    88516676.02147
     -1950.792  
  24394070.875   128191715.01246      3684.293    24394076.579    99889666.32445
      2870.882  
  23028313.867   121014615.87048      -271.956    23028313.570    94297105.83146
      -211.918  
  23897832.280   125583944.22045       -43.632    23897832.953    97857622.12844
       -34.008  
  21418143.565   112553142.69749      2146.320    21418146.335    87703772.01448
      1672.457  
  23254242.076   122201880.21747      2760.902    23254243.139    95222240.30546
      2151.355  
  20394601.496   107174362.07549      -278.477    20394603.651    83512499.41949
      -216.995  
  19692708.894   105416614.52309     -1275.573    19692711.271    81990713.89408
      -992.117  
  20153533.393   107921252.18508      2197.641    20153535.306    83938781.20708
      1709.276  
  23149914.438   123532365.29706     -3493.414    23149920.877    96080760.65106
     -2717.105  
  19849433.836   105994869.42305       650.214    19849438.346    82440475.73006
       505.719  
  22024882.564   117652965.18807     -3263.238    22024886.471    91507885.84305
     -2538.074  
  21872283.111   116591580.58507      4149.543    21872290.136    90682377.01807
      3227.422  
  22668797.699   121262776.07204     -3479.140    22668801.818    94315506.23405
     -2706.004  
 20 09 28 09 26  0.0000000  0 15G20G24G25G21G11G32G12G10R 3R 4R 2R13
                                R12R14R19
  21359439.917   112244601.85449     -2767.980    21359439.920    87463319.99747
     -2156.871  
  21619054.962   113608907.49948     -2505.898    21619056.848    88526434.13447
     -1952.651  
  24390565.358   128173293.37045      3684.167    24390571.091    99875311.78145
      2870.776  
  23028573.910   121015982.40748      -274.668    23028573.509    94298170.67646
      -214.026  
  23897875.408   125584171.05044       -47.187    23897876.280    97857798.82843
       -36.772  
  21416102.049   112542414.36749      2144.937    21416104.826    87695412.28148
      1671.378  
  23251615.660   122188078.84047      2759.063    23251616.872    95211486.02246
      2149.922  
  20394867.719   107175761.08249      -281.386    20394869.867    83513589.56149
      -219.262  
  19693901.275   105422997.74308     -1278.031    19693903.703    81995678.62208
      -994.022  
  20151482.253   107910268.35709      2195.703    20151484.223    83930238.23508
      1707.769  
  23153188.110   123549833.54906     -3493.977    23153194.582    96094347.05506
     -2717.543  
  19848826.894   105991628.53905       645.730    19848831.412    82437955.05206
       502.234  
  22027938.280   117669288.21307     -3265.983    22027942.126    91520581.54205
     -2540.211  
  21868391.736   116570837.17607      4147.777    21868398.736    90666243.26707
      3226.051  
  22672050.481   121280175.44604     -3480.991    22672054.461    94329039.07505
     -2707.440  
 20 09 28 09 26  5.0000000  0 15G20G24G25G21G11G32G12G10R 3R 4R 2R13
                                R12R14R19
  21362074.502   112258446.50349     -2769.585    21362074.527    87474108.02147
     -2158.121  
  21621440.223   113621441.85048     -2507.746    21621442.080    88536201.16847
     -1954.085  
  24387060.213   128154873.39446      3684.042    24387065.859    99860958.59545
      2870.688  
  23028836.554   121017362.48648      -276.988    23028836.101    94299246.06846
      -215.835  
  23897921.676   125584414.69144       -49.621    23897922.946    97857988.76145
       -38.651  
  21414061.894   112531693.15549      2143.745    21414064.671    87687058.09448
      1670.452  
  23248991.198   122174287.69948      2757.234    23248992.458    95200739.70446
      2148.500  
  20395136.738   107177174.75949      -283.918    20395138.865    83514691.12449
      -221.234  
  19695095.965   105429393.41808     -1279.956    19695098.469    82000653.03808
      -995.526  
  20149432.769   107899293.58809      2194.371    20149434.822    83921702.30508
      1706.733  
  23156462.589   123567306.23206     -3494.351    23156469.091    96107936.89006
     -2717.836  
  19848224.305   105988410.81405       641.688    19848228.791    82435452.37906
       499.090  
  22030996.654   117685625.43607     -3268.835    22031000.513    91533288.28006
     -2542.429  
  21864502.022   116550102.78007      4146.315    21864509.019    90650116.52507
      3224.914  
  22675305.545   121297586.72104     -3482.749    22675309.367    94342581.17305
     -2708.808  
 20 09 28 09 26 10.0000000  0 15G20G24G25G21G11G32G12G10R 3R 4R 2R13
                                R12R14R19
  21364710.875   112272300.48849     -2772.371    21364710.888    87484903.32447
     -2160.293  
  21623827.348   113633986.05448     -2510.379    21623829.163    88545975.87347
     -1956.141  
  24383555.064   128136453.77446      3683.195    24383560.608    99846605.64645
      2870.023  
  23029101.505   121018754.68648      -280.355    23029101.011    94300330.89646
      -218.460  
  23897970.834   125584673.54644       -53.644    23897972.060    97858190.43944
       -41.804  
  21412022.814   112520977.65549      2141.749    21412025.580    87678708.35948
      1668.895  
  23246368.446   122160505.38448      2755.008    23246369.791    95190000.26146
      2146.761  
  20395408.288   107178601.70249      -287.367    20395410.373    83515803.02949
      -223.922  
  19696292.708   105435800.05508     -1283.020    19696295.297    82005635.97308
      -997.906  
  20147384.709   107888326.38508      2191.918    20147386.851    83913172.26608
      1704.824  
  23159737.535   123584781.47406     -3495.836    23159744.063    96121528.74006
     -2718.987  
  19847625.679   105985214.80605       636.230    19847630.193    82432966.60006
       494.847  
  22034057.351   117701975.25607     -3271.882    22034061.284    91546004.79506
     -2544.800  
  21860613.778   116529375.94307      4144.012    21860620.744    90633995.67107
      3223.120  
  22678562.333   121315008.40304     -3486.546    22678566.225    94356131.36505
     -2711.761  
 20 09 28 09 26 15.0000000  0 15G20G24G25G21G11G32G12G10R 3R 4R 2R13
                                R12R14R19
  21367349.270   112286165.03349     -2773.613    21367349.259    87495706.85347
     -2161.261  
  21626216.551   113646541.30648     -2511.910    21626218.363    88555759.18447
     -1957.332  
  24380050.264   128118035.79846      3684.522    24380055.656    99832253.98845
      2871.059  
  23029368.987   121020160.28448      -282.104    23029368.427    94301426.16745
      -219.827  
  23898023.259   125584949.07345       -56.340    23898024.455    97858405.14144
       -43.906  
  21409985.061   112510269.09449      2141.483    21409987.787    87670364.03148
      1668.687  
  23243747.645   122146733.17348      2753.749    23243749.043    95179268.70246
      2145.780  
  20395682.592   107180043.14549      -289.414    20395684.631    83516926.22948
      -225.520  
  19697491.700   105442218.85508     -1284.426    19697494.420    82010628.37108
      -998.996  
  20145338.286   107877368.09908      2191.046    20145340.551    83904649.15408
      1704.145  
  23163013.182   123602260.82806     -3495.902    23163019.731    96135123.79006
     -2719.039  
  19847031.452   105982041.66705       632.624    19847035.877    82430498.60806
       492.042  
  22037120.682   117718338.98607     -3273.645    22037124.661    91558732.14206
     -2546.171  
  21856727.158   116508657.87908      4143.136    21856734.113    90617881.63107
      3222.440  
  22681821.245   121332441.82004     -3487.202    22681825.293    94369690.68605
     -2712.272  
 20 09 28 09 26 20.0000000  0 15G20G24G25G21G11G32G12G10R 3R 4R 2R13
                                R12R14R19
  21369989.846   112300041.16749     -2776.909    21369989.843    87506519.41947
     -2163.828  
  21628608.062   113659108.74948     -2515.152    21628609.899    88565552.00047
     -1959.862  
  24376545.957   128099620.44847      3682.647    24376551.212    99817904.37645
      2869.602  
  23029639.192   121021580.25248      -285.852    23029638.608    94302532.63846
      -222.745  
  23898078.992   125585242.10645       -60.956    23898080.650    97858633.53444
       -47.491  
  21407948.814   112499568.51749      2138.874    21407951.515    87662025.92948
      1666.655  
  23241128.982   122132972.06548      2750.703    23241130.434    95168545.78246
      2143.409  
  20395959.850   107181500.11449      -293.351    20395961.852    83518061.52848
      -228.586  
  19698693.211   105448651.01008     -1288.104    19698696.045    82015631.15808
     -1001.858  
  20143293.724   107866419.78508      2188.183    20143296.128    83896133.80008
      1701.922  
  23166289.730   123619745.27406     -3497.738    23166296.343    96148722.78906
     -2720.469  
  19846441.729   105978892.51705       626.992    19846446.037    82428049.26906
       487.656  
  22040186.876   117734717.66907     -3277.785    22040190.801    91571471.12306
     -2549.390  
  21852842.381   116487949.61807      4140.332    21852849.313    90601775.21707
      3220.257  
  22685082.451   121349887.98104     -3491.844    22685086.726    94383259.90905
     -2715.883  
 20 09 28 09 26 25.0000000  0 15G20G24G25G21G11G32G12G10R 3R 4R 2R13
                                R12R14R19
  21372632.608   112313928.91249     -2778.546    21372632.646    87517341.03647
     -2165.104  
  21631001.879   113671688.44048     -2517.022    21631003.742    88575354.35747
     -1961.320  
  24373042.170   128081207.79746      3682.226    24373047.248    99803556.85145
      2869.266  
  23029912.121   121023014.62748      -288.136    23029911.544    94303650.32846
      -224.527  
  23898138.091   125585552.79945       -63.374    23898139.621    97858875.63344
       -49.378  
  21405914.080   112488875.97749      2137.863    21405916.763    87653694.08548
      1665.866  
  23238512.461   122119222.19048      2749.039    23238513.911    95157831.61846
      2142.112  
  20396240.078   107182972.65949      -295.858    20396242.030    83519208.96648
      -230.539  
  19699897.229   105455096.49508     -1290.324    19699900.162    82020644.32008
     -1003.585  
  20141251.070   107855481.40309      2186.776    20141253.547    83887626.17808
      1700.828  
  23169567.070   123637234.35205     -3497.913    23169573.821    96162325.41606
     -2720.605  
  19845856.446   105975767.42005       622.706    19845860.725    82425618.64206
       484.323  
  22043255.823   117751111.27707     -3280.093    22043259.705    91584221.71206
     -2551.184  
  21848959.463   116467251.44307      4138.914    21848966.435    90585676.64107
      3219.155  
  22688346.086   121367346.72804     -3492.141    22688350.476    94396838.93106
     -2716.112  
 20 09 28 09 26 30.0000000  0 15G20G24G25G21G11G32G12G10R 3R 4R 2R13
                                R12R14R19
  21375277.179   112327826.22548     -2780.382    21375277.270    87528170.11046
     -2166.535  
  21633397.601   113684278.16848     -2518.894    21633399.495    88585164.53447
     -1962.772  
  24369538.480   128062795.84546      3682.663    24369543.604    99789209.89345
      2869.608  
  23030187.431   121024461.39348      -290.604    23030186.784    94304777.67446
      -226.449  
  23898200.101   125585879.10444       -67.020    23898201.678    97859129.84045
       -52.229  
  21403880.468   112478189.39849      2136.776    21403883.130    87645366.88648
      1665.020  
  23235897.687   122105481.48748      2747.104    23235899.121    95147124.58746
      2140.602  
  20396522.862   107184458.73049      -298.659    20396524.774    83520366.94348
      -232.726  
  19701103.350   105461553.26908     -1292.491    19701106.380    82025666.25708
     -1005.284  
  20139209.881   107844550.98909      2185.335    20139212.429    83879124.74308
      1699.703  
  23172845.005   123654726.78905     -3498.801    23172851.932    96175930.63906
     -2721.292  
  19845275.331   105972664.17505       618.335    19845279.542    82423205.01106
       480.930  
  22046327.060   117767517.62007     -3282.441    22046330.999    91596982.20006
     -2553.015  
  21845077.993   116446561.08907      4137.347    21845085.023    90569584.14607
      3217.938  
  22691611.489   121384816.08904     -3495.151    22691616.194    94410426.20305
     -2718.457  
 20 09 28 09 26 35.0000000  0 15G20G24G25G21G11G32G12G10R 3R 4R 2R13
                                R12R14R19
  21377924.030   112341735.55649     -2782.746    21377924.163    87539008.53746
     -2168.379  
  21635795.704   113696880.59548     -2521.589    21635797.665    88594984.60647
     -1964.879  
  24366035.416   128044387.02746      3681.539    24366040.375    99774865.38045
      2868.730  
  23030465.563   121025922.98648      -293.625    23030464.907    94305916.57146
      -228.801  
  23898265.470   125586223.43244       -70.504    23898267.098    97859398.19544
       -54.938  
  21401848.456   112467511.25949      2134.973    21401851.088    87637046.26647
      1663.613  
  23233285.120   122091752.41848      2744.831    23233286.587    95136426.63546
      2138.835  
  20396808.687   107185960.78249      -301.836    20396810.582    83521537.37048
      -235.199  
  19702312.076   105468023.76709     -1295.366    19702315.154    82030698.86708
     -1007.511  
  20137170.633   107833630.97009      2183.180    20137173.223    83870631.39508
      1698.026  
  23176123.879   123672224.33005     -3499.749    23176130.984    96189539.85706
     -2722.026  
  19844698.641   105969585.27605       613.676    19844702.928    82420810.31906
       477.305  
  22049401.241   117783939.30907     -3285.727    22049405.188    91609754.62006
     -2555.569  
  21841198.475   116425881.13507      4135.207    21841205.542    90553499.74907
      3216.273  
  22694879.610   121402298.67704     -3497.116    22694884.362    94424023.76206
     -2719.983  
 20 09 28 09 26 40.0000000  0 15G20G24G25G21G11G32G12G10R 3R 4R 2R13
                                R12R14R19
  21380573.134   112355656.84349     -2785.315    21380573.327    87549856.29547
     -2170.378  
  21638196.167   113709495.42648     -2524.152    21638198.170    88604814.33647
     -1966.874  
  24362532.943   128025981.31546      3681.218    24362537.840    99760523.27345
      2868.479  
  23030746.519   121027399.38648      -296.694    23030745.826    94307067.01345
      -231.195  
  23898334.276   125586585.79345       -74.046    23898336.180    97859680.54145
       -57.698  
  21399818.040   112456841.50749      2133.151    21399820.633    87628732.17347
      1662.195  
  23230674.784   122078034.94748      2742.542    23230676.229    95125737.71846
      2137.051  
  20397097.537   107187478.76349      -305.054    20397099.421    83522720.21248
      -237.706  
  19703523.380   105474507.93809     -1298.086    19703526.481    82035742.10908
     -1009.620  
  20135133.344   107822721.28909      2180.918    20135135.940    83862146.08908
      1696.270  
  23179403.894   123689727.59006     -3501.065    23179411.163    96203153.50606
     -2723.051  
  19844126.698   105966530.69205       608.555    19844130.887    82418434.53306
       473.320  
  22052478.282   117800376.27807     -3288.844    22052482.276    91622538.93006
     -2557.992  
  21837320.916   116405211.53507      4132.972    21837328.009    90537423.39907
      3214.535  
  22698149.988   121419794.18004     -3500.065    22698154.921    94437631.36405
     -2722.277  
 20 09 28 09 26 45.0000000  0 15G20G24G25G21G11G32G12G10R 3R 4R 2R13
                                R12R14R19
  21383224.056   112369587.68949     -2787.062    21383224.309    87560711.49846
     -2171.742  
  21640598.568   113722120.41048     -2525.957    21640600.572    88614651.99047
     -1968.280  
  24359030.614   128007576.38946      3680.648    24359035.530    99746181.80344
      2868.038  
  23031029.861   121028888.20548      -298.816    23031029.171    94308227.13646
      -232.848  
  23898406.147   125586963.72745       -76.828    23898408.090    97859975.03444
       -59.866  
  21397788.777   112446177.78749      2132.233    21397791.313    87620422.79148
      1661.479  
  23228066.194   122064326.68648      2741.030    23228067.673    95115055.98846
      2135.871  
  20397388.968   107189010.33549      -307.563    20397390.847    83523913.64748
      -239.660  
  19704736.775   105481003.37009     -1300.180    19704739.912    82040794.11408
     -1011.249  
  20133097.529   107811819.65509      2179.679    20133100.168    83853667.04908
      1695.305  
  23182684.438   123707233.63806     -3501.437    23182691.762    96216769.30506
     -2723.343  
  19843558.789   105963497.99605       604.113    19843562.933    82416075.77906
       469.867  
  22055557.798   117816826.09507     -3291.117    22055561.800    91635333.23506
     -2559.762  
  21833444.801   116384549.87807      4131.367    21833451.961    90521353.23707
      3213.285  
  22701422.569   121437300.25104     -3501.897    22701427.418    94451247.18205
     -2723.702  
 20 09 28 09 26 50.0000000  0 15G20G24G25G21G11G32G12G10R 3R 4R 2R13
                                R12R14R19
  21385876.937   112383528.92348     -2789.354    21385877.236    87571574.79247
     -2173.526  
  21643003.034   113734756.27648     -2528.319    21643005.012    88624498.11547
     -1970.124  
  24355528.542   127989173.02946      3680.804    24355533.495    99731841.52345
      2868.160  
  23031315.700   121030390.26448      -301.710    23031315.021    94309397.58146
      -235.098  
  23898481.307   125587358.13546       -80.535    23898483.129    97860282.36844
       -62.753  
  21395760.836   112435520.91349      2130.640    21395763.287    87612118.73648
      1660.237  
  23225459.533   122050628.49348      2738.585    23225460.988    95104382.08446
      2133.964  
  20397683.133   107190556.28049      -310.621    20397685.000    83525118.28148
      -242.046  
  19705952.436   105487510.86509     -1302.699    19705955.598    82045855.50308
     -1013.214  
  20131063.369   107800926.85009      2177.531    20131066.068    83845194.87208
      1693.637  
  23185965.859   123724743.77406     -3502.108    23185973.183    96230388.29306
     -2723.866  
  19842995.076   105960488.01805       599.421    19842999.262    82413734.69106
       466.218  
  22058639.824   117833289.53707     -3294.022    22058643.890    91648138.14306
     -2562.020  
  21829570.388   116363897.10907      4129.637    21829577.564    90505289.98407
      3211.941  
  22704697.489   121454817.77204     -3504.940    22704702.041    94464871.91005
     -2726.069  
 20 09 28 09 26 55.0000000  0 14G20G24G25G21G11G32G12G10R 3R 4R 2R13
                                R12R14
  21388532.044   112397481.92048     -2791.160    21388532.410    87582447.25447
     -2174.933  
  21645409.852   113747404.40948     -2530.203    21645411.826    88634353.80247
     -1971.590  
  24352027.056   127970772.69147      3680.027    24352031.926    99717503.62245
      2867.554  
  23031604.309   121031906.91948      -304.265    23031603.670    94310579.39846
      -237.089  
  23898559.897   125587770.31346       -83.272    23898561.491    97860603.55743
       -64.887  
  21393734.455   112424872.27449      2129.296    21393736.866    87603821.09947
      1659.191  
  23222855.015   122036941.75348      2736.742    23222856.516    95093717.11046
      2132.527  
  20397980.294   107192117.99649      -313.292    20397982.155    83526335.20548
      -244.128  
  19707170.640   105494031.91209     -1304.983    19707173.807    82050927.42808
     -1014.991  
  20129031.127   107790044.25709      2176.109    20129033.851    83836730.63808
      1692.531  
  23189248.201   123742258.88606     -3502.897    23189255.510    96244011.14006
     -2724.479  
  19842435.914   105957502.19105       595.194    19842440.129    82411412.38606
       462.929  
  22061724.651   117849768.06807     -3296.726    22061728.811    91660954.77906
     -2564.121  
  21825697.888   116343254.53607      4128.179    21825705.050    90489234.65807
      3210.805  
 20 09 28 09 27  0.0000000  0 14G20G24G25G21G11G32G12G10R 3R 4R 2R13
                                R12R14
  21391188.740   112411443.23148     -2793.382    21391189.083    87593326.19947
     -2176.664  
  21647818.377   113760061.45048     -2532.621    21647820.380    88644216.42847
     -1973.477  
  24348525.489   127952371.83246      3679.973    24348530.399    99703165.29845
      2867.516  
  23031895.011   121033434.78448      -306.945    23031894.460    94311769.94446
      -239.179  
  23898641.266   125588196.87746       -87.104    23898642.442    97860935.88344
       -67.887  
  21391709.003   112414228.45049      2128.058    21391711.360    87595527.21048
      1658.227  
  23220252.053   122023263.09648      2734.538    23220253.622    95083058.44646
      2130.812  
  20398279.809   107193692.08349      -316.340    20398281.678    83527561.76548
      -246.504  
  19708390.695   105500563.02709     -1307.461    19708393.896    82056007.18308
     -1016.917  
  20127000.155   107779168.42909      2174.309    20127002.844    83828271.65808
      1691.129  
  23192530.802   123759775.81906     -3503.727    23192538.169    96257635.42206
     -2725.125  
  19841880.720   105954537.20205       590.695    19841884.927    82409106.28506
       459.430  
  22064811.592   117866258.01207     -3299.382    22064815.838    91673780.28906
     -2566.190  
  21821826.678   116322618.68307      4126.391    21821833.774    90473184.56107
      3209.413  
 20 09 28 09 27  5.0000000  0 14G20G24G25G21G11G32G12G10R 3R 4R 2R13
                                R12R14
  21393847.717   112425416.49948     -2795.750    21393848.047    87604214.46347
     -2178.507  
  21650229.268   113772730.92348     -2535.164    21650231.322    88654088.73947
     -1975.457  
  24345024.540   127933974.25646      3679.316    24345029.479    99688829.52145
      2866.995  
  23032188.544   121034977.49648      -310.172    23032188.068    94312972.06446
      -241.691  
  23898725.984   125588641.45046       -90.710    23898726.695    97861282.38544
       -70.671  
  21389685.165   112403593.08149      2126.316    21389687.501    87587239.91048
      1656.867  
  23217651.336   122009596.17248      2732.112    23217652.937    95072408.92046
      2128.922  
  20398582.360   107195282.15449      -319.546    20398584.229    83528800.78548
      -248.995  
  19709613.316   105507107.71709     -1310.371    19709616.515    82061097.49708
     -1019.179  
  20124971.125   107768303.03209      2172.062    20124973.749    83819820.80108
      1689.382  
  23195814.484   123777298.11006     -3504.690    23195821.783    96271263.85806
     -2725.874  
  19841330.033   105951596.53405       585.676    19841334.280    82406819.09806
       455.526  
  22067901.387   117882763.11307     -3302.602    22067905.674    91686617.59306
     -2568.691  
  21817957.449   116301993.45407      4123.969    21817964.498    90457142.72907
      3207.531  
 20 09 28 09 27 10.0000000  0 14G20G24G25G21G11G32G12G10R 3R 4R 2R13
                                R12R14
  21396508.776   112439400.80348     -2798.043    21396509.119    87615111.32447
     -2180.296  
  21652642.390   113785411.87048     -2537.519    21652644.487    88663969.99747
     -1977.293  
  24341524.096   127915579.04747      3678.508    24341528.882    99674495.63045
      2866.370  
  23032484.712   121036534.06248      -312.628    23032484.297    94314184.97846
      -243.605  
  23898813.906   125589103.13846       -94.425    23898814.271    97861642.08943
       -73.586  
  21387662.760   112392965.23849      2124.741    21387665.037    87578958.47648
      1655.645  
  23215052.684   121995940.03948      2729.890    23215054.283    95061767.80246
      2127.191  
  20398887.786   107196887.30449      -322.652    20398889.664    83530051.55348
      -251.421  
  19710838.348   105513665.38109     -1312.745    19710841.534    82066197.90308
     -1021.026  
  20122943.901   107757447.25109      2170.070    20122946.418    83811377.41108
      1687.828  
  23199099.067   123794824.90006     -3506.261    23199106.287    96284895.80106
     -2727.097  
  19840783.733   105948679.35205       580.641    19840788.031    82404550.18106
       451.605  
  22070993.878   117899282.52007     -3305.515    22070998.157    91699466.02206
     -2570.956  
  21814090.065   116281377.84107      4121.890    21814097.034    90441108.37307
      3205.913  
 20 09 28 09 27 15.0000000  0 14G20G24G25G21G11G32G12G10R 3R 4R 2R13
                                R12R14
  21399172.076   112453396.75748     -2800.230    21399172.427    87626017.25347
     -2182.000  
  21655057.830   113798105.09648     -2539.688    21655060.034    88673860.82247
     -1978.979  
  24338024.246   127897186.77146      3678.570    24338028.934    99660163.96045
      2866.418  
  23032783.632   121038105.17548      -315.460    23032783.347    94315409.22746
      -245.812  
  23898905.186   125589582.56845       -97.629    23898905.363    97862015.71845
       -76.078  
  21385641.913   112382345.58549      2123.343    21385644.149    87570683.43448
      1654.554  
  23212456.204   121982295.32348      2728.116    23212457.824    95051135.58046
      2125.808  
  20399196.208   107198508.16749      -325.612    20399198.089    83531314.56348
      -253.730  
  19712065.866   105520236.31909     -1315.270    19712069.011    82071308.63508
     -1022.988  
  20120918.573   107746601.61609      2168.340    20120920.998    83802941.92208
      1686.487  
  23202384.610   123812356.90606     -3506.507    23202391.744    96298531.79306
     -2727.289  
  19840241.811   105945786.20905       576.882    19840246.276    82402299.96006
       448.683  
  22074089.148   117915816.86407     -3308.332    22074093.466    91712326.06906
     -2573.148  
  21810224.549   116260772.37208      4120.063    21810231.494    90425081.89907
      3204.491  
 20 09 28 09 27 20.0000000  0 14G20G24G25G21G11G32G12G10R 3R 4R 2R13
                                R12R14
  21401837.166   112467402.05848     -2801.808    21401837.501    87636930.47246
     -2183.229  
  21657475.157   113810808.11248     -2541.328    21657477.423    88683759.28147
     -1980.254  
  24334524.458   127878795.19847      3678.656    24334529.075    99645832.87245
      2866.484  
  23033084.906   121039688.50548      -317.551    23033084.698    94316642.99045
      -247.445  
  23898999.268   125590077.37945      -100.215    23898999.367    97862401.27443
       -78.093  
  21383622.200   112371731.79549      2122.511    21383624.396    87562412.94748
      1653.901  
  23209861.465   121968659.81348      2726.379    23209863.113    95040510.51546
      2124.448  
  20399507.172   107200142.41849      -327.901    20399509.076    83532588.00548
      -255.507  
  19713295.482   105526818.45309     -1317.288    19713298.577    82076428.06708
     -1024.563  
  20118894.668   107735763.81809      2167.065    20118897.065    83794512.52908
      1685.495  
  23205670.718   123829891.39506     -3506.770    23205677.681    96312169.71406
     -2727.492  
  19839704.124   105942914.98705       571.961    19839708.596    82400066.78706
       444.854  
  22077186.756   117932363.66907     -3310.336    22077191.161    91725195.80706
     -2574.707  
  21806360.549   116240174.85608      4118.965    21806367.479    90409061.62607
      3203.641  
 20 09 28 09 27 25.0000000  0 14G20G24G25G21G11G32G12G10R 3R 4R 2R13
                                R12R14
  21404504.287   112481417.84249     -2804.750    21404504.567    87647851.84846
     -2185.523  
  21659894.586   113823522.19948     -2544.461    21659896.933    88693666.36347
     -1982.695  
  24331025.051   127860405.44147      3676.930    24331029.583    99631503.22545
      2865.140  
  23033388.691   121041285.18848      -321.265    23033388.538    94317887.16246
      -250.336  
  23899096.479   125590588.75545      -104.604    23899096.472    97862799.71844
       -81.508  
  21381603.803   112361125.01449      2120.180    21381605.979    87554147.92648
      1652.090  
  23207268.698   121955034.60548      2723.523    23207270.357    95029893.49046
      2122.227  
  20399820.917   107201791.21949      -331.738    20399822.826    83533872.78948
      -258.496  
  19714527.390   105533412.76509     -1320.574    19714530.434    82081556.97208
     -1027.117  
  20116872.469   107724935.03709      2164.280    20116874.853    83786090.15008
      1683.328  
  23208957.520   123847429.93406     -3508.590    23208964.329    96325810.77406
     -2728.909  
  19839170.690   105940066.63505       566.792    19839175.170    82397851.40806
       440.840  
  22080286.805   117948924.10407     -3314.055    22080291.426    91738076.13006
     -2577.601  
  21802498.220   116219586.40808      4116.253    21802505.156    90393048.39807
      3201.530  
 20 09 28 09 27 30.0000000  0 14G20G24G25G21G11G32G12G10R 3R 4R 2R13
                                R12R14
  21407173.821   112495446.39948     -2806.633    21407174.110    87658783.18346
     -2186.991  
  21662316.517   113836249.56348     -2546.530    21662318.976    88703583.78847
     -1984.313  
  24327526.460   127842019.81647      3676.715    24327530.919    99617176.75044
      2864.972  
  23033695.483   121042897.55048      -323.733    23033695.344    94319143.54746
      -252.262  
  23899197.329   125591118.97645      -107.554    23899197.064    97863212.87345
       -83.813  
  21379587.183   112350527.57449      2118.831    21379589.347    87545890.18748
      1651.038  
  23204678.311   121941422.09448      2721.171    23204679.997    95019286.33646
      2120.395  
  20400137.891   107203456.89849      -334.465    20400139.779    83535170.72248
      -260.620  
  19715761.979   105540021.68209     -1323.059    19715765.019    82086697.23508
     -1029.051  
  20114852.390   107714117.66609      2162.648    20114854.801    83777676.64308
      1682.059  
  23212245.443   123864974.73305     -3509.180    23212252.155    96339456.72106
     -2729.366  
  19838642.146   105937243.71005       562.315    19838646.499    82395655.80806
       437.355  
  22083389.855   117965500.54207     -3316.496    22083394.657    91750968.90306
     -2579.500  
  21798638.069   116199009.44208      4114.672    21798644.994    90377044.10007
      3200.301  
 20 09 28 09 27 35.0000000  0 14G20G24G25G21G11G32G12G10R 3R 4R 2R13
                                R12R14
  21409845.489   112509486.17248     -2808.999    21409845.772    87669723.25546
     -2188.835  
  21664740.677   113848988.61448     -2549.047    21664743.212    88713510.31647
     -1986.273  
  24324028.323   127823636.82346      3676.374    24324032.773    99602852.36545
      2864.711  
  23034004.995   121044524.04548      -326.812    23034004.862    94320410.93845
      -254.664  
  23899301.437   125591666.54045      -111.495    23899301.170    97863639.54645
       -86.883  
  21377572.041   112339937.93249      2117.133    21377574.207    87537638.52748
      1649.777  
  23202090.052   121927820.63848      2719.152    23202091.771    95008687.82446
      2118.820  
  20400457.780   107205137.89749      -337.715    20400459.654    83536480.58548
      -263.159  
  19716999.047   105546643.67709     -1325.867    19717002.055    82091847.67208
     -1031.234  
  20112834.149   107703310.14209      2160.546    20112836.572    83769270.79308
      1680.425  
  23215534.118   123882524.23005     -3510.194    23215540.830    96353106.31806
     -2730.155  
  19838117.959   105934444.33206       557.562    19838122.289    82393478.52006
       433.660  
  22086495.639   117982091.33507     -3319.640    22086500.538    91763872.84306
     -2581.945  
  21794779.808   116178442.39708      4112.401    21794786.696    90361047.52807
      3198.534  
 20 09 28 09 27 40.0000000  0 14G20G24G25G21G11G32G12G10R 3R 4R 2R13
                                R12R14
  21412518.825   112523534.61448     -2810.577    21412519.090    87680670.07547
     -2190.066  
  21667166.595   113861736.83748     -2550.598    21667169.194    88723443.99547
     -1987.483  
  24320530.328   127805254.02146      3675.632    24320534.603    99588528.10044
      2864.128  
  23034316.691   121046162.11048      -328.906    23034316.551    94321687.34646
      -256.292  
  23899408.455   125592228.82845      -114.164    23899408.156    97864077.69745
       -88.957  
  21375557.906   112329353.52249      2116.253    21375560.114    87529390.93448
      1649.027  
  23199503.408   121914227.76348      2717.636    23199505.165    94998095.98446
      2117.641  
  20400780.104   107206831.65749      -340.077    20400781.959    83537800.40148
      -264.995  
  19718238.069   105553276.07009     -1327.479    19718241.040    82097006.19308
     -1032.487  
  20110817.260   107692509.85409      2159.422    20110819.697    83760870.58008
      1679.550  
  23218823.307   123900075.94305     -3510.597    23218829.942    96366757.63406
     -2730.469  
  19837597.709   105931666.04006       553.297    19837602.020    82391317.62706
       430.344  
  22089603.676   117998693.90707     -3321.726    22089608.604    91776785.95306
     -2583.570  
  21790922.924   116157882.68908      4111.175    21790929.771    90345056.65107
      3197.582  
 20 09 28 09 27 45.0000000  0 14G20G24G25G21G11G32G12G10R 3R 4R 2R13
                                R12R14
  21415194.262   112537594.03648     -2812.641    21415194.507    87691625.46246
     -2191.671  
  21669594.660   113874496.52948     -2552.773    21669597.338    88733386.61847
     -1989.175  
  24317032.716   127786873.53646      3676.026    24317036.805    99574205.67244
      2864.438  
  23034631.043   121047814.07548      -331.589    23034630.878    94322974.58845
      -258.387  
  23899518.700   125592808.13946      -116.945    23899518.381    97864529.14343
       -91.125  
  21373545.194   112318776.67949      2115.019    21373547.441    87521149.25048
      1648.065  
  23196918.835   121900645.83548      2715.391    23196920.587    94987512.69246
      2115.895  
  20401105.306   107208540.51149      -342.909    20401107.150    83539131.97248
      -267.206  
  19719479.453   105559921.32809     -1330.175    19719482.422    82102174.72408
     -1034.585  
  20108802.161   107681719.15609      2157.468    20108804.611    83752477.81807
      1678.030  
  23222113.383   123917632.10905     -3511.296    23222119.856    96380412.40706
     -2731.016  
  19837081.902   105928911.31506       548.675    19837086.195    82389175.07206
       426.746  
  22092714.354   118015310.62107     -3324.546    22092719.289    91789710.07106
     -2585.758  
  21787067.862   116137332.63608      4109.292    21787074.674    90329073.28807
      3196.116  
 20 09 28 09 27 50.0000000  0 14G20G24G25G21G11G32G12G10R 3R 4R 2R13
                                R12R14
  21417872.067   112551665.93848     -2815.659    21417872.330    87702590.57447
     -2194.022  
  21672025.169   113887269.09748     -2555.910    21672027.914    88743339.26547
     -1991.620  
  24313535.875   127768496.98247      3674.813    24313539.784    99559886.26745
      2863.492  
  23034948.342   121049481.39648      -335.089    23034948.075    94324273.80345
      -261.108  
  23899632.388   125593406.04145      -121.882    23899632.284    97864994.99845
       -94.979  
  21371534.194   112308208.89649      2112.500    21371536.505    87512914.61448
      1646.104  
  23194336.617   121887076.31048      2712.562    23194338.348    94976939.07346
      2113.688  
  20401433.680   107210265.94449      -346.776    20401435.504    83540476.46448
      -270.219  
  19720723.507   105566580.87809     -1333.425    19720726.467    82107354.37508
     -1037.112  
  20106789.125   107670939.56209      2154.694    20106791.569    83744093.69207
      1675.874  
  23225404.543   123935194.18205     -3512.852    23225410.893    96394071.77606
     -2732.227  
  19836570.760   105926181.62306       543.398    19836575.050    82387051.98206
       422.644  
  22095828.015   118031942.96007     -3328.141    22095832.862    91802646.34106
     -2588.554  
  21783214.885   116116793.88108      4106.586    21783221.696    90313098.71107
      3194.012  
 20 09 28 09 27 55.0000000  0 15G20G24G25G21G11G32G12G10R 3R 4R 2R13
                                R12R14R19
  21420551.536   112565746.36148     -2816.772    21420551.743    87713562.32347
     -2194.891  
  21674457.388   113900050.71148     -2557.237    21674460.189    88753298.96147
     -1992.652  
  24310039.041   127750120.49846      3675.542    24310042.864    99545566.93144
      2864.059  
  23035267.828   121051160.15448      -336.854    23035267.473    94325581.93246
      -262.487  
  23899748.867   125594018.54945      -124.121    23899748.993    97865472.33643
       -96.715  
  21369524.187   112297646.23449      2112.112    21369526.529    87504683.97348
      1645.800  
  23191756.046   121873515.25548      2711.391    23191757.605    94966372.05145
      2112.776  
  20401764.451   107212004.03149      -348.895    20401766.273    83541830.81848
      -271.871  
  19721969.500   105573250.62009     -1335.063    19721972.399    82112541.94608
     -1038.387  
  20104777.439   107660167.13809      2153.875    20104779.879    83735715.13907
      1675.234  
  23228696.055   123952758.16206     -3512.820    23228702.249    96407732.62605
     -2732.202  
  19836063.532   105923472.99105       539.988    19836067.826    82384945.27006
       419.992  
  22098943.808   118048586.84107     -3329.777    22098948.528    91815591.58906
     -2589.827  
  21779363.236   116096262.36108      4105.565    21779370.053    90297129.76407
      3193.218  
  22747468.802   121683618.76814     -3535.003    22747473.033    94642832.45215
     -2749.453  
 20 09 28 09 28  0.0000000  0 15G20G24G25G21G11G32G12G10R 3R 4R 2R13
                                R12R14R19
  21423232.973   112579837.09448     -2819.328    21423233.150    87724542.10846
     -2196.883  
  21676891.688   113912843.23048     -2559.789    21676894.525    88763267.16147
     -1994.640  
  24306542.560   127731745.86346      3674.242    24306546.222    99531249.04945
      2863.042  
  23035589.835   121052852.15348      -339.785    23035589.418    94326900.36745
      -264.772  
  23899868.495   125594647.57146      -127.440    23899868.689    97865962.47344
       -99.304  
  21367515.497   112287090.53349      2110.144    21367517.877    87496458.75348
      1644.270  
  23189177.437   121859964.54148      2709.059    23189178.796    94955813.07346
      2110.957  
  20402097.967   107213756.57749      -352.097    20402099.802    83543196.43748
      -274.367  
  19723217.726   105579932.56609     -1337.887    19723220.613    82117739.01508
     -1040.527  
  20102767.419   107649403.69709      2151.593    20102769.883    83727343.57507
      1673.460  
  23231988.290   123970326.06605     -3513.906    23231994.287    96421396.52305
     -2733.046  
  19835560.576   105920787.20505       534.699    19835564.865    82382856.32806
       415.878  
  22102062.063   118065244.19007     -3333.078    22102066.735    91828547.30206
     -2592.398  
  21775513.365   116075740.00907      4103.309    21775520.099    90281167.94307
      3191.461  
  22750773.937   121701298.48104     -3537.409    22750777.923    94656583.32905
     -2751.324  
 20 09 28 09 28  5.0000000  0 15G20G24G25G21G11G32G12G10R 3R 4R 2R13
                                R12R14R19
  21425916.423   112593938.40449     -2821.304    21425916.560    87735530.13047
     -2198.421  
  21679328.108   113925646.85948     -2561.968    21679330.958    88773244.01147
     -1996.343  
  24303046.440   127713373.31847      3674.027    24303050.098    99516932.81745
      2862.882  
  23035914.361   121054557.70348      -342.585    23035913.928    94328229.36845
      -266.949  
  23899991.276   125595293.29246      -130.983    23899991.680    97866465.63145
      -102.070  
  21365508.191   112276542.06449      2108.956    21365510.579    87488239.17548
      1643.343  
  23186600.858   121846424.46548      2706.948    23186602.049    94945262.38046
      2109.313  
  20402434.303   107215523.90549      -354.999    20402436.152    83544573.57648
      -276.628  
  19724468.304   105586627.00609     -1340.160    19724471.167    82122945.79808
     -1042.352  
  20100759.171   107638649.55509      2149.914    20100761.609    83718979.24607
      1672.156  
  23235281.306   123987898.16805     -3515.160    23235287.127    96435063.68905
     -2734.020  
  19835061.984   105918124.53205       530.503    19835066.218    82380785.36406
       412.613  
  22105182.893   118081915.26007     -3335.804    22105187.550    91841513.69006
     -2594.519  
  21771665.213   116055227.09607      4101.706    21771671.886    90265213.46507
      3190.214  
  22754081.089   121718989.70104     -3539.719    22754084.980    94670343.15805
     -2753.116  
 20 09 28 09 28 10.0000000  0 15G20G24G25G21G11G32G12G10R 3R 4R 2R13
                                R12R14R19
  21428602.242   112608052.13548     -2824.058    21428602.358    87746527.83847
     -2200.569  
  21681766.970   113938463.38548     -2564.698    21681769.780    88783230.92147
     -1998.468  
  24299551.080   127695004.79846      3673.387    24299554.701    99502619.65945
      2862.374  
  23036241.829   121056278.65648      -345.804    23036241.323    94329570.37145
      -269.461  
  23900117.682   125595957.56046      -134.929    23900118.265    97866983.25844
      -105.141  
  21363502.629   112266002.67149      2106.979    21363505.023    87480026.66348
      1641.804  
  23184026.630   121832896.86948      2704.128    23184027.672    94934721.42245
      2107.116  
  20402773.775   107217307.81149      -358.547    20402775.648    83545963.63148
      -279.386  
  19725721.554   105593335.65709     -1343.366    19725724.407    82128163.63608
     -1044.843  
  20098752.988   107627906.56909      2147.354    20098755.387    83710623.59007
      1670.163  
  23238575.451   124005476.01105     -3516.644    23238581.082    96448735.32405
     -2735.175  
  19834568.016   105915486.77205       524.941    19834572.266    82378733.77506
       408.289  
  22108306.593   118098601.84707     -3339.199    22108311.321    91854492.14506
     -2597.159  
  21767819.163   116034725.48807      4099.012    21767825.756    90249267.77807
      3188.120  
  22757390.865   121736694.26704     -3542.566    22757394.516    94684113.36005
     -2755.331  
 20 09 28 09 28 15.0000000  0 15G20G24G25G21G11G32G12G10R 3R 4R 2R13
                                R12R14R19
  21431290.238   112622177.24548     -2826.180    21431290.315    87757534.41746
     -2202.222  
  21684208.127   113951291.87548     -2566.827    21684210.924    88793227.15247
     -2000.125  
  24296056.283   127676639.29246      3672.530    24296059.762    99488308.90345
      2861.710  
  23036572.009   121058013.95348      -348.437    23036571.486    94330922.55445
      -271.511  
  23900247.477   125596639.38446      -137.995    23900248.019    97867514.54844
      -107.534  
  21361498.614   112255471.34849      2105.387    21361500.987    87471820.44148
      1640.563  
  23181454.583   121819380.76848      2702.070    23181455.491    94924189.42745
      2105.511  
  20403116.210   107219107.28949      -361.488    20403118.100    83547365.82248
      -281.683  
  19726977.272   105600057.67709     -1345.757    19726980.144    82133391.87408
     -1046.702  
  20096748.700   107617173.73109      2145.566    20096751.002    83702275.83507
      1668.772  
  23241870.530   124023058.84005     -3516.574    23241876.000    96462410.83405
     -2735.120  
  19834078.603   105912872.96005       520.382    19834082.844    82376700.81306
       404.741  
  22111433.042   118115302.87207     -3341.902    22111437.878    91867481.83106
     -2599.262  
  21763975.046   116014234.11607      4097.168    21763981.516    90233330.05607
      3186.687  
  22760702.866   121754410.89504     -3544.887    22760706.329    94697892.94705
     -2757.137  
 20 09 28 09 28 20.0000000  0 15G20G24G25G21G11G32G12G10R 3R 4R 2R13
                                R12R14R19
  21433979.932   112636311.30849     -2827.906    21433979.981    87768547.96246
     -2203.566  
  21686651.054   113964129.64048     -2568.628    21686653.824    88803230.60847
     -2001.527  
  24292561.580   127658274.28646      3672.769    24292565.019    99473998.51745
      2861.898  
  23036904.481   121059761.13348      -350.602    23036903.969    94332283.98546
      -273.199  
  23900380.171   125597336.26246      -140.972    23900380.577    97868057.56745
      -109.848  
  21359495.678   112244945.63149      2104.511    21359498.011    87463618.58648
      1639.879  
  23178884.279   121805873.69348      2700.503    23178884.989    94913664.46446
      2104.292  
  20403461.132   107220919.89849      -363.828    20403463.051    83548778.24648
      -283.508  
  19728235.025   105606790.46609     -1347.538    19728237.885    82138628.48508
     -1048.090  
  20094745.821   107606448.52909      2144.230    20094748.011    83693934.01007
      1667.730  
  23245165.887   124040644.05805     -3517.516    23245171.427    96476088.20305
     -2735.852  
  19833593.240   105910280.77405       516.233    19833597.470    82374684.66507
       401.515  
  22114561.807   118132015.95407     -3343.938    22114566.677    91880480.89406
     -2600.843  
  21760132.391   115993750.63707      4096.011    21760138.779    90217398.47107
      3185.784  
  22764016.448   121772137.29404     -3546.456    22764020.014    94711680.13305
     -2758.358  
 20 09 28 09 28 25.0000000  0 15G20G24G25G21G11G32G12G10R 3R 4R 2R13
                                R12R14R19
  21436671.540   112650455.39649     -2829.879    21436671.548    87779569.32347
     -2205.105  
  21689095.965   113976977.85748     -2570.737    21689098.757    88813242.20247
     -2003.172  
  24289067.177   127639910.95146      3672.007    24289070.670    99459689.43045
      2861.304  
  23037239.431   121061521.30548      -353.445    23037238.905    94333655.55546
      -275.409  
  23900515.957   125598049.32246      -144.519    23900516.417    97868613.18544
      -112.617  
  21357494.017   112234426.61249      2103.058    21357496.286    87455421.95448
      1638.734  
  23176315.890   121792376.75248      2698.366    23176316.451    94903147.38746
      2102.624  
  20403808.747   107222746.72449      -366.874    20403810.707    83550201.74549
      -285.879  
  19729495.013   105613535.15709     -1350.319    19729497.842    82143874.35308
     -1050.253  
  20092744.609   107595732.10109      2142.375    20092746.649    83685599.00407
      1666.288  
  23248461.925   124058232.66305     -3518.172    23248467.631    96489768.20605
     -2736.362  
  19833112.053   105907711.23006       511.656    19833116.347    82372686.14106
       397.953  
  22117692.923   118148742.03207     -3346.737    22117697.908    91893490.06306
     -2603.023  
  21756291.390   115973276.15607      4093.801    21756297.731    90201473.88407
      3184.065  
  22767332.146   121789874.35604     -3548.461    22767335.700    94725475.61405
     -2759.917  
 20 09 28 09 28 30.0000000  0 15G20G24G25G21G11G32G12G10R 3R 4R 2R13
                                R12R14R19
  21439365.094   112664609.80849     -2832.069    21439365.063    87790598.71946
     -2206.812  
  21691542.901   113989836.87348     -2573.027    21691545.784    88823262.21247
     -2004.960  
  24285573.144   127621549.65147      3671.499    24285576.624    99445381.95845
      2860.913  
  23037576.927   121063294.76748      -356.223    23037576.407    94335037.47346
      -277.578  
  23900654.878   125598778.88847      -147.891    23900655.363    97869181.67645
      -115.242  
  21355493.690   112223914.63349      2101.535    21355495.894    87447230.80848
      1637.559  
  23173749.473   121778890.38948      2696.116    23173749.986    94892638.54946
      2100.871  
  20404159.121   107224588.07649      -369.858    20404161.114    83551636.57148
      -288.203  
  19730757.282   105620292.08609     -1352.788    19730760.099    82149129.73808
     -1052.171  
  20090745.067   107585024.76509      2140.359    20090747.047    83677271.07407
      1664.719  
  23251758.686   124075825.24605     -3519.069    23251764.571    96503451.32405
     -2737.059  
  19832635.062   105905164.56205       506.671    19832639.454    82370705.40206
       394.077  
  22120826.515   118165481.55506     -3349.664    22120831.626    91906509.68606
     -2605.296  
  21752452.103   115952810.94307      4092.063    21752458.421    90185556.50907
      3182.714  
  22770650.106   121807622.54904     -3550.008    22770653.490    94739279.75305
     -2761.121  
 20 09 28 09 28 35.0000000  0 14G20G24G25G21G11G32G12G10R 3R 4R 2R13
                                R12R14
  21442061.065   112678776.85249     -2834.742    21442060.992    87801637.97447
     -2208.895  
  21693992.359   114002709.01948     -2575.804    21693995.334    88833292.45747
     -2007.125  
  24282079.927   127603192.61247      3671.065    24282083.578    99431077.76845
      2860.570  
  23037917.415   121065083.82848      -359.516    23037916.892    94336431.54945
      -280.140  
  23900797.384   125599527.23046      -151.757    23900797.828    97869764.79645
      -118.258  
  21353495.128   112213411.99449      2099.379    21353497.265    87439046.94348
      1635.879  
  23171185.511   121765416.80248      2693.339    23171185.899    94882139.66746
      2098.711  
  20404512.710   107226446.29349      -373.402    20404514.715    83553084.53848
      -290.961  
  19732022.233   105627063.46709     -1355.854    19732025.073    82154396.37008
     -1054.559  
  20088747.701   107574328.86709      2137.906    20088749.656    83668952.04407
      1662.812  
  23255056.501   124093423.89605     -3520.195    23255062.750    96517139.14605
     -2737.934  
  19832162.920   105902643.19206       501.312    19832167.260    82368744.33906
       389.906  
  22123963.058   118182236.81306     -3352.551    22123968.295    91919541.54306
     -2607.542  
  21748615.039   115932357.38607      4089.574    21748621.313    90169648.19807
      3180.781  
 20 09 28 09 28 40.0000000  0 14G20G24G25G21G11G32G12G10R 3R 4R 2R13
                                R12R14
  21444759.279   112692955.87649     -2836.370    21444759.163    87812686.56547
     -2210.163  
  21696444.182   114015593.59448     -2577.694    21696447.253    88843332.37548
     -2008.597  
  24278587.445   127584839.27746      3670.694    24278591.115    99416776.46545
      2860.276  
  23038260.752   121066887.85248      -361.797    23038260.233    94337837.28645
      -281.917  
  23900943.271   125600293.71346      -154.519    23900943.782    97870362.07944
      -120.402  
  21351498.213   112202918.04149      2098.473    21351500.266    87430869.84748
      1635.172  
  23168623.880   121751955.37248      2691.738    23168624.194    94871650.25546
      2097.457  
  20404869.381   107228320.70449      -375.948    20404871.380    83554545.11548
      -292.952  
  19733289.806   105633848.73109     -1357.757    19733292.663    82159673.79908
     -1056.035  
  20086752.349   107563643.85109      2136.578    20086754.358    83660641.47808
      1661.781  
  23258355.491   124111028.06305     -3521.124    23258361.972    96530831.26905
     -2738.656  
  19831695.215   105900146.45706       497.590    19831699.636    82366802.44206
       387.016  
  22127102.468   118199007.06606     -3354.890    22127107.795    91932585.06606
     -2609.363  
  21744780.001   115911914.82007      4088.058    21744786.283    90153748.43807
      3179.601  
 20 09 28 09 28 45.0000000  0 14G20G24G25G21G11G32G12G10R 3R 4R 2R13
                                R12R14
  21447458.878   112707142.17648     -2838.313    21447458.731    87823740.81547
     -2211.676  
  21698897.448   114028485.87248     -2579.723    21698900.624    88853378.30147
     -2010.175  
  24275094.777   127566484.96346      3670.555    24275098.510    99402474.42645
      2860.171  
  23038606.046   121068702.10648      -364.293    23038605.465    94339250.98445
      -283.866  
  23901091.729   125601073.58546      -157.589    23901092.085    97870969.76245
      -122.800  
  21349502.056   112192428.10449      2097.152    21349504.021    87422695.87148
      1634.145  
  23166063.651   121738501.43648      2689.862    23166063.954    94861166.68746
      2095.999  
  20405228.245   107230206.64149      -378.777    20405230.224    83556014.68048
      -295.155  
  19734559.087   105640643.13209     -1360.168    19734561.974    82164958.33408
     -1057.909  
  20084758.099   107552964.82709      2134.784    20084760.194    83652335.57408
      1660.386  
  23261654.602   124128633.00305     -3521.679    23261661.289    96544524.00205
     -2739.086  
  19831231.269   105897669.60106       492.452    19831235.740    82364875.99706
       383.015  
  22130243.880   118215787.58706     -3357.469    22130249.181    91945636.57906
     -2611.367  
  21740946.160   115891478.47707      4086.250    21740952.441    90137853.51207
      3178.195  
 20 09 28 09 28 50.0000000  0 14G20G24G25G21G11G32G12G10R 3R 4R 2R13
                                R12R14
  21450160.758   112721340.52649     -2840.858    21450160.611    87834804.46647
     -2213.656  
  21701353.102   114041390.61148     -2582.315    21701356.353    88863433.94447
     -2012.198  
  24271602.776   127548134.34347      3669.672    24271606.605    99388175.25245
      2859.484  
  23038954.201   121070531.26648      -367.320    23038953.551    94340676.30445
      -286.227  
  23901243.622   125601871.57246      -161.383    23901243.901    97871591.58245
      -125.753  
  21347507.561   112181946.83849      2095.262    21347509.419    87414528.65148
      1632.668  
  23163505.763   121725059.64148      2686.973    23163506.025    94850692.58546
      2093.745  
  20405590.191   107232108.74249      -382.183    20405592.151    83557496.83648
      -297.808  
  19735830.936   105647451.44009     -1363.219    19735833.893    82170253.69108
     -1060.281  
  20082765.892   107542296.58709      2132.547    20082768.060    83644038.06208
      1658.647  
  23264954.682   124146243.36006     -3522.839    23264961.621    96558220.94805
     -2739.987  
  19830771.961   105895217.20505       488.144    19830776.462    82362968.57806
       379.664  
  22133387.986   118232582.95706     -3360.508    22133393.356    91958699.65206
     -2613.729  
  21737114.293   115871053.25507      4083.852    21737120.723    90121967.23407
      3176.327  
 20 09 28 09 28 55.0000000  0 14G20G24G25G21G11G32G12G10R 3R 4R 2R13
                                R12R14
  21452864.619   112735549.35248     -2842.886    21452864.491    87845876.27747
     -2215.241  
  21703810.815   114054306.29248     -2584.120    21703814.108    88873498.10247
     -2013.604  
  24268111.220   127529785.96447      3669.073    24268115.044    99373877.83144
      2859.020  
  23039304.909   121072373.90448      -369.839    23039304.246    94342112.12346
      -288.191  
  23901398.685   125602686.27846      -164.487    23901398.928    97872226.41945
      -128.171  
  21345514.454   112171472.83049      2093.840    21345516.229    87406367.09148
      1631.562  
  23160949.934   121711628.57948      2685.151    23160950.152    94840226.83646
      2092.327  
  20405954.958   107234025.60649      -384.914    20405956.879    83558990.49348
      -299.938  
  19737105.123   105654272.13709     -1365.479    19737108.139    82175558.67908
     -1062.042  
  20080775.392   107531637.70309      2130.691    20080777.659    83635747.83308
      1657.202  
  23268255.636   124163857.66406     -3523.195    23268262.672    96571920.94005
     -2740.269  
  19830317.043   105892787.81105       483.855    19830321.515    82361079.05106
       376.332  
  22136534.680   118249391.90806     -3363.027    22136540.095    91971773.28206
     -2615.688  
  21733284.287   115850637.60107      4082.327    21733290.816    90106088.40507
      3175.145  
 20 09 28 09 29  0.0000000  0 14G20G24G25G21G11G32G12G10R 3R 4R 2R13
                                R12R14
  21455570.365   112749768.01748     -2844.769    21455570.203    87856955.75047
     -2216.706  
  21706270.483   114067232.34148     -2586.476    21706273.831    88883570.35247
     -2015.438  
  24264619.943   127511439.27547      3669.070    24264623.933    99359581.72145
      2859.015  
  23039658.041   121074229.43948      -372.449    23039657.379    94343557.98946
      -290.222  
  23901556.768   125603517.07146      -167.976    23901557.034    97872873.80544
      -130.890  
  21343522.598   112161005.46449      2092.762    21343524.333    87398210.70448
      1630.723  
  23158396.037   121698207.69648      2683.015    23158396.238    94829769.01746
      2090.660  
  20406322.405   107235956.61449      -387.629    20406324.322    83560495.17248
      -302.050  
  19738381.515   105661104.61009     -1367.719    19738384.563    82180872.82808
     -1063.831  
  20078786.542   107520987.62909      2129.136    20078788.893    83627464.44508
      1655.995  
  23271557.249   124181475.61406     -3524.058    23271564.276    96585623.79305
     -2740.934  
  19829866.413   105890381.09705       479.121    19829870.824    82359207.16706
       372.648  
  22139683.772   118266213.70006     -3365.784    22139689.260    91984856.89506
     -2617.835  
  21729455.979   115830230.94407      4080.581    21729462.611    90090216.56407
      3173.784  
 20 09 28 09 29  5.0000000  0 14G20G24G25G21G11G32G12G10R 3R 4R 2R13
                                R12R14
  21458278.470   112763999.20248     -2847.601    21458278.330    87868044.98147
     -2218.913  
  21708732.623   114080171.32048     -2589.129    21708735.968    88893652.67447
     -2017.508  
  24261129.561   127493096.94747      3668.449    24261133.521    99345289.00445
      2858.530  
  23040014.119   121076100.51648      -376.008    23040013.479    94345015.97146
      -292.995  
  23901718.465   125604366.57247      -172.133    23901718.520    97873535.75444
      -134.133  
  21341532.514   112150547.44149      2090.609    21341534.223    87390061.60048
      1629.047  
  23155844.600   121684799.64848      2680.218    23155844.799    94819321.20646
      2088.483  
  20406693.060   107237904.44949      -391.362    20406694.975    83562012.96348
      -304.957  
  19739660.636   105667951.65509     -1370.987    19739663.708    82186198.30508
     -1066.327  
  20076799.857   107510349.01909      2126.570    20076802.284    83619189.97408
      1654.000  
  23274860.032   124199099.58506     -3525.414    23274867.016    96599331.32605
     -2741.992  
  19829420.545   105887999.72105       473.570    19829424.862    82357354.98906
       368.332  
  22142835.636   118283051.07806     -3368.938    22142841.326    91997952.62706
     -2620.289  
  21725629.865   115809836.03707      4077.773    21725636.648    90074353.86607
      3171.602  
 20 09 28 09 29 10.0000000  0 14G20G24G25G21G11G32G12G10R 3R 4R 2R13
                                R12R14
  21460988.410   112778240.06449     -2848.820    21460988.258    87879141.74646
     -2219.862  
  21711196.683   114093120.38448     -2590.492    21711200.009    88903742.85147
     -2018.569  
  24257639.471   127474756.17847      3668.464    24257643.438    99330997.51345
      2858.542  
  23040372.587   121077984.27748      -377.871    23040371.963    94346483.84046
      -294.445  
  23901883.180   125605231.97147      -174.566    23901883.120    97874210.07344
      -136.031  
  21339543.641   112140095.90249      2089.913    21339545.385    87381917.54548
      1628.504  
  23153295.028   121671401.65048      2678.738    23153295.237    94808881.24046
      2087.332  
  20407066.374   107239866.26049      -393.448    20407068.311    83563541.64948
      -306.581  
  19740941.918   105674810.36709     -1372.804    19740945.002    82191532.85508
     -1067.741  
  20074814.796   107499718.98209      2125.359    20074817.269    83610922.17508
      1653.058  
  23278163.380   124216726.69407     -3525.237    23278170.370    96613041.28505
     -2741.855  
  19828978.851   105885640.66205       469.852    19828983.049    82355520.16806
       365.441  
  22145989.891   118299901.10506     -3371.145    22145995.749    92011058.18506
     -2622.003  
  21721805.392   115789449.97507      4076.863    21721812.368    90058498.05307
      3170.895  
 20 09 28 09 29 15.0000000  0 14G20G24G25G21G11G32G12G10R 3R 4R 2R13
                                R12R14
  21463700.554   112792492.54449     -2851.315    21463700.398    87890247.56747
     -2221.809  
  21713663.085   114106081.60148     -2593.175    21713666.370    88913842.50147
     -2020.656  
  24254150.018   127456418.85647      3667.098    24254154.096    99316708.71044
      2857.483  
  23040733.850   121079882.66648      -380.793    23040733.228    94347963.09845
      -296.726  
  23902051.251   125606115.15847      -178.375    23902051.085    97874898.26944
      -138.992  
  21337556.357   112129652.75149      2088.136    21337558.151    87373780.02948
      1627.120  
  23150747.714   121658015.61148      2676.441    23150747.958    94798450.58946
      2085.542  
  20407442.716   107241843.98149      -396.840    20407444.673    83565082.72848
      -309.230  
  19742225.770   105681682.64209     -1375.563    19742228.830    82196877.95508
     -1069.886  
  20072831.692   107489099.51909      2123.124    20072834.212    83602662.59408
      1651.315  
  23281467.702   124234359.09607     -3526.401    23281474.595    96626755.39104
     -2742.757  
  19828541.665   105883305.83305       464.715    19828545.761    82353704.20306
       361.445  
  22149146.764   118316765.64706     -3373.832    22149152.882    92024175.02806
     -2624.093  
  21717982.964   115769074.81607      4074.222    21717990.109    90042650.71307
      3168.839  
 20 09 28 09 29 20.0000000  0 14G20G24G25G21G11G32G12G10R 3R 4R 2R13
                                R12R14
  21466414.396   112806754.06748     -2852.840    21466414.280    87901360.43147
     -2222.996  
  21716131.263   114119052.24548     -2594.633    21716134.525    88923949.49547
     -2021.793  
  24250660.805   127438082.54047      3667.227    24250664.955    99302420.66345
      2857.574  
  23041097.379   121081793.15148      -383.016    23041096.705    94349451.78945
      -298.456  
  23902222.226   125607013.57647      -180.965    23902222.051    97875598.34545
      -141.015  
  21335570.180   112119215.50949      2087.042    21335572.041    87365647.11748
      1626.265  
  23148202.204   121644639.02048      2675.000    23148202.466    94788027.28846
      2084.414  
  20407821.592   107243835.08349      -399.383    20407823.606    83566634.23848
      -311.211  
  19743511.662   105688565.84509     -1377.445    19743514.684    82202231.55208
     -1071.352  
  20070850.080   107478488.11009      2121.761    20070852.652    83594409.28008
      1650.258  
  23284772.572   124251994.10906     -3526.944    23284779.392    96640471.52304
     -2743.179  
  19828108.495   105880992.79205       460.175    19828112.572    82351905.17006
       357.913  
  22152305.998   118333642.20906     -3376.680    22152312.202    92037301.24606
     -2626.309  
  21714162.085   115748707.87907      4072.684    21714169.379    90026809.77207
      3167.645  
 20 09 28 09 29 25.0000000  0 14G20G24G25G21G11G32G12G10R 3R 4R 2R13
                                R12R14
  21469129.965   112821024.57148     -2855.269    21469129.827    87912480.29846
     -2224.890  
  21718601.260   114132032.32648     -2597.390    21718604.505    88934063.83847
     -2023.945  
  24247171.676   127419747.07447      3666.890    24247175.790    99288133.30345
      2857.315  
  23041463.222   121083715.66548      -385.933    23041462.501    94350949.84845
      -300.730  
  23902396.088   125607927.22547      -184.492    23902395.862    97876310.26044
      -143.762  
  21333585.100   112108784.06149      2085.444    21333587.035    87357518.72148
      1625.023  
  23145658.469   121631271.94748      2672.296    23145658.757    94777611.41046
      2082.309  
  20408202.998   107245839.47949      -402.515    20408205.053    83568196.10648
      -313.648  
  19744799.559   105695459.96109     -1380.202    19744802.571    82207593.64208
     -1073.495  
  20068869.919   107467884.53209      2119.570    20068872.547    83586162.05708
      1648.555  
  23288077.846   124269631.37206     -3528.163    23288084.609    96654189.40404
     -2744.129  
  19827679.358   105878701.43805       455.652    19827683.500    82350123.01306
       354.395  
  22155467.522   118350530.68806     -3379.483    22155473.768    92050436.72706
     -2628.491  
  21710342.854   115728349.07407      4070.691    21710350.159    90010975.15807
      3166.093  
 20 09 28 09 29 30.0000000  0 14G20G24G25G21G11G32G12G10R 3R 4R 2R13
                                R12R14
  21471847.862   112835307.40148     -2857.761    21471847.718    87923609.76246
     -2226.831  
  21721073.717   114145025.23548     -2599.737    21721076.947    88944188.16747
     -2025.773  
  24243683.366   127401415.94746      3665.543    24243687.516    99273849.31246
      2856.265  
  23041831.997   121085653.59248      -389.180    23041831.247    94352459.92745
      -303.261  
  23902573.447   125608859.44046      -188.456    23902573.374    97877036.67645
      -146.852  
  21331601.765   112098361.81549      2083.445    21331603.756    87349397.49748
      1623.465  
  23143117.142   121617917.62447      2669.585    23143117.439    94767205.45247
      2080.195  
  20408587.579   107247860.55849      -405.891    20408589.691    83569770.97748
      -316.281  
  19746090.143   105702368.46709     -1383.188    19746093.123    82212966.92608
     -1075.816  
  20066891.884   107457292.36609      2117.230    20066894.567    83577923.71308
      1646.733  
  23291384.359   124287275.09007     -3529.397    23291390.998    96667912.30004
     -2745.090  
  19827254.972   105876435.18205       450.663    19827259.177    82348360.36606
       350.512  
  22158631.913   118367434.48606     -3382.086    22158638.169    92063584.11306
     -2630.516  
  21706525.852   115708002.08607      4068.141    21706533.120    89995149.73707
      3164.109  
 20 09 28 09 29 35.0000000  0 15G20G24G25G21G11G32G12G10R 3R 4R 2R13
                                R12R14R19
  21474567.892   112849601.41448     -2859.706    21474567.762    87934747.95046
     -2228.347  
  21723548.431   114158029.75848     -2601.913    21723551.642    88954321.56747
     -2027.468  
  24240195.568   127383087.88146      3665.543    24240199.839    99259567.70246
      2856.265  
  23042203.503   121087605.71548      -391.813    23042202.722    94353981.05545
      -305.313  
  23902754.151   125609809.08047      -191.714    23902754.072    97877776.66444
      -149.386  
  21329619.973   112087947.58449      2082.069    21329622.010    87341282.51648
      1622.390  
  23140577.995   121604574.90848      2667.444    23140578.393    94756808.54546
      2078.526  
  20408975.109   107249897.13849      -408.668    20408977.246    83571357.92148
      -318.441  
  19747383.188   105709290.14709     -1385.609    19747386.121    82218350.45408
     -1077.694  
  20064915.728   107446710.29709      2115.628    20064918.471    83569693.21808
      1645.488  
  23294691.593   124304923.02807     -3529.902    23294698.119    96681638.48904
     -2745.479  
  19826835.089   105874192.80806       446.331    19826839.327    82346616.29406
       347.144  
  22161798.843   118384352.37706     -3384.492    22161805.232    92076742.46506
     -2632.386  
  21702710.761   115687665.50307      4066.387    21702717.973    89979332.41707
      3162.750  
  22813977.040   122039393.49514     -3579.874    22813981.156    94919544.66815
     -2784.351  
 20 09 28 09 29 40.0000000  0 15G20G24G25G21G11G32G12G10R 3R 4R 2R13
                                R12R14R19
  21477289.681   112863904.63648     -2861.711    21477289.580    87945893.31146
     -2229.909  
  21726025.016   114171043.89548     -2603.890    21726028.172    88964462.44947
     -2029.004  
  24236707.942   127364761.09546      3665.120    24236712.338    99245287.09444
      2855.937  
  23042577.359   121089570.09148      -394.426    23042576.515    94355511.73945
      -307.347  
  23902937.820   125610774.14147      -194.827    23902937.732    97878528.66144
      -151.815  
  21327639.356   112077539.43349      2080.977    21327641.435    87333172.26748
      1621.535  
  23138040.714   121591241.84448      2665.601    23138041.200    94746419.16346
      2077.093  
  20409365.221   107251947.28149      -411.538    20409367.377    83572955.44148
      -320.684  
  19748678.286   105716223.02809     -1387.910    19748681.204    82223742.69708
     -1079.484  
  20062941.120   107436136.42609      2113.851    20062943.913    83561469.09908
      1644.104  
  23297999.408   124322573.97507     -3530.426    23298005.879    96695367.01204
     -2745.887  
  19826419.384   105871972.50005       441.405    19826423.610    82344889.39006
       343.316  
  22164968.102   118401282.36406     -3387.742    22164974.567    92089910.22606
     -2634.914  
  21698897.318   115667337.45607      4064.796    21698904.368    89963521.73307
      3161.508  
  22817324.393   122057299.45204     -3581.714    22817328.514    94933471.51505
     -2785.780  
 20 09 28 09 29 45.0000000  0 15G20G24G25G21G11G32G12G10R 3R 4R 2R13
                                R12R14R19
  21480013.702   112878219.59148     -2864.129    21480013.616    87957047.81446
     -2231.792  
  21728503.888   114184070.07948     -2606.351    21728506.980    88974612.72547
     -2030.921  
  24233221.002   127346437.97546      3664.382    24233225.433    99231009.36244
      2855.363  
  23042954.011   121091549.22048      -397.348    23042953.122    94357053.91245
      -309.620  
  23903124.923   125611757.15447      -198.538    23903124.814    97879294.63645
      -154.710  
  21325660.380   112067139.87349      2079.027    21325662.481    87325068.71648
      1620.019  
  23135505.789   121577920.97348      2662.797    23135506.289    94736039.28246
      2074.905  
  20409758.409   107254013.50049      -414.828    20409760.564    83574565.47848
      -323.245  
  19749975.918   105723169.57609     -1390.749    19749978.854    82229145.56508
     -1081.699  
  20060968.549   107425573.36509      2111.608    20060971.359    83553253.38508
      1642.362  
  23301308.205   124340230.06707     -3531.648    23301314.531    96709099.52204
     -2746.839  
  19826008.139   105869776.59705       436.702    19826012.449    82343181.46906
       339.655  
  22168140.116   118418226.94106     -3390.406    22168146.643    92103089.34406
     -2636.984  
  21695085.950   115647020.56607      4062.155    21695092.795    89947719.72907
      3159.457  
  22820674.162   122075217.79704     -3584.538    22820678.178    94947407.99205
     -2787.980  
 20 09 28 09 29 50.0000000  0 15G20G24G25G21G11G32G12G10R 3R 4R 2R13
                                R12R14R19
  21482739.638   112892544.60148     -2866.308    21482739.531    87968210.16846
     -2233.488  
  21730984.757   114197106.73048     -2608.753    21730987.788    88984771.15547
     -2032.801  
  24229734.414   127328116.99246      3663.550    24229738.992    99216733.25245
      2854.714  
  23043333.133   121093541.43048      -400.120    23043332.217    94358606.27245
      -311.785  
  23903315.129   125612756.44647      -201.859    23903315.008    97880073.29345
      -157.296  
  21323682.726   112056747.23549      2077.440    21323684.842    87316970.55648
      1618.780  
  23132972.895   121564610.61948      2660.577    23132973.416    94725667.59246
      2073.180  
  20410154.344   107256094.12449      -417.948    20410156.493    83576186.74148
      -325.680  
  19751275.835   105730128.25509     -1393.246    19751278.739    82234557.86208
     -1083.640  
  20058997.695   107415019.40809      2109.472    20059000.482    83545044.75208
      1640.698  
  23304617.750   124357889.75107     -3532.938    23304623.705    96722834.82304
     -2747.843  
  19825601.190   105867603.39206       431.824    19825605.500    82341491.19906
       335.863  
  22171314.626   118435184.45006     -3393.363    22171321.169    92116278.51906
     -2639.285  
  21691276.410   115626713.07407      4060.105    21691282.942    89931925.04107
      3157.863  
  22824025.647   122093146.66904     -3587.449    22824029.811    94961352.65605
     -2790.241  
 20 09 28 09 29 55.0000000  0 15G20G24G25G21G11G32G12G10R 3R 4R 2R13
                                R12R14R19
  21485467.884   112906881.88348     -2868.511    21485467.789    87979382.08446
     -2235.203  
  21733468.020   114210156.11348     -2610.875    21733470.966    88994939.51047
     -2034.449  
  24226248.620   127309800.26946      3663.108    24226253.432    99202460.49545
      2854.371  
  23043715.182   121095549.01648      -402.870    23043714.210    94360170.62945
      -313.929  
  23903508.869   125613774.27147      -205.015    23903508.810    97880866.41045
      -159.753  
  21321706.800   112046363.79749      2075.992    21321708.933    87308879.56748
      1617.656  
  23130442.438   121551313.10148      2658.395    23130442.984    94715305.89546
      2071.476  
  20410553.457   107258191.41349      -420.867    20410555.579    83577820.99248
      -327.952  
  19752578.425   105737101.21709     -1395.902    19752581.296    82239981.28008
     -1085.707  
  20057028.939   107404476.80909      2107.577    20057031.711    83536844.95508
      1639.222  
  23307928.339   124375555.31207     -3533.453    23307934.092    96736574.68904
     -2748.246  
  19825198.784   105865455.25006       427.366    19825203.187    82339820.43106
       332.395  
  22174491.999   118452157.18506     -3395.969    22174498.524    92129479.53806
     -2641.308  
  21687469.010   115606417.27107      4058.141    21687475.269    89916139.42407
      3156.331  
  22827379.664   122111088.43304     -3589.784    22827383.840    94975307.35205
     -2792.059  
 20 09 28 09 30  0.0000000  0 15G20G24G25G21G11G32G12G10R 3R 4R 2R13
                                R12R14R19
  21488198.157   112921229.75448     -2870.621    21488198.060    87990562.24347
     -2236.848  
  21735953.380   114223216.52048     -2613.198    21735956.279    89005116.45247
     -2036.258  
  24222763.383   127291486.28546      3662.499    24222768.244    99188189.86045
      2853.895  
  23044099.808   121097570.29948      -405.699    23044098.852    94361745.64145
      -316.132  
  23903705.780   125614808.92447      -208.370    23903705.724    97881672.64645
      -162.367  
  21319732.306   112035987.88449      2074.258    21319734.441    87300794.44748
      1616.304  
  23127914.117   121538026.74848      2655.909    23127914.663    94704952.90646
      2069.539  
  20410955.427   107260303.71449      -424.101    20410957.521    83579466.93948
      -330.472  
  19753883.378   105744086.82809     -1398.555    19753886.220    82245414.52808
     -1087.753  
  20055061.993   107393943.90109      2105.570    20055064.742    83528652.69308
      1637.659  
  23311239.737   124393225.19007     -3534.409    23311245.356    96750317.91305
     -2748.987  
  19824800.906   105863330.44806       422.258    19824805.237    82338167.81506
       328.421  
  22177671.926   118469143.34707     -3398.960    22177678.315    92142690.98906
     -2643.640  
  21683663.502   115586131.61707      4055.987    21683669.594    89900361.71407
      3154.655  
  22830735.862   122129041.36204     -3592.808    22830739.985    94989270.72905
     -2794.409  
 20 09 28 09 30  5.0000000  0 15G20G24G25G21G11G32G12G10R 3R 4R 2R13
                                R12R14R19
  21490930.176   112935586.91948     -2872.144    21490930.077    88001749.64546
     -2238.034  
  21738440.570   114236286.63148     -2614.742    21738443.423    89015300.95247
     -2037.465  
  24219278.425   127273173.67946      3662.284    24219283.427    99173920.33346
      2853.733  
  23044486.791   121099603.93948      -407.730    23044485.802    94363330.29245
      -317.715  
  23903905.590   125615859.12147      -211.210    23903905.639    97882490.98245
      -164.581  
  21317758.976   112025618.15449      2073.593    21317761.117    87292714.14148
      1615.789  
  23125387.683   121524750.27848      2654.398    23125388.295    94694607.63546
      2068.367  
  20411359.998   107262429.69049      -426.332    20411362.072    83581123.54148
      -332.210  
  19755190.425   105751083.73909     -1400.382    19755193.227    82250856.57008
     -1089.191  
  20053096.643   107383419.35409      2104.425    20053099.344    83520466.94008
      1636.777  
  23314551.688   124410897.83207     -3534.535    23314557.099    96764063.28105
     -2749.089  
  19824407.163   105861227.85405       418.250    19824411.446    82336532.47606
       325.304  
  22180854.041   118486141.63807     -3400.695    22180860.347    92155911.88006
     -2644.988  
  21679859.664   115565854.64407      4054.710    21679865.642    89884590.74507
      3153.663  
  22834093.923   122147003.94004     -3592.238    22834097.938    95003241.62705
     -2793.969  
 20 09 28 09 30 10.0000000  0 15G20G24G25G21G11G32G12G10R 3R 4R 2R13
                                R12R14R19
  21493663.947   112949953.14148     -2874.456    21493663.810    88012944.10946
     -2239.835  
  21740929.551   114249366.22548     -2617.042    21740932.425    89025492.84247
     -2039.258  
  24215793.812   127254862.28946      3661.909    24215798.836    99159651.67546
      2853.429  
  23044876.088   121101649.74548      -410.597    23044875.111    94364924.41545
      -319.948  
  23904108.321   125616924.66747      -214.995    23904108.426    97883321.26845
      -167.534  
  21315786.773   112015254.46849      2071.933    21315788.959    87284638.54548
      1614.492  
  23122863.058   121511483.50447      2652.172    23122863.677    94684269.90045
      2066.629  
  20411767.143   107264569.15649      -429.448    20411769.199    83582790.65948
      -334.640  
  19756499.589   105758091.76509     -1403.176    19756502.301    82256307.25208
     -1091.363  
  20051132.784   107372903.04009      2102.309    20051135.489    83512287.58608
      1635.124  
  23317864.148   124428573.09706     -3535.581    23317869.359    96777810.70205
     -2749.902  
  19824017.570   105859147.10605       413.910    19824021.761    82334914.12506
       321.929  
  22184038.497   118503151.80207     -3403.272    22184044.577    92169142.02606
     -2646.992  
  21676057.365   115545586.25007      4052.609    21676063.323    89868826.44907
      3152.031  
  22837453.306   122164976.09004     -3594.828    22837457.686    95017219.96205
     -2795.980  
 20 09 28 09 30 15.0000000  0 15G20G24G25G21G11G32G12G10R 3R 4R 2R13
                                R12R14R19
  21496399.980   112964331.21848     -2876.944    21496399.787    88024147.78846
     -2241.781  
  21743420.865   114262458.01148     -2619.644    21743423.746    89035694.23047
     -2041.285  
  24212309.909   127236554.91146      3660.991    24212314.879    99145386.20345
      2852.718  
  23045268.236   121103710.52548      -413.797    23045267.233    94366530.21546
      -322.440  
  23904314.520   125618008.37247      -218.644    23904314.735    97884165.72645
      -170.371  
  21313816.261   112004899.60749      2069.984    21313818.464    87276569.82548
      1612.972  
  23120340.783   121498229.20347      2649.573    23120341.528    94673941.87246
      2064.597  
  20412177.392   107266724.93449      -432.973    20412179.446    83584470.48748
      -337.382  
  19757811.339   105765113.72809     -1405.957    19757813.973    82261768.77908
     -1093.527  
  20049170.990   107362397.78409      2099.788    20049173.676    83504116.83008
      1633.163  
  23321177.592   124446253.83306     -3537.246    23321182.737    96791562.38805
     -2751.195  
  19823632.506   105857091.03805       408.366    19823636.748    82333314.96206
       317.617  
  22187225.693   118520176.73107     -3406.621    22187231.627    92182383.63706
     -2649.593  
  21672257.185   115525329.33907      4050.253    21672263.259    89853071.09507
      3150.199  
  22840815.459   122182960.62603     -3597.758    22840819.802    95031207.93006
     -2798.500  
 20 09 28 09 30 20.0000000  0 15G20G24G25G21G11G32G12G10R 3R 4R 2R13
                                R12R14R19
  21499137.936   112978719.36848     -2878.176    21499137.704    88035359.31946
     -2242.737  
  21745914.190   114275560.49048     -2621.004    21745917.125    89045903.95247
     -2042.343  
  24208826.431   127218249.73446      3661.355    24208831.490    99131122.43045
      2853.003  
  23045662.871   121105784.44148      -415.664    23045661.942    94368146.26245
      -323.897  
  23904523.844   125619108.40947      -221.167    23904524.042    97885022.89444
      -172.344  
  21311847.105   111994551.78249      2069.316    21311849.346    87268506.58548
      1612.453  
  23117820.536   121484985.65547      2648.184    23117821.391    94663622.23946
      2063.520  
  20412590.384   107268895.19349      -435.262    20412592.447    83586161.59348
      -339.168  
  19759125.369   105772147.86609     -1407.633    19759127.903    82267239.77108
     -1094.827  
  20047210.912   107351901.68509      2098.620    20047213.590    83495953.20008
      1632.257  
  23324491.715   124463938.15906     -3536.761    23324496.832    96805316.83505
     -2750.824  
  19823251.586   105855057.82305       404.680    19823256.028    82331733.56506
       314.746  
  22190415.236   118537214.54307     -3408.059    22190421.110    92195635.26206
     -2650.714  
  21668458.821   115505082.11107      4048.558    21668465.055    89837323.26907
      3148.878  
  22844179.282   122200955.65204     -3598.977    22844183.884    95045204.04606
     -2799.437  
 20 09 28 09 30 25.0000000  0 15G20G24G25G21G11G32G12G10R 3R 4R 2R13
                                R12R14R19
  21501877.830   112993117.63748     -2880.812    21501877.586    88046578.73946
     -2244.792  
  21748409.506   114288673.56048     -2623.753    21748412.512    89056121.92447
     -2044.487  
  24205343.474   127199946.89246      3660.016    24205348.577    99116860.48645
      2851.960  
  23046060.017   121107871.51748      -418.824    23046059.082    94369772.54846
      -326.359  
  23904736.282   125620224.84047      -225.020    23904736.440    97885892.85045
      -175.340  
  21309879.299   111984211.01449      2067.320    21309881.579    87260448.84448
      1610.895  
  23115302.350   121471752.90547      2645.366    23115303.315    94653311.04547
      2061.327  
  20413006.135   107271079.97949      -438.612    20413008.220    83587864.02449
      -341.780  
  19760441.671   105779194.13309     -1410.594    19760444.127    82272720.18808
     -1097.133  
  20045252.579   107341414.84109      2096.394    20045255.231    83487796.76708
      1630.527  
  23327806.472   124481626.08806     -3537.999    23327811.620    96819074.09105
     -2751.784  
  19822875.086   105853047.51905       399.617    19822879.609    82330170.00206
       310.812  
  22193607.180   118554265.30307     -3411.594    22193613.069    92208896.96106
     -2653.465  
  21664662.244   115484844.40407      4046.430    21664668.629    89821582.84507
      3147.222  
  22847545.235   122218961.32604     -3601.938    22847549.942    95059208.44905
     -2801.511  
 20 09 28 09 30 30.0000000  0 15G20G24G25G21G11G32G12G10R 3R 4R 2R13
                                R12R14R19
  21504619.615   113007525.81448     -2882.979    21504619.353    88057805.88147
     -2246.479  
  21750906.752   114301796.76848     -2625.948    21750909.795    89066347.78847
     -2046.199  
  24201860.906   127181646.18346      3659.414    24201866.122    99102600.22745
      2851.495  
  23046459.669   121109971.64448      -421.585    23046458.798    94371409.00745
      -328.511  
  23904951.774   125621357.47847      -228.328    23904951.869    97886775.43145
      -177.922  
  21307912.793   111973877.14549      2065.723    21307915.141    87252396.48548
      1609.651  
  23112786.164   121458530.78847      2643.065    23112787.286    94643008.10646
      2059.530  
  20413424.615   107273279.13849      -441.519    20413426.730    83589577.65749
      -344.042  
  19761760.193   105786252.25409     -1413.188    19761762.598    82278209.84008
     -1099.145  
  20043295.929   107330937.10009      2094.488    20043298.559    83479647.42508
      1629.046  
  23331121.882   124499317.78405     -3538.589    23331127.145    96832834.28006
     -2752.246  
  19822502.923   105851060.03605       395.148    19822507.431    82328624.17506
       307.331  
  22196801.535   118571328.81807     -3414.151    22196807.411    92222168.58606
     -2655.452  
  21660867.440   115464616.30807      4044.305    21660873.965    89805849.88007
      3145.570  
  22850912.970   122236977.24904     -3604.105    22850917.919    95073220.83506
     -2803.194  
 20 09 28 09 30 35.0000000  0 15G20G24G25G21G11G32G12G10R 3R 4R 2R13
                                R12R14R19
  21507363.799   113021946.56648     -2885.620    21507363.511    88069042.81346
     -2248.539  
  21753406.486   114314932.80148     -2628.629    21753409.455    89076583.66647
     -2048.281  
  24198379.282   127163350.25346      3658.469    24198384.625    99088343.64145
      2850.749  
  23046862.333   121112087.43548      -424.922    23046861.473    94373057.67546
      -331.112  
  23905170.829   125622508.99547      -232.234    23905170.824    97887672.70445
      -180.964  
  21305948.098   111963552.85149      2063.925    21305950.526    87244351.58848
      1608.254  
  23110272.525   121445321.99347      2640.176    23110273.802    94632715.56146
      2057.284  
  20413846.332   107275495.33549      -444.960    20413848.483    83591304.57149
      -346.722  
  19763081.473   105793325.01109     -1416.148    19763083.848    82283710.87208
     -1101.453  
  20041341.488   107320471.19009      2091.953    20041344.096    83471507.28008
      1627.073  
  23334438.206   124517015.44705     -3540.401    23334443.853    96846599.13406
     -2753.648  
  19822135.579   105849098.09505       389.542    19822140.032    82327098.23006
       302.977  
  22199998.729   118588407.71806     -3417.417    22200004.594    92235452.17506
     -2657.995  
  21657074.937   115444400.47507      4041.770    21657081.572    89790126.45607
      3143.597  
  22854283.179   122255006.19104     -3607.125    22854288.298    95087243.33706
     -2805.147  
 20 09 28 09 30 40.0000000  0 15G20G24G25G21G11G32G12G10R 3R 4R 2R13
                                R12R14R19
  21510109.962   113036377.72048     -2887.383    21510109.684    88080287.86846
     -2249.913  
  21755908.271   114328079.58648     -2630.503    21755911.152    89086827.91347
     -2049.741  
  24194898.179   127145057.05546      3658.519    24194903.590    99074089.22945
      2850.789  
  23047267.563   121114216.74648      -427.405    23047266.726    94374716.86846
      -333.047  
  23905393.068   125623677.15047      -235.617    23905393.088    97888582.96345
      -183.601  
  21303984.811   111953235.96149      2062.636    21303987.327    87236312.46048
      1607.250  
  23107761.027   121432124.29848      2638.633    23107762.398    94622431.65846
      2056.077  
  20414270.861   107277726.37849      -447.683    20414273.052    83593043.04848
      -348.844  
  19764405.148   105800410.40209     -1418.292    19764407.494    82289221.72208
     -1103.120  
  20039388.816   107310014.84109      2090.323    20039391.403    83463374.57008
      1625.809  
  23337755.216   124534717.05705     -3540.652    23337761.207    96860367.04006
     -2753.844  
  19821772.473   105847159.37705       385.132    19821776.988    82325590.34106
       299.547  
  22203198.403   118605499.80006     -3419.762    22203204.236    92248746.00906
     -2659.820  
  21653284.335   115424194.65307      4040.008    21653291.044    89774410.82707
      3142.227  
  22857655.524   122273045.89704     -3608.770    22857660.695    95101274.20506
     -2806.824  
 20 09 28 09 30 45.0000000  0 15G20G24G25G21G11G32G12G10R 3R 4R 2R13
                                R12R14R19
  21512858.066   113050818.95148     -2889.269    21512857.773    88091540.77047
     -2251.382  
  21758412.077   114341237.05048     -2632.582    21758414.927    89097080.48747
     -2051.363  
  24191417.551   127126766.17447      3657.952    24191422.997    99059836.62745
      2850.355  
  23047675.293   121116359.25948      -429.839    23047674.508    94376386.35446
      -334.944  
  23905618.353   125624861.68847      -238.472    23905618.501    97889505.99045
      -185.828  
  21302022.866   111942926.18149      2061.332    21302025.497    87228278.87448
      1606.234  
  23105251.654   121418937.51248      2636.300    23105253.056    94612156.25746
      2054.261  
  20414698.180   107279972.01749      -450.562    20414700.391    83594792.89949
      -351.085  
  19765731.095   105807508.02309     -1420.714    19765733.457    82294742.09308
     -1105.004  
  20037437.891   107299567.85509      2088.449    20037440.465    83455249.13908
      1624.348  
  23341072.937   124552422.54904     -3541.733    23341079.331    96874137.98606
     -2754.688  
  19821413.749   105845243.62305       380.609    19821418.207    82324100.31206
       296.031  
  22206400.505   118622604.76106     -3422.679    22206406.284    92262049.87306
     -2662.090  
  21649495.492   115403998.55307      4038.188    21649502.348    89758702.76207
      3140.813  
  22861029.874   122291096.20804     -3610.983    22861035.036    95115313.32105
     -2808.227  
 20 09 28 09 30 50.0000000  0 15G20G24G25G21G11G32G12G10R 3R 4R 2R13
                                R12R14R19
  21515608.203   113065270.82848     -2891.323    21515607.902    88102801.96447
     -2252.983  
  21760917.957   114354405.50548     -2634.703    21760920.786    89107341.62447
     -2053.015  
  24187937.486   127108478.27546      3657.418    24187942.894    99045586.30945
      2849.937  
  23048085.653   121118515.58748      -432.679    23048084.965    94378066.60646
      -337.155  
  23905846.925   125626063.21547      -242.276    23905847.207    97890442.25545
      -188.789  
  21300062.391   111932624.10049      2059.636    21300065.101    87220251.28848
      1604.910  
  23102744.504   121405762.16648      2634.047    23102745.873    94601889.76346
      2052.504  
  20415128.379   107282232.75749      -453.688    20415130.580    83596554.51448
      -353.523  
  19767059.423   105814618.38309     -1423.395    19767061.769    82300272.37108
     -1107.090  
  20035488.843   107289130.78909      2086.448    20035491.387    83447131.42108
      1622.792  
  23344391.658   124570132.34805     -3542.319    23344398.137    96887912.23306
     -2755.145  
  19821059.340   105843351.32205       376.651    19821063.804    82322628.53006
       292.952  
  22209605.084   118639723.20106     -3425.070    22209610.882    92275364.20606
     -2663.948  
  21645708.638   115383812.92407      4035.940    21645715.571    89743002.84307
      3139.066  
  22864406.149   122309157.50304     -3613.948    22864411.403    95129360.98605
     -2810.852  
 20 09 28 09 30 55.0000000  0 15G20G24G25G21G11G32G12G10R 3R 4R 2R13
                                R12R14R19
  21518360.294   113079733.00948     -2893.344    21518360.015    88114071.18847
     -2254.559  
  21763425.828   114367584.54948     -2636.687    21763428.668    89117611.01047
     -2054.563  
  24184457.907   127090193.05746      3656.815    24184463.338    99031338.11245
      2849.469  
  23048498.584   121120685.33948      -435.093    23048497.953    94379757.31746
      -339.038  
  23906078.689   125627281.33347      -245.188    23906078.987    97891391.44744
      -191.054  
  21298103.340   111922329.37249      2058.550    21298106.103    87212229.42648
      1604.066  
  23100239.490   121392597.94948      2632.137    23100240.824    94591631.94546
      2051.016  
  20415561.397   107284508.34449      -456.500    20415563.602    83598327.69749
      -355.719  
  19768390.021   105821741.14609     -1425.590    19768392.353    82305812.29808
     -1108.800  
  20033541.524   107278703.29709      2084.749    20033544.142    83439021.15308
      1621.473  
  23347711.045   124587845.88805     -3543.394    23347717.598    96901689.38306
     -2755.983  
  19820709.184   105841482.19305       371.452    19820713.724    82321174.76406
       288.906  
  22212812.171   118656854.63806     -3427.152    22212817.890    92288688.64606
     -2665.565  
  21641923.633   115363637.24907      4034.565    21641930.640    89727310.66907
      3137.995  
  22867784.623   122327229.50004     -3615.062    22867789.756    95143416.98006
     -2811.719  
 20 09 28 09 31  0.0000000  0 15G20G24G25G21G11G32G12G10R 3R 4R 2R13
                                R12R14R19
  21521113.841   113094202.65348     -2894.733    21521113.563    88125346.22647
     -2255.640  
  21765935.175   114380771.50648     -2638.269    21765938.030    89127886.55647
     -2055.797  
  24180978.270   127071907.63146      3657.109    24180983.753    99017089.73045
      2849.694  
  23048913.468   121122865.69548      -437.105    23048912.924    94381456.30446
      -340.602  
  23906313.070   125628513.29347      -247.988    23906313.467    97892351.41845
      -193.237  
  21296145.147   111912039.15349      2057.598    21296147.955    87204211.07448
      1603.324  
  23097736.072   121379442.02148      2630.105    23097737.353    94581380.58646
      2049.433  
  20415996.691   107286795.89649      -458.734    20415998.909    83600110.20748
      -357.456  
  19769722.421   105828873.43409     -1427.484    19769724.710    82311359.63408
     -1110.272  
  20031595.502   107268282.49809      2083.464    20031598.156    83430916.09708
      1620.472  
  23351030.739   124605560.88505     -3542.672    23351037.243    96915467.70606
     -2755.414  
  19820362.826   105839633.28605       367.581    19820367.425    82319736.73206
       285.897  
  22216021.173   118673996.27007     -3429.559    22216026.832    92302021.02706
     -2667.438  
  21638139.971   115343468.82807      4032.566    21638147.060    89711624.13007
      3136.440  
  22871164.528   122345309.17804     -3616.633    22871169.529    95157478.94205
     -2812.940  
 20 09 28 09 31  5.0000000  0 15G20G24G25G21G11G32G12G10R 3R 4R 2R13
                                R12R14R19
  21523869.778   113108685.01348     -2897.891    21523869.506    88136631.16547
     -2258.102  
  21768446.997   114393971.50148     -2641.418    21768449.906    89138172.26547
     -2058.249  
  24177499.602   127053627.29346      3655.526    24177505.113    99002845.31146
      2848.460  
  23049331.382   121125061.87648      -440.776    23049330.907    94383167.62446
      -343.461  
  23906551.094   125629764.21347      -252.035    23906551.525    97893326.16345
      -196.391  
  21294188.822   111901758.72349      2054.979    21294191.656    87196200.35848
      1601.285  
  23095235.220   121366299.64148      2627.086    23095236.460    94571139.78646
      2047.078  
  20416435.269   107289100.66649      -462.702    20416437.485    83601906.13248
      -360.551  
  19771057.548   105836020.44109     -1430.848    19771059.825    82316918.42208
     -1112.883  
  20029651.724   107257873.75109      2080.554    20029654.412    83422820.41008
      1618.210  
  23354351.590   124623281.83205     -3544.934    23354357.991    96929250.60305
     -2757.183  
  19820021.423   105837810.05805       362.211    19820025.963    82318318.66806
       281.718  
  22219233.030   118691153.27707     -3433.051    22219238.645    92315365.36706
     -2670.155  
  21634358.686   115323312.95007      4030.059    21634365.814    89695947.35907
      3134.488  
  22874546.772   122363401.96404     -3619.597    22874551.721    95171551.09605
     -2815.358  
 20 09 28 09 31 10.0000000  0 15G20G24G25G21G11G32G12G10R 3R 4R 2R13
                                R12R14R19
  21526627.856   113123178.65348     -2899.223    21526627.621    88147924.90246
     -2259.137  
  21770961.058   114407183.13948     -2642.843    21770964.002    89148467.03947
     -2059.362  
  24174021.553   127035350.67746      3655.335    24174027.111    98988603.78745
      2848.312  
  23049752.049   121127272.56048      -442.957    23049751.652    94384890.22446
      -345.163  
  23906792.532   125631032.79047      -255.015    23906792.952    97894314.67145
      -198.715  
  21292234.096   111891486.66249      2054.168    21292236.940    87188196.15448
      1600.647  
  23092736.719   121353169.46248      2625.464    23092737.820    94560908.49046
      2045.815  
  20416876.850   107291421.25549      -465.195    20416879.077    83603714.37948
      -362.491  
  19772395.181   105843180.95809     -1432.922    19772397.492    82322487.71208
     -1114.496  
  20027709.916   107247475.64409      2079.190    20027712.647    83414732.99608
      1617.148  
  23357673.482   124641007.99005     -3545.190    23357679.786    96943037.59805
     -2757.378  
  19819684.432   105836011.07405       357.797    19819689.058    82316919.46706
       278.285  
  22222447.528   118708324.42007     -3435.148    22222453.171    92328720.69806
     -2671.785  
  21630579.467   115303168.18007      4028.300    21630586.664    89680279.21707
      3133.120  
  22877931.186   122381506.36304     -3621.414    22877936.092    95185632.28505
     -2816.660  
 20 09 28 09 31 15.0000000  0 15G20G24G25G21G11G32G12G10R 3R 4R 2R13
                                R12R14R19
  21529387.664   113137681.32148     -2901.483    21529387.452    88159225.67046
     -2260.901  
  21773476.909   114420404.11748     -2645.214    21773479.917    89158769.10147
     -2061.211  
  24170543.813   127017075.49946      3654.531    24170549.420    98974363.41245
      2847.683  
  23050175.004   121129495.39148      -445.926    23050174.647    94386622.31946
      -347.476  
  23907036.874   125632316.69247      -258.378    23907037.144    97895315.09645
      -201.340  
  21290280.552   111881220.71849      2052.394    21290283.382    87180196.72248
      1599.269  
  23090240.073   121340049.21848      2622.866    23090241.135    94550684.95346
      2043.796  
  20417321.020   107293755.41749      -468.194    20417323.270    83605533.21248
      -364.828  
  19773734.891   105850352.68709     -1435.617    19773737.277    82328065.72608
     -1116.589  
  20025769.680   107237085.89609      2076.972    20025772.414    83406652.08608
      1615.421  
  23360995.679   124658736.45906     -3545.929    23361002.075    96956826.36306
     -2757.956  
  19819351.597   105834234.03405       352.609    19819356.276    82315537.32606
       274.250  
  22225664.205   118725507.30107     -3437.878    22225669.909    92342085.15706
     -2673.909  
  21626801.935   115283032.24907      4026.297    21626809.166    89664617.95407
      3131.563  
  22881317.429   122399620.23204     -3623.715    22881322.250    95199720.84505
     -2818.449  
 20 09 28 09 31 20.0000000  0 15G20G24G25G21G11G32G12G10R 3R 4R 2R13
                                R12R14R19
  21532149.241   113152193.34948     -2903.309    21532149.037    88170533.74247
     -2262.323  
  21775994.642   114433634.92748     -2647.113    21775997.712    89169078.83247
     -2062.687  
  24167066.433   126998802.11946      3654.605    24167072.105    98960124.41946
      2847.745  
  23050600.372   121131730.77748      -448.183    23050600.052    94388364.15646
      -349.237  
  23907284.224   125633616.30247      -261.187    23907284.454    97896327.78945
      -203.527  
  21288328.243   111870961.26549      2051.281    21288331.036    87172202.34748
      1598.402  
  23087745.358   121326939.24848      2621.004    23087746.385    94540469.39746
      2042.340  
  20417767.834   107296103.50349      -470.887    20417770.103    83607362.88948
      -366.930  
  19775076.740   105857535.86309     -1437.671    19775079.245    82333652.64508
     -1118.187  
  20023831.083   107226704.79809      2075.465    20023833.773    83398577.90208
      1614.249  
  23364318.653   124676468.23906     -3546.902    23364325.096    96970617.72906
     -2758.711  
  19819023.008   105832479.20205       348.382    19819027.652    82314172.45706
       270.964  
  22228883.205   118742702.15307     -3439.952    22228888.924    92355458.91906
     -2675.522  
  21623026.160   115262905.58507      4024.477    21623033.396    89648963.88707
      3130.148  
  22884705.669   122417743.65304     -3625.909    22884710.209    95213816.83605
     -2820.156  
 20 09 28 09 31 25.0000000  0 15G20G24G25G21G11G32G12G10R 3R 4R 2R13
                                R12R14R19
  21534913.081   113166717.42748     -2905.956    21534912.911    88181851.18746
     -2264.387  
  21778514.710   114446878.15848     -2649.772    21778517.877    89179398.23547
     -2064.762  
  24163589.889   126980533.25946      3653.624    24163595.561    98945888.95645
      2846.976  
  23051028.655   121133981.35648      -451.558    23051028.300    94390117.85246
      -351.866  
  23907535.093   125634934.28647      -265.589    23907535.228    97897354.79445
      -206.952  
  21286377.661   111860710.95149      2049.352    21286380.421    87164215.09448
      1596.898  
  23085253.074   121313842.26548      2618.242    23085254.125    94530263.97846
      2040.187  
  20418217.811   107298468.17749      -474.465    20418220.093    83609205.48848
      -369.714  
  19776421.239   105864733.29009     -1440.730    19776423.899    82339250.65108
     -1120.613  
  20021894.585   107216335.21509      2073.026    20021897.269    83390512.68007
      1612.355  
  23367642.679   124694205.37906     -3547.624    23367649.184    96984413.27206
     -2759.270  
  19818699.165   105830749.49305       343.676    19818703.758    82312827.13506
       267.305  
  22232104.972   118759911.88107     -3443.305    22232110.719    92368844.26206
     -2678.129  
  21619252.634   115242790.88207      4021.647    21619259.886    89633319.12807
      3127.948  
  22888095.916   122435879.31404     -3628.991    22888100.462    95227922.33905
     -2822.555  
 20 09 28 09 31 30.0000000  0 15G20G24G25G21G11G32G12G10R 3R 4R 2R13
                                R12R14R19
  21537678.608   113181250.52848     -2907.468    21537678.487    88193175.66546
     -2265.562  
  21781036.520   114460130.67348     -2651.461    21781039.789    89189724.85547
     -2066.077  
  24160113.681   126962265.94147      3653.304    24160119.335    98931654.70545
      2846.733  
  23051459.271   121136244.07348      -453.832    23051458.896    94391881.00946
      -353.641  
  23907788.847   125636267.58647      -268.207    23907789.093    97898393.73445
      -208.991  
  21284428.243   111850466.78049      2048.324    21284430.969    87156232.63048
      1596.098  
  23082762.703   121300755.27847      2616.473    23082763.705    94520066.34246
      2038.809  
  20418670.368   107300846.44249      -476.925    20418672.692    83611058.68348
      -371.633  
  19777767.815   105871941.86709     -1442.858    19777770.643    82344857.32708
     -1122.222  
  20019959.631   107205973.96909      2071.280    20019962.266    83382453.93207
      1610.995  
  23370967.194   124711945.56306     -3548.008    23370973.918    96998211.18206
     -2759.566  
  19818379.304   105829041.73605       339.421    19818383.966    82311498.88406
       263.995  
  22235328.891   118777133.25507     -3445.229    22235334.655    92382238.66006
     -2679.629  
  21615480.737   115222685.07807      4019.831    21615488.076    89617681.29107
      3126.534  
  22891487.972   122454024.24604     -3629.910    22891492.470    95242035.04905
     -2823.270  
 20 09 28 09 31 35.0000000  0 15G20G24G25G21G11G32G12G10R 3R 4R 2R13
                                R12R14R19
  21540446.243   113195794.67548     -2910.469    21540446.145    88204508.76046
     -2267.901  
  21783560.519   114473394.53648     -2654.199    21783563.854    89200060.32747
     -2068.211  
  24156638.118   126944002.17247      3651.929    24156643.808    98917423.19245
      2845.655  
  23051892.620   121138521.05348      -457.249    23051892.182    94393655.27546
      -356.301  
  23908045.880   125637618.30047      -272.367    23908046.184    97899446.23145
      -212.238  
  21282480.378   111840230.80749      2045.977    21282483.090    87148256.54848
      1594.265  
  23080274.601   121287680.36947      2613.405    23080275.619    94509878.11046
      2036.422  
  20419125.889   107303240.31849      -480.707    20419128.240    83612924.04648
      -374.578  
  19779116.885   105879163.70109     -1446.027    19779119.817    82350474.30708
     -1124.690  
  20018026.664   107195623.26909      2068.675    20018029.255    83374403.38607
      1608.964  
  23374292.554   124729690.19506     -3549.550    23374299.549    97012012.56906
     -2760.761  
  19818064.033   105827358.01505       334.020    19818068.676    82310189.33206
       259.793  
  22238555.378   118794368.31907     -3448.948    22238561.060    92395643.71605
     -2682.520  
  21611710.905   115202590.22307      4017.426    21611718.350    89602051.97007
      3124.664  
  22894882.147   122472180.54004     -3633.874    22894886.599    95256156.58805
     -2826.511  
 20 09 28 09 31 40.0000000  0 15G20G24G25G21G11G32G12G10R 3R 4R 2R13
                                R12R14R19
  21543215.987   113210350.02348     -2911.824    21543215.934    88215850.58546
     -2268.956  
  21786086.722   114486669.97648     -2655.792    21786090.117    89210404.82347
     -2069.453  
  24153163.320   126925742.14646      3652.070    24153168.996    98903194.60645
      2845.770  
  23052328.699   121140812.41548      -459.308    23052328.213    94395440.74946
      -357.905  
  23908306.256   125638986.55647      -274.746    23908306.535    97900512.41844
      -214.085  
  21280534.113   111830003.17949      2045.194    21280536.808    87140286.97548
      1593.659  
  23077788.823   121274617.71047      2611.819    23077789.792    94499699.40946
      2035.184  
  20419584.430   107305649.99349      -483.031    20419586.779    83614801.71548
      -376.386  
  19780468.487   105886398.83809     -1447.847    19780471.439    82356101.63608
     -1126.104  
  20016095.651   107185283.12609      2067.449    20016098.224    83366361.05207
      1608.015  
  23377618.902   124747439.85506     -3550.022    23377626.127    97025817.85106
     -2761.132  
  19817753.204   105825698.42305       329.977    19817757.896    82308898.54006
       256.648  
  22241784.471   118811617.24307     -3450.527    22241790.049    92409059.54705
     -2683.746  
  21607943.216   115182506.66407      4016.007    21607950.772    89586431.43107
      3123.563  
  22898278.290   122490348.43004     -3634.027    22898282.908    95270287.16205
     -2826.469  
 20 09 28 09 31 45.0000000  0 15G20G24G25G21G11G32G12G10R 3R 4R 2R13
                                R12R14R19
  21545987.494   113224914.51748     -2913.819    21545987.478    88227199.53046
     -2270.512  
  21788614.731   114499954.78748     -2657.926    21788618.124    89220756.62147
     -2071.113  
  24149688.832   126907483.86646      3651.620    24149694.346    98888967.39945
      2845.417  
  23052767.131   121143116.13948      -461.995    23052766.537    94397235.86446
      -360.000  
  23908569.551   125640370.39847      -278.535    23908569.827    97901590.74244
      -217.038  
  21278589.079   111819781.89349      2043.499    21278591.733    87132322.34048
      1592.335  
  23075304.989   121261565.29247      2609.219    23075305.963    94489528.69946
      2033.152  
  20420045.594   107308073.43149      -486.241    20420047.922    83616690.11148
      -378.895  
  19781822.244   105893645.48109     -1450.581    19781825.158    82361737.91608
     -1128.229  
  20014166.269   107174951.59209      2065.413    20014168.809    83358325.41707
      1606.430  
  23380945.735   124765192.22207     -3551.090    23380953.148    97039625.25606
     -2761.957  
  19817446.483   105824060.93006       324.785    19817451.223    82307624.93406
       252.609  
  22245015.727   118828878.03407     -3453.750    22245021.270    92422484.61705
     -2686.250  
  21604177.304   115162432.23107      4013.921    21604184.929    89570817.99107
      3121.937  
  22901676.327   122508525.57404     -3635.699    22901680.949    95284424.91405
     -2827.773  
 20 09 28 09 31 50.0000000  0 15G20G24G25G21G11G32G12G10R 3R 4R 2R13
                                R12R14R19
  21548760.762   113239488.35948     -2915.930    21548760.768    88238555.75446
     -2272.156  
  21791144.617   114513249.33048     -2660.136    21791148.000    89231116.01047
     -2072.835  
  24146214.745   126889227.50846      3650.949    24146220.106    98874741.65846
      2844.895  
  23053207.891   121145432.35348      -464.387    23053207.259    94399040.70246
      -361.863  
  23908835.868   125641769.93547      -282.081    23908835.979    97902681.27744
      -219.809  
  21276645.287   111809567.10249      2042.167    21276647.908    87124362.76748
      1591.301  
  23072823.121   121248523.20447      2607.043    23072824.074    94479366.06146
      2031.461  
  20420509.414   107310510.78649      -488.999    20420511.712    83618589.35048
      -381.038  
  19783178.134   105900903.51409     -1452.957    19783180.974    82367383.04808
     -1130.082  
  20012238.571   107164628.82409      2063.339    20012241.053    83350296.60107
      1604.820  
  23384273.171   124782947.49507     -3551.793    23384280.705    97053434.91406
     -2762.504  
  19817144.038   105822445.66905       320.691    19817148.739    82306368.62806
       249.425  
  22248249.294   118846150.69807     -3455.637    22248254.646    92435918.91805
     -2687.719  
  21600413.155   115142367.13707      4011.887    21600420.862    89555211.81907
      3120.354  
  22905076.166   122526712.20103     -3638.534    22905080.726    95298570.04405
     -2829.980  
 20 09 28 09 31 55.0000000  0 14G20G24G25G21G11G32G12G10R 3R 4R 2R13
                                R12R14
  21551536.254   113254073.91948     -2918.555    21551536.324    88249921.12946
     -2274.202  
  21793676.822   114526556.03648     -2662.570    21793680.166    89241484.86947
     -2074.734  
  24142741.455   126870975.46946      3649.897    24142746.677    98860519.29745
      2844.077  
  23053651.508   121147763.54148      -468.074    23053650.891    94400857.20546
      -364.738  
  23909105.566   125643187.55347      -285.355    23909105.601    97903785.92844
      -222.358  
  21274703.197   111799361.22949      2040.190    21274705.782    87116410.14948
      1589.758  
  23070343.688   121235493.94747      2604.391    23070344.645    94469213.39946
      2029.395  
  20420976.354   107312964.50949      -492.495    20420978.610    83620501.34248
      -383.765  
  19784536.653   105908175.52109     -1455.890    19784539.362    82373039.04908
     -1132.363  
  20010312.937   107154317.29809      2061.031    20010315.443    83342276.53507
      1603.023  
  23387601.575   124800708.15507     -3552.781    23387609.243    97067248.76905
     -2763.273  
  19816846.110   105820855.21805       314.871    19816850.928    82305131.61006
       244.898  
  22251485.524   118863437.87206     -3458.987    22251490.662    92449364.50305
     -2690.323  
  21596651.222   115122313.82607      4009.628    21596658.928    89539614.80007
      3118.601  
 20 09 28 09 32  0.0000000  0 14G20G24G25G21G11G32G12G10R 3R 4R 2R13
                                R12R14
  21554313.617   113268669.24848     -2920.335    21554313.676    88261294.10646
     -2275.590  
  21796210.940   114539872.85248     -2664.656    21796214.227    89251861.61247
     -2076.359  
  24139268.665   126852725.89346      3649.230    24139273.760    98846298.87345
      2843.558  
  23054097.591   121150107.72648      -470.421    23054096.935    94402683.84046
      -366.565  
  23909378.373   125644621.32147      -288.812    23909378.198    97904903.16444
      -225.050  
  21272762.454   111789162.36449      2038.668    21272764.989    87108462.98848
      1588.573  
  23067866.346   121222475.58247      2602.429    23067867.204    94459069.22446
      2027.867  
  20421446.035   107315432.64049      -495.597    20421448.241    83622424.56048
      -386.183  
  19785897.369   105915459.47909     -1458.430    19785899.961    82378704.34708
     -1134.339  
  20008389.074   107144015.10209      2058.995    20008391.604    83334263.71907
      1601.440  
  23390930.670   124818472.37007     -3553.772    23390938.446    97081065.38505
     -2764.047  
  19816552.496   105819287.55805       310.526    19816557.379    82303912.32106
       241.515  
  22254724.074   118880737.40506     -3461.523    22254728.962    92462819.70304
     -2692.296  
  21592891.170   115102270.41208      4007.300    21592898.845    89524025.49207
      3116.789  
 20 09 28 09 32  5.0000000  0 14G20G24G25G21G11G32G12G10R 3R 4R 2R13
                                R12R14
  21557093.204   113283276.29048     -2922.551    21557093.307    88272676.20046
     -2277.315  
  21798747.354   114553201.70248     -2667.082    21798750.561    89262247.72547
     -2078.250  
  24135796.697   126834480.67546      3649.085    24135801.810    98832081.81945
      2843.441  
  23054546.491   121152466.80348      -473.375    23054545.837    94404522.07746
      -368.866  
  23909654.631   125646073.12947      -292.210    23909654.383    97906034.44244
      -227.699  
  21270823.416   111778972.40449      2037.042    21270825.867    87100522.76248
      1587.305  
  23065391.469   121209470.01447      2599.784    23065392.287    94448935.04146
      2025.805  
  20421918.822   107317917.11949      -498.601    20421920.975    83624360.51348
      -388.523  
  19787260.683   105922757.40409     -1461.113    19787263.161    82384380.50808
     -1136.426  
  20006467.311   107133724.14609      2057.054    20006469.901    83326259.64607
      1599.930  
  23394260.771   124836241.96007     -3554.448    23394268.519    97094886.17605
     -2764.569  
  19816263.575   105817744.67005       306.016    19816268.467    82302712.29306
       238.008  
  22257965.234   118898051.22506     -3464.379    22257969.934    92476286.03504
     -2694.511  
  21589133.402   115082238.83308      4005.008    21589140.961    89508445.39207
      3115.008  
 20 09 28 09 32 10.0000000  0 14G20G24G25G21G11G32G12G10R 3R 4R 2R13
                                R12R14
  21559874.574   113297892.77048     -2923.718    21559874.713    88284065.65546
     -2278.227  
  21801285.651   114566540.44848     -2668.003    21801288.772    89272641.55747
     -2078.964  
  24132325.146   126816237.64446      3648.909    24132330.269    98817866.50145
      2843.308  
  23054997.833   121154838.52548      -474.855    23054997.184    94406370.17546
      -370.020  
  23909933.930   125647540.78947      -294.644    23909933.660    97907178.06744
      -229.597  
  21268885.642   111768789.17549      2036.542    21268888.002    87092587.78148
      1586.917  
  23062918.633   121196475.11047      2598.507    23062919.371    94438809.14346
      2024.812  
  20422394.296   107320415.72349      -500.551    20422396.382    83626307.47548
      -390.043  
  19788626.163   105930066.95509     -1462.535    19788628.524    82390065.70308
     -1137.530  
  20004547.207   107123442.17009      2056.175    20004549.891    83318262.55707
      1599.246  
  23397591.434   124854014.64007     -3554.246    23397599.142    97108709.37405
     -2764.418  
  19815978.694   105816224.29605       302.727    19815983.744    82301529.78406
       235.449  
  22261208.672   118915377.18106     -3465.824    22261213.177    92489761.80404
     -2695.637  
  21585377.369   115062216.90708      4004.081    21585384.819    89492872.79907
      3114.285  
 20 09 28 09 32 15.0000000  0 14G20G24G25G21G11G32G12G10R 3R 4R 2R13
                                R12R14
  21562657.683   113312518.32748     -2926.499    21562657.894    88295462.19147
     -2280.394  
  21803825.729   114579888.46548     -2670.906    21803828.740    89283042.61547
     -2081.226  
  24128853.926   126797996.38546      3647.690    24128858.930    98803652.54345
      2842.355  
  23055451.478   121157222.60748      -478.250    23055450.888    94408227.89546
      -372.667  
  23910216.149   125649023.92447      -298.429    23910215.676    97908333.77844
      -232.542  
  21266949.068   111758612.25349      2034.511    21266951.316    87084657.71748
      1585.331  
  23060447.725   121183490.49747      2595.710    23060448.462    94428691.27946
      2022.633  
  20422872.395   107322928.05649      -504.065    20422874.432    83628265.13748
      -392.777  
  19789993.766   105937387.93808     -1465.523    19789996.016    82395759.79507
     -1139.855  
  20002628.739   107113168.80009      2053.645    20002631.509    83310272.16008
      1597.276  
  23400922.677   124871790.29307     -3555.483    23400930.254    97122534.87904
     -2765.378  
  19815698.020   105814726.04405       297.019    19815703.100    82300364.47206
       231.011  
  22264454.202   118932714.84606     -3468.784    22264458.774    92503246.66405
     -2697.945  
  21581623.101   115042204.26408      4001.352    21581630.404    89477307.42407
      3112.164  
 20 09 28 09 32 20.0000000  0 14G20G24G25G21G11G32G12G10R 3R 4R 2R13
                                R12R14
  21565442.764   113327154.24748     -2928.188    21565443.001    88306866.80346
     -2281.707  
  21806367.819   114593247.11348     -2673.004    21806370.737    89293451.95047
     -2082.858  
  24125383.355   126779758.19146      3647.156    24125388.219    98789440.93745
      2841.941  
  23055907.728   121159620.24348      -481.137    23055907.174    94410096.18446
      -374.914  
  23910501.511   125650523.82347      -302.019    23910501.059    97909502.53345
      -235.339  
  21265013.944   111748442.92349      2033.011    21265016.058    87076733.56848
      1584.164  
  23057979.041   121170517.44347      2593.272    23057979.760    94418582.42146
      2020.734  
  20423353.348   107325455.41749      -507.081    20423355.328    83630234.51448
      -395.128  
  19791363.730   105944721.49308     -1468.129    19791365.882    82401463.67508
     -1141.882  
  20000712.100   107102905.35009      2051.616    20000714.964    83302289.47508
      1595.815  
  23404254.695   124889569.76907     -3556.382    23404262.007    97136363.35904
     -2766.077  
  19815421.830   105813251.08405       292.707    19815426.784    82299217.28606
       227.660  
  22267702.286   118950065.40306     -3471.824    22267706.932    92516741.54005
     -2700.309  
  21577870.826   115022202.09208      3999.120    21577877.968    89461750.19407
      3110.426  
 20 09 28 09 32 25.0000000  0 14G20G24G25G21G11G32G12G10R 3R 4R 2R13
                                R12R14
  21568229.956   113341801.19648     -2930.684    21568230.252    88318280.00146
     -2283.651  
  21808912.121   114606617.32148     -2675.440    21808914.944    89303870.30047
     -2084.757  
  24121913.513   126761523.82946      3646.612    24121918.195    98775232.36145
      2841.515  
  23056366.727   121162032.17848      -484.148    23056366.180    94411975.61046
      -377.261  
  23910790.234   125652041.16847      -305.426    23910789.896    97910684.89444
      -237.991  
  21263080.420   111738281.93749      2031.210    21263082.420    87068815.92248
      1582.762  
  23055512.667   121157556.71648      2590.729    23055513.366    94408483.16945
      2018.749  
  20423837.300   107327998.51149      -510.363    20423839.232    83632216.14248
      -397.690  
  19792736.172   105952068.28109     -1470.859    19792738.247    82407177.83808
     -1143.925  
  19998797.466   107092652.50509      2049.301    19998800.356    83294315.04107
      1593.898  
  23407587.481   124907353.86806     -3557.542    23407594.601    97150195.42604
     -2766.979  
  19815150.266   105811800.25605       287.323    19815154.996    82298088.87906
       223.473  
  22270952.742   118967429.62906     -3474.515    22270957.638    92530247.03205
     -2702.406  
  21574120.692   115002211.23308      3996.719    21574127.624    89446201.76307
      3108.559  
 20 09 28 09 32 30.0000000  0 14G20G24G25G21G11G32G12G10R 3R 4R 2R13
                                R12R14
  21571019.160   113356458.62348     -2932.245    21571019.537    88329701.37846
     -2284.870  
  21811458.460   114619998.29948     -2676.937    21811461.244    89314297.03647
     -2085.930  
  24118444.308   126743292.78746      3645.979    24118449.075    98761026.36545
      2841.023  
  23056828.306   121164457.82448      -486.292    23056827.756    94413865.71846
      -378.933  
  23911082.207   125653575.43547      -308.152    23911081.945    97911880.41245
      -240.120  
  21261148.366   111728128.70149      2030.266    21261150.246    87060904.30648
      1582.020  
  23053048.550   121144607.69348      2588.977    23053049.237    94398393.03545
      2017.383  
  20424324.133   107330556.77449      -512.703    20424326.052    83634209.59048
      -399.512  
  19794110.987   105959427.86709     -1472.844    19794113.064    82412901.95608
     -1145.550  
  19996884.724   107082409.82909      2047.895    19996887.630    83286348.51008
      1592.805  
  23410921.093   124925142.25407     -3557.495    23410928.018    97164030.84504
     -2766.940  
  19814882.959   105810372.88206       283.112    19814887.635    82296978.70306
       220.198  
  22274205.759   118984806.94506     -3476.229    22274210.701    92543762.72405
     -2703.738  
  21570372.542   114982231.14008      3995.343    21570379.322    89430661.70307
      3107.487  
 20 09 28 09 32 35.0000000  0 14G20G24G25G21G11G32G12G10R 3R 4R 2R13
                                R12R14
  21573810.229   113371125.76048     -2934.461    21573810.625    88341130.32346
     -2286.593  
  21814006.740   114633389.31748     -2679.105    21814009.448    89324731.59947
     -2087.613  
  24114975.541   126725064.16447      3645.539    24114980.289    98746822.26645
      2840.680  
  23057292.354   121166896.41248      -489.215    23057291.797    94415765.92146
      -381.210  
  23911377.250   125655125.77147      -311.581    23911377.140    97913088.46845
      -242.796  
  21259217.644   111717982.47449      2028.453    21259219.445    87052998.15548
      1580.612  
  23050586.530   121131669.66348      2586.461    23050587.154    94388311.46445
      2015.426  
  20424813.702   107333129.44349      -515.983    20424815.607    83636214.26748
      -402.069  
  19795488.063   105966799.46109     -1475.496    19795490.185    82418635.42208
     -1147.608  
  19994973.722   107072176.44009      2045.616    19994976.669    83278389.20608
      1591.031  
  23414255.451   124942934.12506     -3558.538    23414262.041    97177868.96204
     -2767.754  
  19814619.958   105808968.31806       278.609    19814624.577    82295886.27206
       216.695  
  22277461.171   119002196.49006     -3478.969    22277465.987    92557287.93505
     -2705.863  
  21566626.280   114962260.98608      3992.874    21566632.892    89415129.37207
      3105.570  
 20 09 28 09 32 40.0000000  0 14G20G24G25G21G11G32G12G10R 3R 4R 2R13
                                R12R14
  21576603.062   113385802.13048     -2936.499    21576603.459    88352566.44846
     -2288.188  
  21816556.785   114646789.73748     -2681.175    21816559.478    89335173.48547
     -2089.230  
  24111507.174   126706837.61747      3644.836    24111511.950    98732619.78045
      2840.136  
  23057758.779   121169347.45848      -492.074    23057758.206    94417675.81646
      -383.437  
  23911675.284   125656691.76247      -315.105    23911675.312    97914308.74645
      -245.534  
  21257288.149   111707842.75249      2027.023    21257289.899    87045097.08248
      1579.500  
  23048126.538   121118742.15848      2584.132    23048127.150    94378238.09846
      2013.609  
  20425305.919   107335716.02949      -518.925    20425307.841    83638229.78848
      -404.362  
  19796867.243   105974182.47509     -1477.944    19796869.477    82424377.76608
     -1149.516  
  19993064.357   107061951.87609      2043.707    19993067.402    83270436.77108
      1589.547  
  23417590.192   124960728.59706     -3559.366    23417596.597    97191709.10804
     -2768.398  
  19814361.114   105807586.07606       274.179    19814365.737    82294811.20206
       213.249  
  22280718.734   119019597.77906     -3481.809    22280723.513    92570822.26505
     -2708.078  
  21562881.786   114942300.32008      3990.792    21562888.286    89399604.41807
      3103.949  
 20 09 28 09 32 45.0000000  0 14G20G24G25G21G11G32G12G10R 3R 4R 2R13
                                R12R14
  21579398.223   113400490.74248     -2938.815    21579398.654    88364012.11846
     -2289.992  
  21819109.230   114660202.74148     -2683.824    21819111.887    89345625.17247
     -2091.297  
  24108039.779   126688616.17746      3643.644    24108044.434    98718421.28444
      2839.203  
  23058228.134   121171813.99948      -494.949    23058227.550    94419597.79645
      -385.680  
  23911976.850   125658276.37547      -318.847    23911976.935    97915543.49844
      -248.456  
  21255360.450   111697712.59449      2024.945    21255362.180    87037203.45748
      1577.878  
  23045669.131   121105828.21348      2581.723    23045669.667    94368175.30246
      2011.729  
  20425801.366   107338319.59149      -522.429    20425803.305    83640258.53948
      -407.093  
  19798249.156   105981580.12209     -1480.879    19798251.500    82430131.48508
     -1151.797  
  19991157.226   107051739.33509      2041.328    19991160.387    83262493.68608
      1587.694  
  23420926.080   124978529.31406     -3560.522    23420932.422    97205554.11404
     -2769.297  
  19814107.005   105806229.17905       268.882    19814111.672    82293755.84206
       209.133  
  22283979.052   119037013.87106     -3484.804    22283983.903    92584368.11805
     -2710.401  
  21559139.681   114922352.29808      3988.335    21559146.045    89384089.30007
      3102.038  
 20 09 28 09 32 50.0000000  0 14G20G24G25G21G11G32G12G10R 3R 4R 2R13
                                R12R14
  21582195.230   113415188.89148     -2939.766    21582195.617    88375465.21546
     -2290.730  
  21821663.564   114673625.54548     -2684.729    21821666.131    89356084.50047
     -2091.999  
  24104572.811   126670397.10646      3644.339    24104577.449    98704224.59145
      2839.745  
  23058699.908   121174293.28448      -496.219    23058699.272    94421529.70146
      -386.668  
  23912281.470   125659876.91347      -320.738    23912281.531    97916790.67344
      -249.925  
  21253434.042   111687589.25049      2024.819    21253435.781    87029315.14348
      1577.781  
  23043213.801   121092925.14548      2580.351    23043214.260    94358120.97746
      2010.663  
  20426299.495   107340937.37149      -524.184    20426301.498    83642298.36748
      -408.453  
  19799633.281   105988989.48309     -1482.194    19799635.700    82435894.32408
     -1152.823  
  19989251.820   107041535.94309      2040.543    19989255.059    83254557.71708
      1587.090  
  23424262.579   124996333.19906     -3560.688    23424268.788    97219401.58404
     -2769.421  
  19813857.087   105804894.84505       265.249    19813861.868    82292718.02006
       206.300  
  22287241.662   119054442.02406     -3486.336    22287246.588    92597923.34905
     -2711.598  
  21555399.410   114902414.07908      3987.289    21555405.653    89368581.81407
      3101.226  
 20 09 28 09 32 55.0000000  0 14G20G24G25G21G11G32G12G10R 3R 4R 2R13
                                R12R14
  21584993.886   113429895.74248     -2942.719    21584994.259    88386925.08946
     -2293.030  
  21824219.596   114687057.33348     -2687.836    21824222.115    89366550.82747
     -2094.422  
  24101106.130   126652179.69946      3642.897    24101110.829    98690029.20845
      2838.621  
  23059173.990   121176784.56948      -499.953    23059173.278    94423470.95646
      -389.577  
  23912588.949   125661492.60647      -325.183    23912589.020    97918049.63545
      -253.394  
  21251508.786   111677471.96349      2022.417    21251510.542    87021431.54848
      1575.910  
  23040760.366   121080032.19648      2577.133    23040760.755    94348074.53546
      2008.155  
  20426800.176   107343568.58849      -528.108    20426802.240    83644348.66648
      -411.515  
  19801019.467   105996409.96808     -1485.773    19801021.993    82441665.81808
     -1155.605  
  19987347.938   107031340.86908      2037.589    19987351.232    83246628.22208
      1584.792  
  23427599.485   125014139.53706     -3561.729    23427605.696    97233250.96304
     -2770.234  
  19813611.251   105803582.31305       259.944    19813616.163    82291697.15906
       202.176  
  22290506.348   119071881.32806     -3489.534    22290511.421    92611487.25706
     -2714.082  
  21551660.837   114882484.94008      3984.371    21551666.964    89353081.39207
      3098.957  
 20 09 28 09 33  0.0000000  0 14G20G24G25G21G11G32G12G10R 3R 4R 2R13
                                R12R14
  21587794.486   113444612.71048     -2944.694    21587794.846    88398392.84046
     -2294.569  
  21826777.623   114700499.51348     -2689.776    21826780.084    89377025.25247
     -2095.933  
  24097640.061   126633965.29046      3642.401    24097644.715    98675836.17445
      2838.233  
  23059650.619   121179289.23748      -502.280    23059649.836    94425422.63145
      -391.391  
  23912899.611   125663124.86147      -328.358    23912899.554    97919321.52944
      -255.863  
  21249584.948   111667362.15749      2021.035    21249586.742    87013553.78248
      1574.831  
  23038309.110   121067150.78948      2574.897    23038309.461    94338037.08346
      2006.414  
  20427303.689   107346214.69449      -531.015    20427305.809    83646410.57048
      -413.776  
  19802407.969   106003842.76108     -1488.082    19802410.569    82447446.88208
     -1157.398  
  19985445.894   107021155.60308      2035.754    19985449.207    83238706.35307
      1583.363  
  23430937.109   125031949.67706     -3562.535    23430943.264    97247103.29504
     -2770.862  
  19813369.776   105802293.03905       255.655    19813374.767    82290694.38706
       198.840  
  22293773.453   119089333.27306     -3492.011    22293778.609    92625060.98006
     -2716.011  
  21547924.171   114862566.37908      3982.531    21547930.257    89337589.18607
      3097.522  
 20 09 28 09 33  5.0000000  0 14G20G24G25G21G11G32G12G10R 3R 4R 2R13
                                R12R14
  21590597.414   113459341.85648     -2946.577    21590597.730    88409870.08646
     -2296.038  
  21829338.014   114713954.17348     -2691.722    21829340.438    89387509.40947
     -2097.445  
  24094174.985   126615756.06946      3641.957    24094179.734    98661647.15945
      2837.886  
  23060130.196   121181809.37248      -505.051    23060129.378    94427386.37046
      -393.551  
  23913213.834   125664775.74247      -331.616    23913213.659    97920607.92645
      -258.402  
  21247662.929   111657261.91149      2019.530    21247664.759    87005683.46048
      1573.660  
  23035860.438   121054283.05648      2572.542    23035860.770    94328010.29246
      2004.578  
  20427810.431   107348877.73549      -533.784    20427812.599    83648485.66848
      -415.938  
  19803799.192   106011290.14908     -1490.379    19803801.857    82453239.29708
     -1159.184  
  19983546.074   107010982.27708      2033.977    19983549.379    83230793.76307
      1581.980  
  23434275.799   125049765.78806     -3563.632    23434281.987    97260960.26504
     -2771.718  
  19813133.089   105801029.05305       250.476    19813138.057    82289711.29206
       194.812  
  22297043.214   119106799.96606     -3494.604    22297048.523    92638646.18105
     -2718.030  
  21544189.893   114842660.45208      3980.523    21544195.899    89322106.81307
      3095.961  
 20 09 28 09 33 10.0000000  0 14G20G24G25G21G11G32G12G10R 3R 4R 2R13
                                R12R14
  21593401.793   113474078.65348     -2948.229    21593402.068    88421353.28846
     -2297.331  
  21831899.910   114727416.80948     -2693.487    21831902.299    89397999.77047
     -2098.824  
  24090710.063   126597547.43746      3641.387    24090714.901    98647458.65045
      2837.449  
  23060611.850   121184340.45048      -507.594    23060610.951    94429358.64446
      -395.527  
  23913530.729   125666440.69347      -334.684    23913530.492    97921905.27244
      -260.797  
  21245741.869   111647166.70249      2018.288    21245743.766    86997817.06548
      1572.690  
  23033413.494   121041424.37248      2570.480    23033413.736    94317990.56545
      2002.977  
  20428319.520   107351553.20549      -536.550    20428321.740    83650570.45348
      -418.093  
  19805192.215   106018747.35908     -1492.543    19805194.979    82459039.35008
     -1160.867  
  19981647.659   107000816.35209      2032.300    19981650.928    83222886.93508
      1580.680  
  23437614.712   125067583.14605     -3563.405    23437620.962    97274818.19004
     -2771.542  
  19812900.257   105799785.80606       246.297    19812905.163    82288744.32806
       191.562  
  22300314.922   119124276.78306     -3496.398    22300320.368    92652239.25406
     -2719.425  
  21540457.111   114822762.59108      3978.563    21540463.059    89306630.70407
      3094.438  
 20 09 28 09 33 15.0000000  0 14G20G24G25G21G11G32G12G10R 3R 4R 2R13
                                R12R14
  21596208.143   113488825.93448     -2950.374    21596208.426    88432844.66546
     -2298.996  
  21834463.844   114740890.18948     -2695.780    21834466.245    89408498.51447
     -2100.608  
  24087245.785   126579342.28646      3640.452    24087250.550    98633272.80945
      2836.715  
  23061096.100   121186885.29448      -510.437    23061095.127    94431341.64146
      -397.742  
  23913850.820   125668122.59146      -338.261    23913850.483    97923215.86444
      -263.581  
  21243822.302   111637079.34349      2016.659    21243824.267    86989956.78948
      1571.421  
  23030968.745   121028577.60048      2568.164    23030969.023    94307980.09445
      2001.168  
  20428831.518   107354243.92749      -539.797    20428833.783    83652667.12148
      -420.625  
  19806587.680   106026217.42409     -1495.339    19806590.495    82464849.40308
     -1163.043  
  19979751.155   106990660.66008      2029.992    19979754.401    83214988.06208
      1578.878  
  23440954.387   125085404.79205     -3564.914    23440960.667    97288679.45504
     -2772.714  
  19812671.896   105798566.11706       241.683    19812676.666    82287795.68706
       187.977  
  22303589.098   119141766.59306     -3499.266    22303594.639    92665842.43406
     -2721.655  
  21536726.402   114802875.65708      3976.094    21536732.248    89291163.10007
      3092.516  
 20 09 28 09 33 20.0000000  0 14G20G24G25G21G11G32G12G10R 3R 4R 2R13
                                R12R14
  21599016.391   113503583.22348     -2952.574    21599016.655    88444343.83446
     -2300.711  
  21837029.717   114754373.84848     -2697.952    21837032.106    89419005.25447
     -2102.305  
  24083782.082   126561140.12147      3639.875    24083786.914    98619089.32845
      2836.265  
  23061582.870   121189443.41348      -513.258    23061581.850    94433334.97046
      -399.945  
  23914173.977   125669820.92046      -341.383    23914173.726    97924539.20645
      -266.019  
  21241904.146   111626999.36649      2015.082    21241906.166    86982102.26448
      1570.195  
  23028526.209   121015742.29848      2565.843    23028526.445    94297978.58146
      1999.358  
  20429346.314   107356949.41549      -542.738    20429348.614    83654775.29648
      -422.913  
  19807985.450   106033699.82909     -1497.858    19807988.339    82470669.05208
     -1165.003  
  19977856.485   106980514.69309      2027.956    19977859.684    83207096.75707
      1577.300  
  23444294.717   125103230.05705     -3565.516    23444301.104    97302543.54004
     -2773.184  
  19812447.837   105797369.59106       237.022    19812452.507    82286865.06706
       184.351  
  22306865.592   119159268.78406     -3501.968    22306871.213    92679455.24506
     -2723.758  
  21532997.637   114782999.27108      3974.152    21533003.394    89275703.70207
      3091.007  
 20 09 28 09 33 25.0000000  0 14G20G24G25G21G11G32G12G10R 3R 4R 2R13
                                R12R14
  21601827.010   113518352.96748     -2955.464    21601827.266    88455852.72146
     -2302.964  
  21839598.022   114767870.31748     -2700.827    21839600.398    89429521.98147
     -2104.547  
  24080319.461   126542943.51947      3638.438    24080324.203    98604910.13645
      2835.141  
  23062072.634   121192017.29748      -516.612    23062071.570    94435340.60246
      -402.555  
  23914500.757   125671538.13046      -345.323    23914500.404    97925877.33644
      -269.081  
  21239987.873   111616929.31349      2012.792    21239989.952    86974255.47148
      1568.405  
  23026086.378   121002920.99347      2562.597    23026086.564    94287987.95846
      1996.827  
  20429864.404   107359672.18549      -546.406    20429866.709    83656896.93548
      -425.773  
  19809386.026   106041197.12909     -1501.172    19809388.958    82476500.28608
     -1167.582  
  19975964.087   106970381.07809      2025.398    19975967.251    83199215.06007
      1575.308  
  23447636.216   125121061.62405     -3567.402    23447642.767    97316412.52405
     -2774.647  
  19812228.627   105796198.80706       231.328    19812233.207    82285954.46606
       179.922  
  22310144.883   119176785.95306     -3504.813    22310150.621    92693079.70806
     -2725.968  
  21529271.309   114763136.00608      3971.223    21529277.016    89260254.50707
      3088.730  
 20 09 28 09 33 30.0000000  0 14G20G24G25G21G11G32G12G10R 3R 4R 2R13
                                R12R14
  21604639.769   113533133.93048     -2956.647    21604639.981    88467370.35246
     -2303.887  
  21842168.525   114781378.43548     -2702.183    21842170.869    89440047.78447
     -2105.602  
  24076857.645   126524751.20747      3638.523    24076862.477    98590734.32345
      2835.215  
  23062565.130   121194605.75348      -518.457    23062564.130    94437357.58446
      -403.992  
  23914830.832   125673273.05846      -347.964    23914830.580    97927229.25944
      -271.140  
  21238073.249   111606867.89549      2012.195    21238075.367    86966415.40848
      1567.945  
  23023648.928   120990112.45347      2561.055    23023649.118    94278007.30346
      1995.629  
  20430385.559   107362411.00149      -548.632    20430387.857    83659031.07648
      -427.511  
  19810789.112   106048707.95709     -1502.960    19810792.081    82482342.04008
     -1168.972  
  19974073.814   106960258.59808      2024.003    19974076.905    83191342.02407
      1574.227  
  23450978.535   125138897.97305     -3566.832    23450985.250    97330285.22904
     -2774.207  
  19812013.986   105795052.47605       227.370    19812018.514    82285062.87906
       176.844  
  22313426.755   119194316.84206     -3507.023    22313432.558    92706714.83306
     -2727.687  
  21525547.195   114743284.56807      3969.840    21525552.872    89244814.51107
      3087.651  
 20 09 28 09 33 35.0000000  0 14G20G24G25G21G11G32G12G10R 3R 4R 2R13
                                R12R14
  21607454.158   113547923.51548     -2959.109    21607454.354    88478894.70546
     -2305.805  
  21844740.692   114794895.17048     -2704.526    21844743.025    89450580.30247
     -2107.426  
  24073396.195   126506560.60447      3637.734    24073400.951    98576559.85844
      2834.601  
  23063059.923   121197206.13048      -521.715    23063058.958    94439383.85446
      -406.530  
  23915163.827   125675023.08346      -351.910    23915163.785    97928592.89744
      -274.214  
  21236159.776   111596812.55749      2010.226    21236161.953    86958580.07948
      1566.409  
  23021213.426   120977314.08348      2558.261    23021213.642    94268034.56445
      1993.448  
  20430909.296   107365163.25349      -552.098    20430911.549    83661175.69548
      -430.207  
  19812194.283   106056229.75809     -1505.637    19812197.254    82488192.32908
     -1171.055  
  19972185.078   106950144.50309      2021.835    19972188.147    83183475.50607
      1572.534  
  23454321.513   125156736.93205     -3568.832    23454328.083    97344159.97605
     -2775.758  
  19811803.400   105793927.80205       222.434    19811807.907    82284188.13706
       173.004  
  22316710.713   119211858.74906     -3509.823    22316716.577    92720358.54706
     -2729.862  
  21521824.741   114723442.22807      3967.305    21521830.447    89229381.58407
      3085.680  
 20 09 28 09 33 40.0000000  0 14G20G24G25G21G11G32G12G10R 3R 4R 2R13
                                R12R14
  21610270.512   113562723.43448     -2961.074    21610270.662    88490427.10946
     -2307.332  
  21847314.919   114808422.57548     -2706.495    21847317.206    89461121.14547
     -2108.957  
  24069935.393   126488373.46747      3636.988    24069940.054    98562388.06345
      2834.016  
  23063557.330   121199820.20948      -524.113    23063556.386    94441420.80346
      -408.397  
  23915500.026   125676789.91746      -355.270    23915499.897    97929969.65544
      -276.835  
  21234247.797   111586765.04149      2008.680    21234249.984    86950750.85448
      1565.202  
  23018780.231   120964527.68148      2555.999    23018780.444    94258071.14946
      1991.691  
  20431435.924   107367930.70449      -555.012    20431438.138    83663332.14448
      -432.480  
  19813601.801   106063764.25109     -1508.222    19813604.775    82494052.48608
     -1173.065  
  19970298.248   106940040.61508      2019.565    19970301.278    83175616.92207
      1570.769  
  23457665.176   125174579.89006     -3568.770    23457671.818    97358037.81005
     -2775.714  
  19811597.194   105792826.61306       218.215    19811601.674    82283331.65306
       169.723  
  22319997.036   119229413.47706     -3511.789    22320002.997    92734012.23506
     -2731.390  
  21518104.376   114703611.03008      3965.218    21518110.129    89213957.32507
      3084.059  
 20 09 28 09 33 45.0000000  0 14G20G24G25G21G11G32G12G10R 3R 4R 2R13
                                R12R14
  21613088.734   113577533.32048     -2963.511    21613088.896    88501967.27746
     -2309.233  
  21849891.067   114821960.22848     -2709.112    21849893.320    89471669.96247
     -2111.000  
  24066475.228   126470189.42447      3635.776    24066479.573    98548218.69045
      2833.074  
  23064057.282   121202447.59848      -527.406    23064056.338    94443468.11446
      -410.968  
  23915839.302   125678573.16646      -359.109    23915839.216    97931359.20344
      -279.823  
  21232337.227   111576724.89949      2006.727    21232339.410    86942927.37348
      1563.683  
  23016349.255   120951752.81448      2553.433    23016349.463    94248116.71846
      1989.687  
  20431965.385   107370712.91749      -558.441    20431967.545    83665500.10148
      -435.151  
  19815011.633   106071311.13109     -1510.901    19815014.566    82499922.28408
     -1175.145  
  19968413.262   106929946.50308      2017.457    19968416.244    83167765.94407
      1569.129  
  23461009.588   125192426.62506     -3570.265    23461016.139    97371918.58005
     -2776.883  
  19811395.462   105791748.75206       212.776    19811399.843    82282493.32906
       165.491  
  22323285.602   119246980.62406     -3515.199    22323291.683    92747675.55906
     -2734.047  
  21514386.020   114683790.31707      3962.398    21514391.793    89198541.22307
      3081.867  
 20 09 28 09 33 50.0000000  0 14G20G24G25G21G11G32G12G10R 3R 4R 2R13
                                R12R14
  21615908.927   113592353.65848     -2964.354    21615909.159    88513515.59546
     -2309.890  
  21852469.264   114835508.62148     -2710.000    21852471.523    89482227.15047
     -2111.688  
  24063015.696   126452008.96647      3636.499    24063019.921    98534052.12045
      2833.637  
  23064559.843   121205088.72848      -528.819    23064558.920    94445526.13646
      -412.070  
  23916181.809   125680373.33746      -361.019    23916181.737    97932761.92644
      -281.313  
  21230428.176   111566692.67149      2006.335    21230430.326    86935110.05848
      1563.378  
  23013920.606   120938990.02448      2551.996    23013920.809    94238171.69146
      1988.570  
  20432497.753   107373510.40249      -560.367    20432499.873    83667679.95948
      -436.652  
  19816423.883   106078870.88809     -1512.527    19816426.741    82505802.10108
     -1176.410  
  19966530.209   106919862.78008      2016.226    19966533.164    83159923.04607
      1568.176  
  23464354.885   125210277.39606     -3570.012    23464361.080    97385802.51105
     -2776.679  
  19811198.082   105790694.47006       209.254    19811202.456    82281673.33706
       162.754  
  22326576.607   119264560.61506     -3516.840    22326582.706    92761348.87206
     -2735.324  
  21510669.728   114663980.76508      3961.589    21510675.581    89183133.80207
      3081.237  
 20 09 28 09 33 55.0000000  0 14G20G24G25G21G11G32G12G10R 3R 4R13R12
                                R14R19
  21618730.359   113607180.50948     -2966.859    21618730.577    88525068.98646
     -2311.839  
  21855048.748   114849063.68048     -2712.585    21855050.980    89492789.53147
     -2113.706  
  24059556.140   126433828.18446      3635.456    24059560.132    98519885.29945
      2832.819  
  23065064.270   121207739.69848      -531.886    23065063.390    94447591.82446
      -414.456  
  23916526.797   125682186.47746      -364.921    23916526.787    97934174.78544
      -284.355  
  21228519.886   111556664.41649      2004.534    21228522.006    86927295.83648
      1561.976  
  23011493.529   120926235.33848      2549.422    23011493.705    94228232.98246
      1986.563  
  20433032.292   107376319.23549      -563.715    20433034.360    83669868.65748
      -439.262  
  19817837.758   106086439.37909     -1515.362    19817840.515    82511688.70008
     -1178.620  
  19964648.304   106909785.32408      2013.976    19964651.278    83152085.02707
      1566.426  
  19811004.424   105789659.84905       204.305    19811008.781    82280868.63306
       158.902  
  22329869.379   119282149.42006     -3519.328    22329875.375    92775029.05306
     -2737.258  
  21506954.772   114644178.27408      3958.983    21506960.709    89167731.87507
      3079.211  
  22990703.030   122984756.21914     -3689.312    22990707.286    95654830.32815
     -2869.855  
 20 09 28 09 34  0.0000000  0 14G20G24G25G21G11G32G12G10R 3R 4R13R12
                                R14R19
  21621554.172   113622019.87048     -2969.223    21621554.413    88536632.12146
     -2313.683  
  21857630.628   114862631.49248     -2714.772    21857632.865    89503361.85747
     -2115.406  
  24056097.613   126415653.12946      3635.031    24056101.509    98505722.91044
      2832.488  
  23065571.693   121210406.53948      -534.926    23065570.856    94449669.87746
      -416.828  
  23916875.364   125684018.67946      -368.741    23916875.565    97935602.47443
      -287.332  
  21226613.520   111546646.20649      2002.781    21226615.591    86919489.44948
      1560.609  
  23009069.167   120913494.85248      2546.797    23009069.280    94218305.33846
      1984.515  
  20433570.136   107379145.47149      -566.851    20433572.168    83672070.92248
      -441.703  
  19819254.441   106094022.90009     -1518.129    19819257.083    82517586.99508
     -1180.769  
  19962768.739   106899720.40309      2011.921    19962771.742    83144256.76208
      1564.827  
  19810815.620   105788650.98906       199.546    19810819.928    82280083.96206
       155.199  
  22333164.975   119299753.18306     -3522.269    22333170.859    92788720.86706
     -2739.547  
  21503242.371   114624389.11508      3956.609    21503248.354    89152340.31807
      3077.362  
  22994152.819   123003209.66804     -3691.973    22994156.846    95669182.99105
     -2871.538  
 20 09 28 09 34  5.0000000  0 14G20G24G25G21G11G32G12G10R 3R 4R13R12
                                R14R19
  21624380.221   113636871.01648     -2971.359    21624380.498    88548204.43846
     -2315.347  
  21860214.843   114876211.50848     -2717.222    21860217.058    89513943.69547
     -2117.316  
  24052640.034   126397483.14846      3633.602    24052643.789    98491564.50146
      2831.379  
  23066081.990   121213088.47848      -537.875    23066081.218    94451759.69246
      -419.129  
  23917227.402   125685869.15246      -371.847    23917227.922    97937044.41044
      -289.754  
  21224708.918   111536637.29749      2000.867    21224710.936    86911690.29848
      1559.117  
  23006647.393   120900767.84448      2544.047    23006647.468    94208388.20346
      1982.374  
  20434111.151   107381988.36749      -570.242    20434113.154    83674286.16748
      -444.348  
  19820673.773   106101620.69709     -1520.921    19820676.309    82523496.39008
     -1182.938  
  19960891.400   106889667.21409      2009.355    19960894.372    83136437.61508
      1562.828  
  19810631.315   105787667.09406       194.613    19810635.724    82279318.71906
       151.367  
  22336463.183   119317371.11906     -3524.680    22336469.013    92802423.71606
     -2741.417  
  21499532.364   114604612.56908      3954.065    21499538.364    89136958.56907
      3075.386  
  22997604.483   123021674.68004     -3694.097    22997608.797    95683544.66205
     -2873.190  
 20 09 28 09 34 10.0000000  0 14G20G24G25G21G11G32G12G10R 3R 4R13R12
                                R14R19
  21627208.242   113651732.52348     -2973.007    21627208.518    88559784.83246
     -2316.633  
  21862801.036   114889802.04348     -2718.695    21862803.265    89524533.71747
     -2118.468  
  24049183.145   126379316.76146      3633.652    24049186.826    98477408.87545
      2831.413  
  23066594.870   121215784.11748      -540.063    23066594.204    94453860.19045
      -420.831  
  23917582.614   125687736.45946      -374.515    23917583.327    97938499.45644
      -291.836  
  21222805.824   111526636.28649      1999.863    21222807.816    86903897.30848
      1558.336  
  23004227.932   120888052.95848      2541.995    23004227.953    94198480.50746
      1980.776  
  20434655.064   107384846.52249      -572.629    20434657.057    83676513.29748
      -446.207  
  19822095.514   106109231.20109     -1522.870    19822097.925    82529415.66708
     -1184.461  
  19959015.982   106879624.37009      2007.988    19959018.890    83128626.51407
      1561.766  
  19810451.477   105786706.80105       190.362    19810455.899    82278571.82406
       148.059  
  22339763.762   119335001.84206     -3527.082    22339769.573    92816136.49806
     -2743.289  
  21495824.392   114584847.17508      3952.484    21495830.460    89121585.50007
      3074.156  
  23001059.321   123040150.07604     -3696.301    23001062.693    95697914.39705
     -2874.905  
 20 09 28 09 34 15.0000000  0 14G20G24G25G21G11G32G12G10R 3R 4R13R12
                                R14R19
  21630037.906   113666602.47548     -2974.590    21630038.120    88571371.79646
     -2317.866  
  21865388.882   114903401.17348     -2720.542    21865391.139    89535130.44247
     -2119.901  
  24045726.586   126361152.16946      3633.043    24045730.141    98463254.67144
      2830.940  
  23067110.007   121218491.61748      -542.522    23067109.484    94455969.92546
      -422.746  
  23917940.703   125689618.69946      -377.812    23917941.394    97939966.11643
      -294.401  
  21220903.876   111516641.29449      1998.652    21220905.855    86896109.00448
      1557.390  
  23001810.420   120875348.35148      2539.926    23001810.395    94188580.82446
      1979.164  
  20435201.516   107387718.05649      -575.354    20435203.515    83678750.85748
      -448.331  
  19823519.260   106116852.59509     -1525.065    19823521.619    82535343.41308
     -1186.167  
  19957142.110   106869589.99909      2006.354    19957144.982    83120822.00707
      1560.496  
  19810275.638   105785768.13905       185.940    19810280.101    82277841.74806
       144.617  
  22343066.332   119352643.36006     -3529.288    22343072.160    92829857.66806
     -2745.008  
  21492118.222   114565091.05108      3950.387    21492124.324    89106219.63407
      3072.522  
  23004515.230   123058633.64104     -3698.277    23004518.232    95712290.49505
     -2876.440  
 20 09 28 09 34 20.0000000  0 14G20G24G25G21G11G32G12G10R 3R 4R13R12
                                R14R19
  21632869.392   113681482.03648     -2976.914    21632869.551    88582966.25146
     -2319.676  
  21867978.658   114917010.44048     -2722.758    21867980.949    89545735.06247
     -2121.632  
  24042270.561   126342990.41846      3632.055    24042274.084    98449102.66745
      2830.171  
  23067627.584   121221212.00548      -545.426    23067627.200    94458089.70046
      -425.012  
  23918301.912   125691517.02046      -380.863    23918302.541    97941445.32944
      -296.777  
  21219003.284   111506653.42649      1996.797    21219005.251    86888326.25148
      1555.944  
  22999395.023   120862655.03948      2537.374    22999395.034    94178689.94746
      1977.176  
  20435750.737   107390604.07349      -578.711    20435752.720    83680999.69848
      -450.948  
  19824945.230   106124485.95109     -1527.922    19824947.594    82541280.47008
     -1188.387  
  19955270.044   106859565.14108      2003.976    19955272.865    83113024.89208
      1558.644  
  19810104.201   105784852.42405       180.727    19810108.587    82277129.52306
       140.562  
  22346371.080   119370296.82306     -3532.043    22346376.938    92843588.12806
     -2747.147  
  21488414.080   114545345.29508      3948.094    21488420.112    89090861.84007
      3070.738  
  23007972.203   123077126.64704     -3699.063    23007975.536    95726673.94105
     -2877.050  
 20 09 28 09 34 25.0000000  0 14G20G24G25G21G11G32G12G10R 3R 4R13R12
                                R14R19
  21635702.993   113696372.64948     -2978.980    21635703.113    88594569.30746
     -2321.289  
  21870570.598   114930631.02048     -2725.008    21870572.919    89556348.49547
     -2123.387  
  24038815.368   126324833.09846      3631.667    24038818.755    98434954.10745
      2829.871  
  23068147.920   121223946.88848      -548.417    23068147.656    94460220.78646
      -427.340  
  23918666.468   125693432.96146      -384.870    23918667.154    97942938.29443
      -299.894  
  21217104.331   111496674.20749      1994.926    21217106.284    86880550.23948
      1554.488  
  22996982.077   120849974.57948      2534.883    22996982.025    94168809.07845
      1975.233  
  20436303.007   107393506.08849      -581.925    20436304.971    83683261.00948
      -453.449  
  19826373.749   106132132.89409     -1530.605    19826376.152    82547228.09108
     -1190.476  
  19953400.049   106849551.37208      2001.887    19953402.881    83105236.41308
      1556.898  
  19809937.117   105783961.02005       175.914    19809941.656    82276436.21106
       136.820  
  22349678.361   119387963.72706     -3534.831    22349684.212    92857329.05406
     -2749.315  
  21484712.129   114525611.50008      3945.698    21484718.150    89075513.34307
      3068.879  
  23011431.468   123095630.60204     -3701.030    23011434.834    95741065.89905
     -2878.581  
 20 09 28 09 34 30.0000000  0 14G20G24G25G21G11G32G12G10R 3R 4R13R12
                                R14R19
  21638538.604   113711273.69848     -2981.078    21638538.670    88606180.50246
     -2322.922  
  21873164.504   114944262.08848     -2727.211    21873166.855    89566970.10447
     -2125.101  
  24035360.783   126306679.56946      3630.305    24035364.183    98420808.52544
      2828.809  
  23068670.915   121226695.53048      -551.140    23068670.765    94462362.58046
      -429.460  
  23919034.265   125695365.84046      -388.237    23919035.076    97944444.43645
      -302.519  
  21215206.907   111486702.98849      1993.479    21215208.825    86872780.45948
      1553.362  
  22994571.411   120837306.35148      2532.523    22994571.406    94158937.74746
      1973.394  
  20436858.189   107396423.43049      -584.910    20436860.130    83685534.26348
      -455.776  
  19827804.670   106139792.69509     -1533.137    19827807.112    82553185.71108
     -1192.444  
  19951532.026   106839548.03309      1999.769    19951534.890    83097456.04508
      1555.374  
  19809774.587   105783093.34005       171.198    19809779.160    82275761.34906
       133.151  
  22352988.075   119405643.40806     -3537.222    22352993.866    92871079.93005
     -2751.171  
  21481012.313   114505889.08708      3943.469    21481018.315    89060173.69907
      3067.141  
  23014891.515   123114144.83303     -3704.172    23014896.098    95755465.85205
     -2881.026  
 20 09 28 09 34 35.0000000  0 14G20G24G25G21G11G32G12G10R 3R 4R13R12
                                R14R19
  21641376.224   113726185.33248     -2982.862    21641376.263    88617799.93946
     -2324.312  
  21875760.504   114957904.13148     -2729.031    21875762.872    89577600.26647
     -2126.522  
  24031906.976   126288530.00546      3629.905    24031910.418    98406666.02945
      2828.500  
  23069196.556   121229458.13148      -553.390    23069196.429    94464515.27246
      -431.214  
  23919405.249   125697315.84346      -391.113    23919406.198    97945963.89844
      -304.766  
  21213311.036   111476739.93149      1992.227    21213312.918    86865017.03948
      1552.378  
  22992163.064   120824650.52748      2530.273    22992163.042    94149076.08846
      1971.641  
  20437416.339   107399356.31249      -587.706    20437418.238    83687819.62348
      -457.956  
  19829238.023   106147465.57609     -1535.401    19829240.523    82559153.50608
     -1194.206  
  19949665.987   106829555.35409      1997.913    19949668.882    83089683.96808
      1553.934  
  19809616.544   105782249.52306       166.762    19809621.155    82275105.04706
       129.702  
  22356300.124   119423336.02705     -3539.641    22356305.870    92884840.85205
     -2753.058  
  21477314.655   114486178.14608      3941.546    21477320.587    89044842.97507
      3065.648  
  23018354.410   123132669.33203     -3705.465    23018359.229    95769873.79105
     -2882.031  
 20 09 28 09 34 40.0000000  0 14G20G24G25G21G11G32G12G10R 3R 4R13R12
                                R14R19
  21644215.212   113741104.09748     -2984.820    21644215.201    88629424.94946
     -2325.839  
  21878357.867   114971553.46248     -2730.773    21878360.276    89588236.10947
     -2127.879  
  24028453.277   126270381.00947      3629.504    24028456.710    98392523.95545
      2828.179  
  23069724.229   121232231.32348      -556.043    23069724.224    94466676.19346
      -433.284  
  23919778.944   125699279.56546      -394.429    23919779.826    97947494.09243
      -307.347  
  21211416.064   111466781.66049      1990.956    21211417.915    86857257.35048
      1551.395  
  22989756.434   120812003.75448      2528.319    22989756.435    94139221.46646
      1970.120  
  20437976.781   107402301.29749      -590.418    20437978.658    83690114.41749
      -460.069  
  19830673.172   106155148.04309     -1537.655    19830675.747    82565128.75708
     -1195.956  
  19947801.292   106819569.87109      1996.164    19947804.188    83081917.49008
      1552.538  
  19809462.367   105781426.09906       162.354    19809466.942    82274464.61606
       126.277  
  22359613.874   119441038.04805     -3541.605    22359619.565    92898609.07805
     -2754.585  
  21473618.479   114466475.28908      3939.636    21473624.363    89029518.54607
      3064.160  
  23021818.418   123151200.71703     -3707.065    23021823.671    95784287.08505
     -2883.277  
 20 09 28 09 34 45.0000000  0 14G20G24G25G21G11G32G12G10R 3R 4R13R12
                                R14R19
  21647056.341   113756033.98649     -2987.438    21647056.228    88641058.60646
     -2327.879  
  21880957.372   114985214.07448     -2733.511    21880959.818    89598880.73447
     -2130.011  
  24025000.485   126252236.49546      3628.234    24025003.895    98378385.38045
      2827.190  
  23070254.678   121235018.91548      -559.190    23070254.710    94468848.35046
      -435.733  
  23920155.985   125701260.86746      -398.097    23920156.738    97949037.95543
      -310.210  
  21209522.744   111456832.07549      1988.761    21209524.573    86849504.42948
      1549.679  
  22987352.217   120799369.94848      2525.163    22987352.334    94129376.94946
      1967.659  
  20438540.269   107405262.32249      -594.102    20438542.137    83692421.70748
      -462.941  
  19832110.868   106162844.10909     -1540.805    19832113.504    82571114.58708
     -1198.402  
  19945938.678   106809595.56609      1993.452    19945941.529    83074159.70508
      1550.473  
  19809312.809   105780627.12406       157.250    19809317.284    82273843.20206
       122.305  
  22362930.104   119458753.50305     -3545.289    22362935.829    92912387.76505
     -2757.449  
  21469924.548   114446784.56208      3936.538    21469930.419    89014203.54507
      3061.754  
  23025284.677   123169743.02204     -3710.437    23025290.039    95798708.86705
     -2885.897  
 20 09 28 09 34 50.0000000  0 14G20G24G25G21G11G32G12G10R 3R 4R13R12
                                R14R19
  21649899.696   113770975.57349     -2989.378    21649899.509    88652701.39446
     -2329.390  
  21883559.175   114998886.67648     -2735.550    21883561.619    89609534.70847
     -2131.602  
  24021548.693   126234097.17446      3627.519    24021552.154    98364250.85844
      2826.637  
  23070788.012   121237821.63648      -562.038    23070788.058    94471032.28946
      -437.953  
  23920536.527   125703260.40746      -401.491    23920537.317    97950596.04843
      -312.852  
  21207631.172   111446891.82749      1987.125    21207633.014    86841758.78248
      1548.409  
  22984950.586   120786749.75948      2522.925    22984950.776    94119543.03146
      1965.913  
  20439106.935   107408240.01649      -597.155    20439108.789    83694741.98948
      -465.319  
  19833551.201   106170554.35809     -1543.406    19833553.904    82577111.44908
     -1200.429  
  19944078.297   106799633.09009      1991.445    19944081.071    83066411.12008
      1548.874  
  19809167.931   105779853.20506       152.312    19809172.287    82273241.26906
       118.465  
  22366248.930   119476482.95105     -3547.093    22366254.719    92926177.32705
     -2758.854  
  21466233.008   114427106.51108      3934.301    21466238.855    88998898.40807
      3060.012  
  23028752.983   123188296.77904     -3710.632    23028758.455    95813139.54505
     -2886.371  
 20 09 28 09 34 55.0000000  0 13G20G24G25G21G11G32G12G10R 3R 4R13R12
                                R14
  21652744.570   113785925.14549     -2990.438    21652744.288    88664350.41446
     -2330.211  
  21886162.559   115012567.49048     -2736.659    21886164.979    89620195.09247
     -2132.460  
  24018097.180   126215959.28647      3627.777    24018100.666    98350117.43645
      2826.836  
  23071323.532   121240635.74748      -563.683    23071323.597    94473225.10746
      -439.237  
  23920919.882   125705274.48547      -404.058    23920920.555    97952165.50044
      -314.852  
  21205740.662   111436957.19049      1986.703    21205742.509    86834017.51248
      1548.081  
  22982550.857   120774139.50548      2521.222    22982551.098    94109716.87745
      1964.590  
  20439676.054   107411230.66249      -599.148    20439677.913    83697072.36148
      -466.866  
  19834993.468   106178275.11609     -1544.886    19834996.242    82583116.47708
     -1201.582  
  19942219.399   106789678.71509      1990.367    19942222.147    83058668.83308
      1548.020  
  19809027.047   105779100.54806       148.483    19809031.331    82272655.86906
       115.487  
  22369569.868   119494222.65006     -3548.351    22369575.521    92939974.86105
     -2759.831  
  21462543.141   114407437.47308      3933.249    21462549.005    88983600.28307
      3059.195  
 20 09 28 09 35  0.0000000  0 13G20G24G25G21G11G32G12G10R 3R 4R13R12
                                R14
  21655591.250   113800884.17349     -2992.651    21655590.894    88676006.79146
     -2331.940  
  21888767.747   115026257.90748     -2738.988    21888770.140    89630862.94747
     -2134.280  
  24014646.205   126197824.32147      3626.898    24014649.800    98335986.31145
      2826.155  
  23071861.527   121243462.68448      -566.679    23071861.604    94475427.90646
      -441.574  
  23921306.249   125707304.54247      -407.387    23921306.929    97953747.35544
      -317.440  
  21203851.505   111427029.63749      1984.813    21203853.330    86826281.76448
      1546.604  
  22980153.310   120761540.62648      2518.625    22980153.574    94099899.57146
      1962.565  
  20440247.891   107414235.71549      -602.516    20440249.793    83699413.96249
      -469.495  
  19836437.995   106186007.75009     -1547.820    19836440.778    82589130.74708
     -1203.863  
  19940362.307   106779733.85509      1987.960    19940365.015    83050933.94008
      1546.191  
  19808890.445   105778370.53706       143.477    19808894.618    82272088.08906
       111.589  
  22372892.942   119511974.10306     -3551.812    22372898.540    92953781.54905
     -2762.519  
  21458855.240   114387778.92008      3930.632    21458861.121    88968310.31007
      3057.159  
 20 09 28 09 35  5.0000000  0 13G20G24G25G21G11G32G12G10R 3R 4R13R12
                                R14
  21658440.103   113815854.59249     -2995.875    21658439.672    88687672.05846
     -2334.448  
  21891375.102   115039959.93248     -2742.043    21891377.541    89641539.84947
     -2136.660  
  24011196.178   126179694.24647      3624.878    24011199.824    98321858.98545
      2824.582  
  23072402.310   121246304.39248      -570.370    23072402.400    94477642.22146
      -444.449  
  23921695.994   125709352.50946      -411.973    23921696.648    97955343.16044
      -321.026  
  21201964.051   111417111.12249      1982.309    21201965.838    86818553.05148
      1544.655  
  22977758.325   120748955.07748      2515.195    22977758.505    94090092.66646
      1959.890  
  20440822.841   107417257.12849      -606.457    20440824.781    83701768.31549
      -472.562  
  19837885.090   106193754.19109     -1551.301    19837887.886    82595155.75808
     -1206.565  
  19938507.371   106769800.50409      1984.983    19938510.053    83043207.99708
      1543.871  
  19808758.287   105777665.10205       138.457    19808762.499    82271539.42206
       107.687  
  22376218.671   119529739.07706     -3554.710    22376224.100    92967598.76005
     -2764.772  
  21455169.707   114368132.83008      3927.430    21455175.589    88953030.02507
      3054.668  
 20 09 28 09 35 10.0000000  0 13G20G24G25G21G11G32G12G10R 3R 4R13R12
                                R14
  21661290.951   113830835.55348     -2996.840    21661290.461    88699345.53446
     -2335.203  
  21893984.509   115053672.79748     -2743.098    21893987.010    89652225.18847
     -2137.484  
  24007746.897   126161568.30847      3625.391    24007750.599    98307734.89045
      2824.980  
  23072945.778   121249160.11648      -572.184    23072945.851    94479867.46846
      -445.855  
  23922089.058   125711417.57446      -414.059    23922089.583    97956952.31843
      -322.645  
  21200078.166   111407200.85649      1981.569    21200079.918    86810830.77048
      1544.081  
  22975365.776   120736382.15048      2513.683    22975365.867    94080295.58846
      1958.714  
  20441400.735   107420294.10949      -608.456    20441402.753    83704134.79648
      -474.121  
  19839334.609   106201513.80109     -1552.805    19839337.456    82601191.01808
     -1207.737  
  19936654.435   106759877.93009      1983.871    19936657.127    83035490.43808
      1543.008  
  19808630.732   105776983.77605       133.827    19808634.878    82271009.50206
       104.089  
  22379546.681   119547516.93206     -3556.554    22379552.136    92981425.97705
     -2766.214  
  21451486.345   114348498.40408      3926.047    21451492.267    88937758.81007
      3053.594  
 20 09 28 09 35 15.0000000  0 13G20G24G25G21G11G32G12G10R 3R 4R13R12
                                R14
  21664143.211   113845824.03148     -2998.612    21664142.672    88711024.86046
     -2336.586  
  21896595.368   115067393.33148     -2745.163    21896597.948    89662916.51147
     -2139.094  
  24004297.825   126143443.43647      3624.688    24004301.525    98293611.63545
      2824.437  
  23073491.332   121252026.74148      -574.727    23073491.464    94482101.19146
      -447.844  
  23922484.659   125713496.75247      -417.527    23922485.395    97958572.47644
      -325.348  
  21198193.271   111397295.79249      1980.183    21198194.971    86803112.54248
      1542.999  
  22972975.048   120723818.75748      2511.476    22972975.029    94070505.94546
      1956.995  
  20441981.018   107423343.64049      -611.409    20441983.121    83706511.05549
      -476.426  
  19840786.018   106209283.30809     -1555.179    19840788.873    82607233.96808
     -1209.586  
  19934802.950   106749963.00109      1982.042    19934805.630    83027778.83108
      1541.542  
  19808506.999   105776323.30305       129.585    19808511.171    82270495.80506
       100.788  
  22382876.549   119565304.61306     -3559.218    22382882.001    92995260.82605
     -2768.284  
  21447804.540   114328872.59608      3924.094    21447810.556    88922494.30307
      3052.074  
 20 09 28 09 35 20.0000000  0 13G20G24G25G21G11G32G12G10R 3R 4R13R12
                                R14
  21666997.815   113860824.82948     -3001.137    21666997.252    88722713.79446
     -2338.550  
  21899208.600   115081126.36448     -2747.800    21899211.299    89673617.56347
     -2141.148  
  24000849.873   126125324.51546      3623.409    24000853.458    98279493.00345
      2823.437  
  23074039.892   121254909.12848      -577.769    23074040.030    94484347.19646
      -450.214  
  23922883.868   125715594.79746      -421.194    23922884.695    97960207.29443
      -328.207  
  21196310.282   111387400.74149      1978.180    21196311.953    86795402.11848
      1541.438  
  22970587.066   120711269.76648      2508.581    22970586.941    94060727.52845
      1954.738  
  20442564.604   107426410.50049      -614.961    20442566.771    83708900.81849
      -479.191  
  19842240.215   106217067.76609     -1557.995    19842243.053    82613288.54808
     -1211.777  
  19932953.759   106740060.66309      1979.398    19932956.516    83020077.02508
      1539.531  
  19808388.041   105775688.47605       125.098    19808392.303    82270002.05006
        97.292  
  22386209.260   119583106.82406     -3561.777    22386214.615    93009106.97105
     -2770.272  
  21444125.275   114309260.29107      3921.323    21444131.391    88907240.29207
      3049.918  
 20 09 28 09 35 25.0000000  0 13G20G24G25G21G11G32G12G10R 3R 4R13R12
                                R14
  21669853.994   113875833.86948     -3002.602    21669853.384    88734409.14746
     -2339.695  
  21901823.460   115094867.85948     -2749.152    21901826.259    89684325.22847
     -2142.198  
  23997402.182   126107207.40446      3623.519    23997405.839    98265375.76645
      2823.523  
  23074590.678   121257803.18648      -579.968    23074590.810    94486602.30146
      -451.925  
  23923285.925   125717707.65646      -424.190    23923286.756    97961853.66944
      -330.543  
  21194428.426   111377511.64749      1977.093    21194430.067    86787696.32548
      1540.590  
  22968201.014   120698731.04248      2506.629    22968200.854    94050957.12245
      1953.222  
  20443150.715   107429490.62849      -617.417    20443152.932    83711300.92349
      -481.104  
  19843696.404   106224862.95309     -1560.266    19843699.221    82619351.46708
     -1213.543  
  19931106.150   106730166.77009      1977.800    19931108.947    83012381.77608
      1538.288  
  19808273.165   105775075.23605       120.753    19808277.447    82269525.08306
        93.918  
  22389543.895   119600919.53206     -3563.718    22389549.168    93022961.29505
     -2771.784  
  21440447.799   114289657.43008      3919.437    21440454.008    88891993.63707
      3048.452  
 20 09 28 09 35 30.0000000  0 13G20G24G25G21G11G32G12G10R 3R 4R13R12
                                R14
  21672712.352   113890854.39348     -3004.905    21672711.724    88746113.44746
     -2341.488  
  21904440.563   115108621.01648     -2751.484    21904443.426    89695041.96547
     -2144.020  
  23993955.490   126089095.44346      3622.156    23993959.278    98251262.57945
      2822.464  
  23075144.318   121260712.14848      -583.026    23075144.374    94488869.02046
      -454.313  
  23923691.418   125719838.50447      -427.582    23923692.347    97963514.08744
      -333.180  
  21192548.320   111367631.74749      1975.418    21192549.955    86779997.70848
      1539.281  
  22965817.497   120686205.82348      2503.929    22965817.369    94041197.21046
      1951.112  
  20443739.973   107432587.26149      -620.680    20443742.217    83713713.88248
      -483.647  
  19845155.204   106232672.18109     -1562.858    19845158.020    82625425.31108
     -1215.558  
  19929260.725   106720284.57509      1975.609    19929263.524    83004695.62508
      1536.582  
  19808162.995   105774486.77505       115.449    19808167.258    82269067.40206
        89.792  
  22392881.099   119618745.96406     -3566.312    22392886.275    93036826.29405
     -2773.801  
  21436772.676   114270067.30008      3916.921    21436778.981    88876756.87507
      3046.495  
 20 09 28 09 35 35.0000000  0 14G20G24G25G21G11G32G12G10R 3R 4R13R12
                                R14R19
  21675572.519   113905884.45048     -3006.897    21675571.861    88757825.16846
     -2343.042  
  21907059.547   115122383.96548     -2753.629    21907062.451    89705766.34247
     -2145.687  
  23990509.387   126070986.70746      3621.640    23990513.372    98237151.85745
      2822.054  
  23075700.414   121263634.07748      -585.645    23075700.494    94491145.83446
      -456.351  
  23924099.917   125721985.43047      -431.086    23924100.699    97965187.00144
      -335.914  
  21190669.588   111357759.13249      1973.758    21190671.229    86772304.76548
      1537.992  
  22963436.185   120673692.28748      2501.229    22963436.133    94031446.41346
      1949.011  
  20444332.002   107435698.48849      -623.629    20444334.272    83716138.21848
      -485.948  
  19846616.335   106240493.60409     -1565.469    19846619.103    82631508.63008
     -1217.574  
  19927417.124   106710412.14109      1973.523    19927419.873    82997017.07008
      1534.961  
  19808057.198   105773921.26205       110.983    19808061.348    82268627.55806
        86.315  
  22396220.524   119636584.10406     -3568.926    22396225.561    93050700.40805
     -2775.831  
  21433099.602   114250487.90607      3914.824    21433105.947    88861528.47107
      3044.863  
  23060047.604   123355704.83314     -3728.891    23060052.623    95943346.33015
     -2900.054  
 20 09 28 09 35 40.0000000  0 14G20G24G25G21G11G32G12G10R 3R 4R13R12
                                R14R19
  21678434.509   113920924.18648     -3008.828    21678433.833    88769544.43246
     -2344.547  
  21909680.476   115136156.91148     -2755.707    21909683.347    89716498.50447
     -2147.305  
  23987063.876   126052881.32846      3620.734    23987067.917    98223043.79745
      2821.355  
  23076259.001   121266569.15848      -588.320    23076259.010    94493432.92246
      -458.429  
  23924511.536   125724148.65847      -434.445    23924512.321    97966872.65244
      -338.531  
  21188792.266   111347893.95649      1972.391    21188793.934    86764617.61848
      1536.929  
  22961057.118   120661190.58448      2499.003    22961057.142    94021704.84646
      1947.280  
  20444926.851   107438824.47149      -626.683    20444929.118    83718574.04749
      -488.327  
  19848079.746   106248327.17009     -1567.913    19848082.470    82637601.39908
     -1219.492  
  19925575.425   106700549.74009      1971.531    19925578.071    82989346.31308
      1533.414  
  19807955.567   105773378.68305       106.016    19807959.711    82268205.55506
        82.457  
  22399562.204   119654434.22906     -3571.417    22399567.104    93064583.83905
     -2777.773  
  21429428.552   114230919.48907      3912.437    21429434.948    88846308.59707
      3043.007  
  23063533.767   123374353.48904     -3730.761    23063538.852    95957850.83805
     -2901.706  
 20 09 28 09 35 45.0000000  0 14G20G24G25G21G11G32G12G10R 3R 4R13R12
                                R14R19
  21681298.617   113935975.11348     -3010.859    21681297.967    88781272.42846
     -2346.129  
  21912303.576   115149941.11448     -2757.383    21912306.364    89727239.44347
     -2148.608  
  23983619.310   126034780.89046      3619.906    23983623.617    98208939.55844
      2820.706  
  23076820.372   121269518.89948      -591.003    23076820.311    94495731.41946
      -460.527  
  23924926.487   125726329.67847      -437.211    23924927.311    97968572.12144
      -340.687  
  21186916.650   111338037.74549      1970.886    21186918.338    86756937.45848
      1535.757  
  22958680.559   120648702.24148      2496.913    22958680.765    94011973.66646
      1945.647  
  20445524.800   107441966.71449      -629.425    20445527.046    83721022.55548
      -490.461  
  19849545.694   106256174.53809     -1570.188    19849548.438    82643704.90408
     -1221.262  
  19923735.877   106690698.88609      1969.613    19923738.420    82981684.54307
      1531.922  
  19807858.536   105772860.85705       101.512    19807862.734    82267802.81306
        78.952  
  22402906.299   119672297.69006     -3573.371    22402911.083    93078477.64005
     -2779.292  
  21425759.893   114211363.56708      3910.718    21425766.241    88831098.44307
      3041.671  
  23067022.006   123393012.99604     -3732.409    23067027.081    95972363.79105
     -2902.983  
